[{"id":"B0FFGDY6VZ","name":"厚街镇南五社区图书馆","type":"科教文化服务;图书馆;图书馆","typecode":"140500","address":"东坑街与南五大街交叉口北150米","location":"113.665475,22.905555","transed_lng":113.66035841544982,"transed_lat":22.908433817004717,"cityname":"东莞市","adname":"东莞市"},{"id":"B0FFGE63BQ","name":"厚街镇新塘社区图书馆","type":"科教文化服务;图书馆;图书馆","typecode":"140500","address":"新塘一路与新塘二路交叉口东南50米","location":"113.655216,22.909324","transed_lng":113.65011473666614,"transed_lat":22.91222027319113,"cityname":"东莞市","adname":"东莞市"},{"id":"B0FFHGL83B","name":"东莞图书馆(新科分馆)","type":"科教文化服务;图书馆;图书馆","typecode":"140500","address":"赵屋东路与高科路交叉口东200米","location":"113.725148,23.013934","transed_lng":113.71995261672828,"transed_lat":23.01667114555697,"cityname":"东莞市","adname":"东莞市"},{"id":"B0FFH2BHSZ","name":"东莞图书馆上桥服务点","type":"科教文化服务;图书馆;图书馆","typecode":"140500","address":"桥石路与闸门头一巷交叉口西北50米","location":"113.790187,23.070789","transed_lng":113.78504512612092,"transed_lat":23.073518835153425,"cityname":"东莞市","adname":"东莞市"},{"id":"B0FFGIOCUV","name":"大朗公共电子阅读室","type":"科教文化服务;图书馆;图书馆","typecode":"140500","address":"富丽东路147号附近","location":"113.924079,22.947940","transed_lng":113.9191919248874,"transed_lat":22.95086707364366,"cityname":"东莞市","adname":"东莞市"},{"id":"B0FFG02M04","name":"东莞妇女书屋","type":"科教文化服务;图书馆;图书馆","typecode":"140500","address":"中心中路西200米附近","location":"113.728527,23.093243","transed_lng":113.72332512375228,"transed_lat":23.09594337918353,"cityname":"东莞市","adname":"东莞市"},{"id":"B0FFID2XZR","name":"鹤田厦村图书馆","type":"科教文化服务;图书馆;图书馆","typecode":"140500","address":"石碣镇鹤田厦市场","location":"113.761254,23.076742","transed_lng":113.75606531374265,"transed_lat":23.07944282759542,"cityname":"东莞市","adname":"东莞市"},{"id":"B0FFFPD22C","name":"农家书屋(同德路)","type":"科教文化服务;图书馆;图书馆","typecode":"140500","address":"同德路171号","location":"113.800044,23.092600","transed_lng":113.79492273597683,"transed_lat":23.095335275643812,"cityname":"东莞市","adname":"东莞市"},{"id":"B0FFHSIT7X","name":"东莞图书馆南城分馆","type":"科教文化服务;图书馆;图书馆","typecode":"140500","address":"东骏路75号附近","location":"113.753079,22.986241","transed_lng":113.7478891126741,"transed_lat":22.988978585204016,"cityname":"东莞市","adname":"东莞市"},{"id":"B0FFG7K28F","name":"麻四图书阅览室","type":"科教文化服务;图书馆;图书馆","typecode":"140500","address":"民康街与沿河东街交叉口东南200米","location":"113.574352,23.043404","transed_lng":113.56925973002274,"transed_lat":23.046290962077588,"cityname":"东莞市","adname":"东莞市"},{"id":"B03018LWZI","name":"南城图书馆","type":"科教文化服务;图书馆;图书馆","typecode":"140500","address":"南城区东骏路南城体育公园内","location":"113.665865,22.992295","transed_lng":113.6607421214176,"transed_lat":22.99513622581849,"cityname":"东莞市","adname":"东莞市"},{"id":"B0FFFS6G4J","name":"司马图书室","type":"科教文化服务;图书馆;图书馆","typecode":"140500","address":"常马路与旧东深路交叉口西北50米","location":"114.068127,22.976271","transed_lng":114.06297488448303,"transed_lat":22.978844881135572,"cityname":"东莞市","adname":"东莞市"},{"id":"B0FFG6TP3R","name":"双岗图书馆","type":"科教文化服务;图书馆;图书馆","typecode":"140500","address":"下环大道与双岗大路交叉口西100米","location":"113.636210,22.911762","transed_lng":113.63113320495124,"transed_lat":22.91468824770182,"cityname":"东莞市","adname":"东莞市"},{"id":"B03018KRCV","name":"东莞图书馆(黄江分馆)","type":"科教文化服务;图书馆;图书馆","typecode":"140500","address":"东进路黄江图书馆2-3层","location":"114.005201,22.914391","transed_lng":114.0001690723325,"transed_lat":22.917141389860653,"cityname":"东莞市","adname":"东莞市"},{"id":"B03018LWDT","name":"石鼓社区图书馆","type":"科教文化服务;图书馆;图书馆","typecode":"140500","address":"市场路与馀庆路交叉口西北100米","location":"113.699006,22.978699","transed_lng":113.69383541012085,"transed_lat":22.981485404809288,"cityname":"东莞市","adname":"东莞市"},{"id":"B0FFGLG7IX","name":"东莞图书馆(塘厦分馆)","type":"科教文化服务;图书馆;图书馆","typecode":"140500","address":"四黎中路与石桥段路交叉口东50米","location":"114.035299,22.799348","transed_lng":114.03020459510455,"transed_lat":22.802057614589064,"cityname":"东莞市","adname":"东莞市"},{"id":"B0FFHN82PQ","name":"PSU1855英语图书馆","type":"科教文化服务;图书馆;图书馆","typecode":"140500","address":"东城路与东盛街交叉口东北100米","location":"113.778622,23.030693","transed_lng":113.77346059667144,"transed_lat":23.03342615504603,"cityname":"东莞市","adname":"东莞市"},{"id":"B0FFHD12MQ","name":"东莞图书馆寮步分馆","type":"科教文化服务;图书馆;图书馆","typecode":"140500","address":"兴凫路2","location":"113.903265,22.988241","transed_lng":113.89837238021205,"transed_lat":22.991161740881456,"cityname":"东莞市","adname":"东莞市"},{"id":"B0FFI5ISI1","name":"金宝贝前图书馆","type":"科教文化服务;图书馆;图书馆","typecode":"140500","address":"世博广场F区","location":"113.778005,23.031025","transed_lng":113.77284251847512,"transed_lat":23.033757386758417,"cityname":"东莞市","adname":"东莞市"},{"id":"B0FFHZZRNQ","name":"漫画图书馆","type":"科教文化服务;图书馆;图书馆","typecode":"140500","address":"鸿福路南侧中心广场内东莞图书馆3楼","location":"113.752009,23.013541","transed_lng":113.74681656713935,"transed_lat":23.016266684230935,"cityname":"东莞市","adname":"东莞市"},{"id":"B0FFHGKXVJ","name":"东太图书阅览室","type":"科教文化服务;图书馆;图书馆","typecode":"140500","address":"东太路与东浦路交叉口东北100米","location":"113.588780,23.050662","transed_lng":113.58370401228142,"transed_lat":23.053556334195484,"cityname":"东莞市","adname":"东莞市"},{"id":"B0FFHQTJ6U","name":"悠亲子图书馆","type":"科教文化服务;图书馆;图书馆","typecode":"140500","address":"南城区鸿福路200号第一国际购物中心二楼C区C-201金宝贝早教中心内","location":"113.756660,23.011015","transed_lng":113.75147128348793,"transed_lat":23.013742507133767,"cityname":"东莞市","adname":"东莞市"},{"id":"B0FFHGKU0F","name":"大步图书馆","type":"科教文化服务;图书馆;图书馆","typecode":"140500","address":"创兴一路与创兴二路交叉口东北100米","location":"113.582202,23.046945","transed_lng":113.57711983472541,"transed_lat":23.04983730968617,"cityname":"东莞市","adname":"东莞市"},{"id":"B0FFHKGUZG","name":"东莞妇女书屋","type":"科教文化服务;图书馆;图书馆","typecode":"140500","address":"涌口光辉街北与濂泉路交叉口东南50米","location":"113.641465,22.922454","transed_lng":113.63638147743603,"transed_lat":22.92536798948216,"cityname":"东莞市","adname":"东莞市"},{"id":"B0FFF2UYUI","name":"寮步镇石步村图书馆","type":"科教文化服务;图书馆;图书馆","typecode":"140500","address":"成业横路与民安路交叉口北50米","location":"113.883756,23.024599","transed_lng":113.87883988342244,"transed_lat":23.02749711760151,"cityname":"东莞市","adname":"东莞市"},{"id":"B03010243V","name":"东莞图书馆","type":"科教文化服务;图书馆;图书馆","typecode":"140500","address":"鸿福路南侧中心广场内","location":"113.752005,23.013548","transed_lng":113.74681256401398,"transed_lat":23.016273680928293,"cityname":"东莞市","adname":"东莞市"},{"id":"B030105GTB","name":"长安图书馆","type":"科教文化服务;图书馆;图书馆","typecode":"140500","address":"长安镇东门西路1号","location":"113.803387,22.809996","transed_lng":113.79829229463586,"transed_lat":22.81285363957734,"cityname":"东莞市","adname":"东莞市"},{"id":"B03017UNEA","name":"松山湖图书馆","type":"科教文化服务;图书馆;图书馆","typecode":"140500","address":"松山湖东侧松佛路1232号","location":"113.885523,22.931028","transed_lng":113.88061549776182,"transed_lat":22.933967592069727,"cityname":"东莞市","adname":"东莞市"},{"id":"B030104JUA","name":"图书阅览室","type":"科教文化服务;图书馆;图书馆","typecode":"140500","address":"东坑大道北8号","location":"113.938664,23.003858","transed_lng":113.93376313165032,"transed_lat":23.00674184285533,"cityname":"东莞市","adname":"东莞市"},{"id":"B03017V1X1","name":"东莞图书馆莞城分馆","type":"科教文化服务;图书馆;图书馆","typecode":"140500","address":"莞城街道高第街1号","location":"113.749161,23.039438","transed_lng":113.74396512430742,"transed_lat":23.04215246325583,"cityname":"东莞市","adname":"东莞市"},{"id":"B03017UMPB","name":"中堂图书馆","type":"科教文化服务;图书馆;图书馆","typecode":"140500","address":"广场路7号","location":"113.661062,23.090779","transed_lng":113.65594006180532,"transed_lat":23.09358706444178,"cityname":"东莞市","adname":"东莞市"},{"id":"B03017WFJJ","name":"东莞图书馆(塘厦分馆)","type":"科教文化服务;图书馆;图书馆","typecode":"140500","address":"塘厦镇塘龙广场西侧6号","location":"114.070904,22.805136","transed_lng":114.06576137846949,"transed_lat":22.80777513581463,"cityname":"东莞市","adname":"东莞市"},{"id":"B030105UNV","name":"东莞图书馆(东城分馆)","type":"科教文化服务;图书馆;图书馆","typecode":"140500","address":"东城文化中心","location":"113.781134,23.026244","transed_lng":113.7759773296763,"transed_lat":23.02898174505605,"cityname":"东莞市","adname":"东莞市"},{"id":"B03017ULYE","name":"厦岗图书馆","type":"科教文化服务;图书馆;图书馆","typecode":"140500","address":"长安镇厦岗社区福荫路","location":"113.742125,22.797396","transed_lng":113.73694232639717,"transed_lat":22.800210439421377,"cityname":"东莞市","adname":"东莞市"},{"id":"B03018LWJ6","name":"涌口图书馆","type":"科教文化服务;图书馆;图书馆","typecode":"140500","address":"厚街镇濂泉路","location":"113.641492,22.922466","transed_lng":113.6364084438798,"transed_lat":22.925379942631793,"cityname":"东莞市","adname":"东莞市"},{"id":"B03017UN7G","name":"东莞图书馆(常平分馆)","type":"科教文化服务;图书馆;图书馆","typecode":"140500","address":"常平镇常平文化广场4层","location":"113.994099,22.967255","transed_lng":113.98909179498068,"transed_lat":22.97001660578902,"cityname":"东莞市","adname":"东莞市"},{"id":"B030100731","name":"东莞少年儿童图书馆","type":"科教文化服务;图书馆;图书馆","typecode":"140500","address":"科书博广场内新芬路40号","location":"113.756641,23.039372","transed_lng":113.7514503862279,"transed_lat":23.04208725896629,"cityname":"东莞市","adname":"东莞市"},{"id":"B03017UQSQ","name":"东莞图书馆(厚街分馆)","type":"科教文化服务;图书馆;图书馆","typecode":"140500","address":"康乐北路厚街镇文化广播电视服务中心4层","location":"113.668606,22.936935","transed_lng":113.66348247783573,"transed_lat":22.939794746866664,"cityname":"东莞市","adname":"东莞市"},{"id":"B03017UNFZ","name":"东莞图书馆虎门北栅分馆","type":"科教文化服务;图书馆;图书馆","typecode":"140500","address":"长堤一路与仁岗中路交叉口处附近","location":"113.716529,22.827330","transed_lng":113.71135095160375,"transed_lat":22.830153212385625,"cityname":"东莞市","adname":"东莞市"},{"id":"B03017VAZM","name":"路东图书馆","type":"科教文化服务;图书馆;图书馆","typecode":"140500","address":"路东大道45号","location":"113.705429,22.762665","transed_lng":113.70026523749578,"transed_lat":22.765525496754062,"cityname":"东莞市","adname":"东莞市"},{"id":"B03017UMRW","name":"东莞图书馆(寮步分馆)","type":"科教文化服务;图书馆;图书馆","typecode":"140500","address":"寮步镇居民区教育路旧镇府","location":"113.889515,22.996339","transed_lng":113.88460868860308,"transed_lat":22.999253008510024,"cityname":"东莞市","adname":"东莞市"},{"id":"B03017UMTD","name":"沙角图书馆","type":"科教文化服务;图书馆;图书馆","typecode":"140500","address":"虎门镇军民路35号","location":"113.683120,22.759013","transed_lng":113.677985722082,"transed_lat":22.761912640151717,"cityname":"东莞市","adname":"东莞市"},{"id":"B03017UOSM","name":"东莞图书馆(麻涌分馆)","type":"科教文化服务;图书馆;图书馆","typecode":"140500","address":"麻涌镇次级行政办事中心","location":"113.577785,23.038472","transed_lng":113.57269792912643,"transed_lat":23.0413644263236,"cityname":"东莞市","adname":"东莞市"},{"id":"B03017UOZ6","name":"东莞图书馆桥头分馆","type":"科教文化服务;图书馆;图书馆","typecode":"140500","address":"桥头镇广场路3号","location":"114.087518,23.010783","transed_lng":114.08235862542301,"transed_lat":23.01332433293597,"cityname":"东莞市","adname":"东莞市"},{"id":"B03017UNGD","name":"九门寨图书馆","type":"科教文化服务;图书馆;图书馆","typecode":"140500","address":"环岛路与G9411莞佛高速交叉口东南100米","location":"113.666499,22.803374","transed_lng":113.6613874991047,"transed_lat":22.806290307547187,"cityname":"东莞市","adname":"东莞市"},{"id":"B03017VSJE","name":"东莞图书馆(万江分馆)","type":"科教文化服务;图书馆;图书馆","typecode":"140500","address":"万江大桥侧曦龙大厦A/B座1-2层","location":"113.739451,23.044689","transed_lng":113.73425145719277,"transed_lat":23.047403373270814,"cityname":"东莞市","adname":"东莞市"},{"id":"B03017U3A2","name":"道滘镇图书馆(兴隆街)","type":"科教文化服务;图书馆;图书馆","typecode":"140500","address":"道滘镇兴隆街5号","location":"113.667511,23.000752","transed_lng":113.66238499920368,"transed_lat":23.003586443903245,"cityname":"东莞市","adname":"东莞市"},{"id":"B03017V77E","name":"东莞图书馆(南城分馆)","type":"科教文化服务;图书馆;图书馆","typecode":"140500","address":"西平三路附近","location":"113.752616,22.988247","transed_lng":113.74742565542998,"transed_lat":22.990983672111472,"cityname":"东莞市","adname":"东莞市"},{"id":"B03017WJ6C","name":"东莞图书馆长安分馆沙头服务点","type":"科教文化服务;图书馆;图书馆","typecode":"140500","address":"长安镇靖海中路长安沙头分馆","location":"113.766648,22.780807","transed_lng":113.76148511273935,"transed_lat":22.783630973932766,"cityname":"东莞市","adname":"东莞市"},{"id":"B03018J6AR","name":"潢涌图书馆","type":"科教文化服务;图书馆;图书馆","typecode":"140500","address":"潢涌村","location":"113.736836,23.123905","transed_lng":113.73163096326049,"transed_lat":23.126587335939867,"cityname":"东莞市","adname":"东莞市"},{"id":"B03010243V","name":"东莞图书馆","type":"科教文化服务;图书馆;图书馆","typecode":"140500","address":"鸿福路南侧中心广场内","location":"113.752005,23.013548","transed_lng":113.74681256401398,"transed_lat":23.016273680928293,"cityname":"东莞市","adname":"东莞市"},{"id":"B030105GTB","name":"长安图书馆","type":"科教文化服务;图书馆;图书馆","typecode":"140500","address":"长安镇东门西路1号","location":"113.803387,22.809996","transed_lng":113.79829229463586,"transed_lat":22.81285363957734,"cityname":"东莞市","adname":"东莞市"},{"id":"B03017UNEA","name":"松山湖图书馆","type":"科教文化服务;图书馆;图书馆","typecode":"140500","address":"松山湖东侧松佛路1232号","location":"113.885523,22.931028","transed_lng":113.88061549776182,"transed_lat":22.933967592069727,"cityname":"东莞市","adname":"东莞市"},{"id":"B030104JUA","name":"图书阅览室","type":"科教文化服务;图书馆;图书馆","typecode":"140500","address":"东坑大道北8号","location":"113.938664,23.003858","transed_lng":113.93376313165032,"transed_lat":23.00674184285533,"cityname":"东莞市","adname":"东莞市"},{"id":"B03017V1X1","name":"东莞图书馆莞城分馆","type":"科教文化服务;图书馆;图书馆","typecode":"140500","address":"莞城街道高第街1号","location":"113.749161,23.039438","transed_lng":113.74396512430742,"transed_lat":23.04215246325583,"cityname":"东莞市","adname":"东莞市"},{"id":"B03017UMPB","name":"中堂图书馆","type":"科教文化服务;图书馆;图书馆","typecode":"140500","address":"广场路7号","location":"113.661062,23.090779","transed_lng":113.65594006180532,"transed_lat":23.09358706444178,"cityname":"东莞市","adname":"东莞市"},{"id":"B03017WFJJ","name":"东莞图书馆(塘厦分馆)","type":"科教文化服务;图书馆;图书馆","typecode":"140500","address":"塘厦镇塘龙广场西侧6号","location":"114.070904,22.805136","transed_lng":114.06576137846949,"transed_lat":22.80777513581463,"cityname":"东莞市","adname":"东莞市"},{"id":"B030105UNV","name":"东莞图书馆(东城分馆)","type":"科教文化服务;图书馆;图书馆","typecode":"140500","address":"东城文化中心","location":"113.781134,23.026244","transed_lng":113.7759773296763,"transed_lat":23.02898174505605,"cityname":"东莞市","adname":"东莞市"},{"id":"B03017ULYE","name":"厦岗图书馆","type":"科教文化服务;图书馆;图书馆","typecode":"140500","address":"长安镇厦岗社区福荫路","location":"113.742125,22.797396","transed_lng":113.73694232639717,"transed_lat":22.800210439421377,"cityname":"东莞市","adname":"东莞市"},{"id":"B03018LWJ6","name":"涌口图书馆","type":"科教文化服务;图书馆;图书馆","typecode":"140500","address":"厚街镇濂泉路","location":"113.641492,22.922466","transed_lng":113.6364084438798,"transed_lat":22.925379942631793,"cityname":"东莞市","adname":"东莞市"},{"id":"B03017UN7G","name":"东莞图书馆(常平分馆)","type":"科教文化服务;图书馆;图书馆","typecode":"140500","address":"常平镇常平文化广场4层","location":"113.994099,22.967255","transed_lng":113.98909179498068,"transed_lat":22.97001660578902,"cityname":"东莞市","adname":"东莞市"},{"id":"B030100731","name":"东莞少年儿童图书馆","type":"科教文化服务;图书馆;图书馆","typecode":"140500","address":"科书博广场内新芬路40号","location":"113.756641,23.039372","transed_lng":113.7514503862279,"transed_lat":23.04208725896629,"cityname":"东莞市","adname":"东莞市"},{"id":"B03017UQSQ","name":"东莞图书馆(厚街分馆)","type":"科教文化服务;图书馆;图书馆","typecode":"140500","address":"康乐北路厚街镇文化广播电视服务中心4层","location":"113.668606,22.936935","transed_lng":113.66348247783573,"transed_lat":22.939794746866664,"cityname":"东莞市","adname":"东莞市"},{"id":"B03017UNFZ","name":"东莞图书馆虎门北栅分馆","type":"科教文化服务;图书馆;图书馆","typecode":"140500","address":"长堤一路与仁岗中路交叉口处附近","location":"113.716529,22.827330","transed_lng":113.71135095160375,"transed_lat":22.830153212385625,"cityname":"东莞市","adname":"东莞市"},{"id":"B03017VAZM","name":"路东图书馆","type":"科教文化服务;图书馆;图书馆","typecode":"140500","address":"路东大道45号","location":"113.705429,22.762665","transed_lng":113.70026523749578,"transed_lat":22.765525496754062,"cityname":"东莞市","adname":"东莞市"},{"id":"B03017UMRW","name":"东莞图书馆(寮步分馆)","type":"科教文化服务;图书馆;图书馆","typecode":"140500","address":"寮步镇居民区教育路旧镇府","location":"113.889515,22.996339","transed_lng":113.88460868860308,"transed_lat":22.999253008510024,"cityname":"东莞市","adname":"东莞市"},{"id":"B03017UMTD","name":"沙角图书馆","type":"科教文化服务;图书馆;图书馆","typecode":"140500","address":"虎门镇军民路35号","location":"113.683120,22.759013","transed_lng":113.677985722082,"transed_lat":22.761912640151717,"cityname":"东莞市","adname":"东莞市"},{"id":"B03017UOSM","name":"东莞图书馆(麻涌分馆)","type":"科教文化服务;图书馆;图书馆","typecode":"140500","address":"麻涌镇次级行政办事中心","location":"113.577785,23.038472","transed_lng":113.57269792912643,"transed_lat":23.0413644263236,"cityname":"东莞市","adname":"东莞市"},{"id":"B03017UOZ6","name":"东莞图书馆桥头分馆","type":"科教文化服务;图书馆;图书馆","typecode":"140500","address":"桥头镇广场路3号","location":"114.087518,23.010783","transed_lng":114.08235862542301,"transed_lat":23.01332433293597,"cityname":"东莞市","adname":"东莞市"},{"id":"B03017UNGD","name":"九门寨图书馆","type":"科教文化服务;图书馆;图书馆","typecode":"140500","address":"环岛路与G9411莞佛高速交叉口东南100米","location":"113.666499,22.803374","transed_lng":113.6613874991047,"transed_lat":22.806290307547187,"cityname":"东莞市","adname":"东莞市"},{"id":"B03017VSJE","name":"东莞图书馆(万江分馆)","type":"科教文化服务;图书馆;图书馆","typecode":"140500","address":"万江大桥侧曦龙大厦A/B座1-2层","location":"113.739451,23.044689","transed_lng":113.73425145719277,"transed_lat":23.047403373270814,"cityname":"东莞市","adname":"东莞市"},{"id":"B03017U3A2","name":"道滘镇图书馆(兴隆街)","type":"科教文化服务;图书馆;图书馆","typecode":"140500","address":"道滘镇兴隆街5号","location":"113.667511,23.000752","transed_lng":113.66238499920368,"transed_lat":23.003586443903245,"cityname":"东莞市","adname":"东莞市"},{"id":"B03017V77E","name":"东莞图书馆(南城分馆)","type":"科教文化服务;图书馆;图书馆","typecode":"140500","address":"西平三路附近","location":"113.752616,22.988247","transed_lng":113.74742565542998,"transed_lat":22.990983672111472,"cityname":"东莞市","adname":"东莞市"},{"id":"B03017WJ6C","name":"东莞图书馆长安分馆沙头服务点","type":"科教文化服务;图书馆;图书馆","typecode":"140500","address":"长安镇靖海中路长安沙头分馆","location":"113.766648,22.780807","transed_lng":113.76148511273935,"transed_lat":22.783630973932766,"cityname":"东莞市","adname":"东莞市"},{"id":"B03018J6AR","name":"潢涌图书馆","type":"科教文化服务;图书馆;图书馆","typecode":"140500","address":"潢涌村","location":"113.736836,23.123905","transed_lng":113.73163096326049,"transed_lat":23.126587335939867,"cityname":"东莞市","adname":"东莞市"},{"id":"B03017ULV4","name":"洪梅辰昌图书馆","type":"科教文化服务;图书馆;图书馆","typecode":"140500","address":"洪梅镇振华路20","location":"113.611746,22.991714","transed_lng":113.60668054161012,"transed_lat":22.994631397732793,"cityname":"东莞市","adname":"东莞市"},{"id":"B03018IKVQ","name":"沙湖图书室","type":"科教文化服务;图书馆;图书馆","typecode":"140500","address":"沙湖大道南78号附近","location":"114.067995,22.768584","transed_lng":114.06285668524225,"transed_lat":22.7712392895904,"cityname":"东莞市","adname":"东莞市"},{"id":"B030101Q86","name":"大宁图书馆","type":"科教文化服务;图书馆;图书馆","typecode":"140500","address":"大宁康体广场内","location":"113.722529,22.814528","transed_lng":113.7173480304217,"transed_lat":22.817349321261254,"cityname":"东莞市","adname":"东莞市"},{"id":"B03018J41R","name":"雁田图书馆","type":"科教文化服务;图书馆;图书馆","typecode":"140500","address":"凤岗镇雁田村","location":"114.170587,22.695864","transed_lng":114.16559900690164,"transed_lat":22.698608131244907,"cityname":"东莞市","adname":"东莞市"},{"id":"B03018IF56","name":"东莞图书馆长安锦厦分馆","type":"科教文化服务;图书馆;图书馆","typecode":"140500","address":"锦源路二坊一巷2号","location":"113.809002,22.797079","transed_lng":113.8039220895132,"transed_lat":22.799950798072175,"cityname":"东莞市","adname":"东莞市"},{"id":"B0FFHLSBUZ","name":"潢涌小学-潢涌陈列馆","type":"科教文化服务;图书馆;图书馆","typecode":"140500","address":"潢涌南堤街十七巷与潢涌教育街交叉口西北50米","location":"113.737355,23.118898","transed_lng":113.73215031896474,"transed_lat":23.121582114560027,"cityname":"东莞市","adname":"东莞市"},{"id":"B03018JH2J","name":"东莞图书馆(长安新民分馆)","type":"科教文化服务;图书馆;图书馆","typecode":"140500","address":"顺和路34号","location":"113.786287,22.758236","transed_lng":113.78115771537199,"transed_lat":22.761085918671654,"cityname":"东莞市","adname":"东莞市"},{"id":"B03018J0YR","name":"东莞图书馆东坑分馆","type":"科教文化服务;图书馆;图书馆","typecode":"140500","address":"科技路169","location":"113.929653,22.984495","transed_lng":113.92476084330744,"transed_lat":22.9874001384974,"cityname":"东莞市","adname":"东莞市"},{"id":"B03018J55P","name":"清湖头图书馆","type":"科教文化服务;图书馆;图书馆","typecode":"140500","address":"人民路附近","location":"114.097523,22.772590","transed_lng":114.09238388587337,"transed_lat":22.775223691872203,"cityname":"东莞市","adname":"东莞市"},{"id":"B03017UXMC","name":"东莞图书馆长安咸西分馆","type":"科教文化服务;图书馆;图书馆","typecode":"140500","address":"长安镇莲峰北路104号","location":"113.807221,22.822366","transed_lng":113.80213495327095,"transed_lat":22.825225652046473,"cityname":"东莞市","adname":"东莞市"},{"id":"B0FFHUFFY8","name":"莞城图书馆","type":"科教文化服务;图书馆;图书馆","typecode":"140500","address":"高第街1号3层","location":"113.748850,23.039512","transed_lng":113.74365395178042,"transed_lat":23.042226445519493,"cityname":"东莞市","adname":"东莞市"},{"id":"B0FFH98ZNE","name":"永正图书馆","type":"科教文化服务;图书馆;图书馆","typecode":"140500","address":"东莞图书馆一楼东莞图书馆","location":"113.751429,23.013531","transed_lng":113.74623618897148,"transed_lat":23.016256655026716,"cityname":"东莞市","adname":"东莞市"},{"id":"B0FFHEKSRV","name":"虎门图书馆","type":"科教文化服务;图书馆;图书馆","typecode":"140500","address":"则徐新街与则徐路交叉口西北150米","location":"113.668432,22.818147","transed_lng":113.66331652144946,"transed_lat":22.821054336345174,"cityname":"东莞市","adname":"东莞市"},{"id":"B03018RIZ7","name":"北隅社区图书馆","type":"科教文化服务;图书馆;图书馆","typecode":"140500","address":"光明路178号","location":"113.749458,23.049548","transed_lng":113.74426161677518,"transed_lat":23.052258109455458,"cityname":"东莞市","adname":"东莞市"},{"id":"B03018LWF8","name":"白濠图书馆","type":"科教文化服务;图书馆;图书馆","typecode":"140500","address":"中心街29号","location":"113.659396,22.867541","transed_lng":113.65429123550663,"transed_lat":22.870446565871433,"cityname":"东莞市","adname":"东莞市"},{"id":"B03018IGZP","name":"东莞图书馆(谢岗分馆)","type":"科教文化服务;图书馆;图书馆","typecode":"140500","address":"谢岗镇广场中路文化大楼2层","location":"114.146691,22.962824","transed_lng":114.14162256973795,"transed_lat":22.96542835915414,"cityname":"东莞市","adname":"东莞市"},{"id":"B03018I51Y","name":"鹤田厦图书馆","type":"科教文化服务;图书馆;图书馆","typecode":"140500","address":"高埗镇鹤田厦迎塘坊五巷1号","location":"113.761332,23.073180","transed_lng":113.7561436324813,"transed_lat":23.075882367551138,"cityname":"东莞市","adname":"东莞市"},{"id":"B0FFGOYJOI","name":"东莞图书馆(咸西分馆)","type":"科教文化服务;图书馆;图书馆","typecode":"140500","address":"长安镇莲峰北路104号","location":"113.807126,22.822188","transed_lng":113.80203972698368,"transed_lat":22.82504755340443,"cityname":"东莞市","adname":"东莞市"},{"id":"B03018RH68","name":"板石图书馆","type":"科教文化服务;图书馆;图书馆","typecode":"140500","address":"常平镇板石大街","location":"114.005870,22.970618","transed_lng":114.0008327118223,"transed_lat":22.973342510127818,"cityname":"东莞市","adname":"东莞市"},{"id":"B0FFGB6THA","name":"公共电子阅览室","type":"科教文化服务;图书馆;图书馆","typecode":"140500","address":"余屋大街与余屋街交叉口西南50米","location":"113.830132,23.078161","transed_lng":113.82508978666462,"transed_lat":23.080956500515054,"cityname":"东莞市","adname":"东莞市"},{"id":"B0FFGDH2B2","name":"易朗阅览室","type":"科教文化服务;图书馆;图书馆","typecode":"140500","address":"康怡居北街11号附近","location":"113.763497,23.001178","transed_lng":113.75831578609942,"transed_lat":23.003912312002168,"cityname":"东莞市","adname":"东莞市"},{"id":"B0FFFTSPBB","name":"东城图书馆","type":"科教文化服务;图书馆;图书馆","typecode":"140500","address":"东城支路西150米","location":"113.781157,23.026354","transed_lng":113.77600036405894,"transed_lat":23.029091722910596,"cityname":"东莞市","adname":"东莞市"},{"id":"B0FFF2H10B","name":"虫二书馆","type":"科教文化服务;图书馆;图书馆","typecode":"140500","address":"运河创意公社","location":"113.740228,23.030590","transed_lng":113.73502951425608,"transed_lat":23.03331014004874,"cityname":"东莞市","adname":"东莞市"},{"id":"B0FFGC2GRC","name":"唐洪村图书馆","type":"科教文化服务;图书馆;图书馆","typecode":"140500","address":"石碣镇唐洪村晋兴四巷6号","location":"113.841842,23.106639","transed_lng":113.83682934431577,"transed_lat":23.109444446059033,"cityname":"东莞市","adname":"东莞市"},{"id":"B0FFGDQ890","name":"厚街镇河田社区图书馆","type":"科教文化服务;图书馆;图书馆","typecode":"140500","address":"河田大道116号附近","location":"113.675237,22.929380","transed_lng":113.67010361682851,"transed_lat":22.9322302838591,"cityname":"东莞市","adname":"东莞市"},{"id":"B0FFI09IIZ","name":"东莞图书馆","type":"科教文化服务;图书馆;图书馆","typecode":"140500","address":"大岭山镇松山湖高新技术产业开发区新城大道1号","location":"113.842251,22.896810","transed_lng":113.83725306205221,"transed_lat":22.899705452508663,"cityname":"东莞市","adname":"东莞市"},{"id":"B0FFHGTAKB","name":"东莞图书馆(怀德分馆)","type":"科教文化服务;图书馆;图书馆","typecode":"140500","address":"大禾一巷7号","location":"113.741742,22.832445","transed_lng":113.73655692604518,"transed_lat":22.835246891810147,"cityname":"东莞市","adname":"东莞市"},{"id":"B0FFIQD0IX","name":"官井头村图书馆","type":"科教文化服务;图书馆;图书馆","typecode":"140500","address":"育才路附近","location":"114.184572,22.726924","transed_lng":114.17961973899236,"transed_lat":22.729685969763185,"cityname":"东莞市","adname":"东莞市"},{"id":"B0FFHC3A41","name":"东莞图书馆(黄江分馆)","type":"科教文化服务;图书馆;图书馆","typecode":"140500","address":"文康东路与邮政三街交叉口西北50米","location":"114.000698,22.911306","transed_lng":113.99567769424996,"transed_lat":22.914071311792846,"cityname":"东莞市","adname":"东莞市"},{"id":"B0FFHHCEYL","name":"东莞图书馆企石分馆","type":"科教文化服务;图书馆;图书馆","typecode":"140500","address":"企石文化广场","location":"114.021150,23.069932","transed_lng":114.01606872420268,"transed_lat":23.07256865368436,"cityname":"东莞市","adname":"东莞市"},{"id":"B0FFGLKUKU","name":"东莞图书馆(沙头分馆)","type":"科教文化服务;图书馆;图书馆","typecode":"140500","address":"靖海中路23号","location":"113.766772,22.780896","transed_lng":113.76160926434365,"transed_lat":22.78372002055531,"cityname":"东莞市","adname":"东莞市"},{"id":"B0FFI65SKK","name":"东莞图书馆","type":"科教文化服务;图书馆;图书馆","typecode":"140500","address":"振华十二街1号附近","location":"113.994074,22.967331","transed_lng":113.9890668532054,"transed_lat":22.97009264858757,"cityname":"东莞市","adname":"东莞市"},{"id":"B0FFGIOH0U","name":"东莞职业技术学院图书馆","type":"科教文化服务;图书馆;图书馆","typecode":"140500","address":"大学路3号","location":"113.856272,22.898290","transed_lng":113.85130935216966,"transed_lat":22.901208857670625,"cityname":"东莞市","adname":"东莞市"},{"id":"B0FFGG5O39","name":"东莞图书馆(虎门寨分馆)","type":"科教文化服务;图书馆;图书馆","typecode":"140500","address":"东下三巷6","location":"113.672191,22.823326","transed_lng":113.66706930975205,"transed_lat":22.826224270775814,"cityname":"东莞市","adname":"东莞市"},{"id":"B0FFG27GZZ","name":"东莞图书馆长安涌头分馆","type":"科教文化服务;图书馆;图书馆","typecode":"140500","address":"文山路17号","location":"113.824812,22.803704","transed_lng":113.81977327764282,"transed_lat":22.806602526479065,"cityname":"东莞市","adname":"东莞市"},{"id":"B0FFGNUP18","name":"大朗图书馆水口服务中心","type":"科教文化服务;图书馆;图书馆","typecode":"140500","address":"水秀北路18号","location":"113.959787,22.933791","transed_lng":113.95485978924891,"transed_lat":22.93666217533994,"cityname":"东莞市","adname":"东莞市"},{"id":"B03018IIYH","name":"新马莲图书馆","type":"科教文化服务;图书馆;图书馆","typecode":"140500","address":"大朗镇","location":"113.954835,22.901648","transed_lng":113.94991860625993,"transed_lat":22.90454402378681,"cityname":"东莞市","adname":"东莞市"},{"id":"B0FFHEK3S9","name":"东莞图书馆虎门镇口分馆","type":"科教文化服务;图书馆;图书馆","typecode":"140500","address":"镇口南约大路83号附近","location":"113.659119,22.827730","transed_lng":113.65401725111091,"transed_lat":22.830651330599334,"cityname":"东莞市","adname":"东莞市"},{"id":"B0FFHDSBNU","name":"长安图书馆24小时图书馆","type":"科教文化服务;图书馆;图书馆","typecode":"140500","address":"东门西路1号附近","location":"113.803155,22.809947","transed_lng":113.79805973444378,"transed_lat":22.81280427226156,"cityname":"东莞市","adname":"东莞市"},{"id":"B0FFHE3BJJ","name":"东莞图书馆长安上沙分馆","type":"科教文化服务;图书馆;图书馆","typecode":"140500","address":"沙溪路21号","location":"113.755575,22.790166","transed_lng":113.75039995455256,"transed_lat":22.79298225257197,"cityname":"东莞市","adname":"东莞市"},{"id":"B0FFG1GL16","name":"东莞图书馆虎门新联分馆","type":"科教文化服务;图书馆;图书馆","typecode":"140500","address":"新联六巷1号附近","location":"113.690183,22.857396","transed_lng":113.68503203657745,"transed_lat":22.860247812155322,"cityname":"东莞市","adname":"东莞市"},{"id":"B0FFHH3JDN","name":"田饶步村公共电子阅览室","type":"科教文化服务;图书馆;图书馆","typecode":"140500","address":[],"location":"114.019040,23.036677","transed_lng":114.0139658989922,"transed_lat":23.03933394207851,"cityname":"东莞市","adname":"东莞市"},{"id":"B0FFHID162","name":"还珠沥村公共电子阅览室","type":"科教文化服务;图书馆;图书馆","typecode":"140500","address":"还珠沥大道与还珠沥教育路交叉口西北100米","location":"113.992371,22.951464","transed_lng":113.98736918013819,"transed_lat":22.954237580564733,"cityname":"东莞市","adname":"东莞市"},{"id":"B0FFH19RPS","name":"广东医科大学东莞校区-图书馆","type":"科教文化服务;图书馆;图书馆","typecode":"140500","address":"新城大道1号","location":"113.866014,22.923441","transed_lng":113.86107182857315,"transed_lat":22.926363730469614,"cityname":"东莞市","adname":"东莞市"},{"id":"B03017TYJ0","name":"周溪图书室","type":"科教文化服务;图书馆;图书馆","typecode":"140500","address":"周溪办事中心3层","location":"113.719062,22.995815","transed_lng":113.71387108542747,"transed_lat":22.998566154488792,"cityname":"东莞市","adname":"东莞市"},{"id":"B0FFHDSUUU","name":"东莞图书馆(大岭山分馆)(建设中)","type":"科教文化服务;图书馆;图书馆","typecode":"140500","address":"府后街附近","location":"113.842108,22.896839","transed_lng":113.83710968394405,"transed_lat":22.89973418088783,"cityname":"东莞市","adname":"东莞市"},{"id":"B03018QMJH","name":"东莞图书馆公共电子阅览室(主山服务点)","type":"科教文化服务;图书馆;图书馆","typecode":"140500","address":"芳桂路与高田坊路交叉口西50米","location":"113.781197,23.042292","transed_lng":113.77603938252794,"transed_lat":23.04502289758656,"cityname":"东莞市","adname":"东莞市"},{"id":"B03018QSYX","name":"粤剧图书馆","type":"科教文化服务;图书馆;图书馆","typecode":"140500","address":"莞城街道新芬路40号","location":"113.756452,23.039562","transed_lng":113.75126121186364,"transed_lat":23.042277131706925,"cityname":"东莞市","adname":"东莞市"},{"id":"B0FFG1W5IA","name":"常平镇苏坑村公共电子阅览室","type":"科教文化服务;图书馆;图书馆","typecode":"140500","address":"苏坑路108号附近","location":"113.958303,22.965367","transed_lng":113.95337646497579,"transed_lat":22.96822822283636,"cityname":"东莞市","adname":"东莞市"},{"id":"B0FFGIU8VX","name":"大朗镇黎贝岭村电子阅览室","type":"科教文化服务;图书馆;图书馆","typecode":"140500","address":"富丽西路333黎贝岭大厦","location":"113.907440,22.948741","transed_lng":113.90255217805664,"transed_lat":22.95167807331451,"cityname":"东莞市","adname":"东莞市"},{"id":"B0FFF2UYUI","name":"寮步镇石步村图书馆","type":"科教文化服务;图书馆;图书馆","typecode":"140500","address":"成业横路与民安路交叉口北50米","location":"113.883756,23.024599","transed_lng":113.87883988342244,"transed_lat":23.02749711760151,"cityname":"东莞市","adname":"东莞市"},{"id":"B0FFHCOCHT","name":"公共电子阅览室","type":"科教文化服务;图书馆;图书馆","typecode":"140500","address":"新兴二路46号附近","location":"113.719095,22.995905","transed_lng":113.71390405819395,"transed_lat":22.998656078923062,"cityname":"东莞市","adname":"东莞市"},{"id":"B0FFFS8FOC","name":"东莞图书馆石排分馆","type":"科教文化服务;图书馆;图书馆","typecode":"140500","address":"石排公园中心","location":"113.942502,23.090611","transed_lng":113.93759126102505,"transed_lat":23.093451170229244,"cityname":"东莞市","adname":"东莞市"},{"id":"B0FFHCUEGA","name":"大朗图书馆","type":"科教文化服务;图书馆;图书馆","typecode":"140500","address":"大朗镇金丽路56号","location":"113.942963,22.942106","transed_lng":113.93806126907928,"transed_lat":22.94500904830421,"cityname":"东莞市","adname":"东莞市"},{"id":"B0FFH72PFZ","name":"上坑图书室","type":"科教文化服务;图书馆;图书馆","typecode":"140500","address":"上坑二横路与上坑路交叉口南50米","location":"114.007381,22.986744","transed_lng":114.00233884648883,"transed_lat":22.98945699873759,"cityname":"东莞市","adname":"东莞市"},{"id":"B0FFH7LN9K","name":"常平镇土塘村妇女书屋","type":"科教文化服务;图书馆;图书馆","typecode":"140500","address":"土塘公园路与桥东路交叉口东北100米","location":"114.027716,22.957455","transed_lng":114.02262717795367,"transed_lat":22.960121794441527,"cityname":"东莞市","adname":"东莞市"},{"id":"B03018LWM2","name":"东莞图书馆大朗长塘分馆","type":"科教文化服务;图书馆;图书馆","typecode":"140500","address":"长和街67-69","location":"113.932454,22.929338","transed_lng":113.92756345848704,"transed_lat":22.932263072979136,"cityname":"东莞市","adname":"东莞市"},{"id":"B0FFHB4B8J","name":"常平镇麦园村妇女书屋","type":"科教文化服务;图书馆;图书馆","typecode":"140500","address":"常平镇麦元村麦园公园附近","location":"114.046028,22.966995","transed_lng":114.04090297379527,"transed_lat":22.9696123294549,"cityname":"东莞市","adname":"东莞市"},{"id":"B0FFHKWYY2","name":"大朗图书馆","type":"科教文化服务;图书馆;图书馆","typecode":"140500","address":"水秀北路18号","location":"113.959685,22.933656","transed_lng":113.95475798655744,"transed_lat":22.936527475789987,"cityname":"东莞市","adname":"东莞市"},{"id":"B0FFH7CHFH","name":"常平镇漱旧村妇女书屋","type":"科教文化服务;图书馆;图书馆","typecode":"140500","address":"村政路与漱旧围面前路交叉口西100米","location":"114.053993,22.977084","transed_lng":114.04885541945637,"transed_lat":22.97968058407586,"cityname":"东莞市","adname":"东莞市"},{"id":"B0FFG6SM8E","name":"东莞图书馆(东正服务点)","type":"科教文化服务;图书馆;图书馆","typecode":"140500","address":"东门广场B1层东正社区文体活动中心内","location":"113.763398,23.043099","transed_lng":113.75821389472931,"transed_lat":23.04581516006258,"cityname":"东莞市","adname":"东莞市"},{"id":"B0FFH1H2YN","name":"东莞图书馆茶山分馆","type":"科教文化服务;图书馆;图书馆","typecode":"140500","address":"京山东路与荼京路交叉口西150米","location":"113.851924,23.086481","transed_lng":113.84693855765842,"transed_lat":23.089312507060757,"cityname":"东莞市","adname":"东莞市"},{"id":"B0FFG6PKKT","name":"创业社区图书电子阅览室","type":"科教文化服务;图书馆;图书馆","typecode":"140500","address":"莞城街道金牛路八达花园维港7座","location":"113.755844,23.031229","transed_lng":113.75065325461499,"transed_lat":23.033947585160732,"cityname":"东莞市","adname":"东莞市"},{"id":"B0FFHB9BSK","name":"中德技工学校图书馆","type":"科教文化服务;图书馆;图书馆","typecode":"140500","address":"金星一街与金星横街交叉口东100米","location":"114.153477,22.821709","transed_lng":114.14843501690544,"transed_lat":22.82438198655225,"cityname":"东莞市","adname":"东莞市"},{"id":"B0301021BJ","name":"清溪图书馆","type":"科教文化服务;图书馆;图书馆","typecode":"140500","address":"清溪镇文化中心2楼","location":"114.165722,22.835160","transed_lng":114.1607117498641,"transed_lat":22.837850400875784,"cityname":"东莞市","adname":"东莞市"},{"id":"B0FFHHC5IG","name":"凤凰岗社区图书馆","type":"科教文化服务;图书馆;图书馆","typecode":"140500","address":"凤凰岗大道与新围大道交叉口北50米","location":"114.118760,22.776666","transed_lng":114.11364542180921,"transed_lat":22.7793072835586,"cityname":"东莞市","adname":"东莞市"},{"id":"B0FFJ2G9R4","name":"农家书屋","type":"科教文化服务;图书馆;图书馆","typecode":"140500","address":"麻涌大道与麻涌立交交叉口北150米","location":"113.602550,23.080897","transed_lng":113.59747889998171,"transed_lat":23.08377978216329,"cityname":"东莞市","adname":"东莞市"},{"id":"B0FFFZMR9N","name":"塘厦镇石马社区图书室","type":"科教文化服务;图书馆;图书馆","typecode":"140500","address":"塘厦镇石马村","location":"114.107583,22.740216","transed_lng":114.10245529158988,"transed_lat":22.74286177504632,"cityname":"东莞市","adname":"东莞市"},{"id":"B0FFHX9UMA","name":"东莞图书馆茶山分馆","type":"科教文化服务;图书馆;图书馆","typecode":"140500","address":"安泰路3号","location":"113.857591,23.067552","transed_lng":113.8526205362643,"transed_lat":23.070400662627993,"cityname":"东莞市","adname":"东莞市"},{"id":"B0FFG6TIP6","name":"东莞图书馆(共联服务点)","type":"科教文化服务;图书馆;图书馆","typecode":"140500","address":"东南区一路二横巷与东南区二路交叉口西北100米","location":"113.710304,23.029706","transed_lng":113.70511776516871,"transed_lat":23.032453372358876,"cityname":"东莞市","adname":"东莞市"},{"id":"B0FFIYTTJ3","name":"东莞图书馆横沥分馆","type":"科教文化服务;图书馆;图书馆","typecode":"140500","address":"维实路254号附近","location":"113.977884,23.015040","transed_lng":113.97291335652343,"transed_lat":23.017828681112654,"cityname":"东莞市","adname":"东莞市"},{"id":"B0FFHLACNK","name":"公共电子阅览室","type":"科教文化服务;图书馆;图书馆","typecode":"140500","address":"太公岭路与赤坜街交叉口东50米","location":"113.813904,22.917349","transed_lng":113.80882886133696,"transed_lat":22.920183007829575,"cityname":"东莞市","adname":"东莞市"},{"id":"B0FFH4L1P8","name":"大朗一中图书馆","type":"科教文化服务;图书馆;图书馆","typecode":"140500","address":"大朗镇富民中路467号","location":"113.937525,22.926297","transed_lng":113.9326302594078,"transed_lat":22.929215899454125,"cityname":"东莞市","adname":"东莞市"},{"id":"B0FFIDSSQ1","name":"行政文化新区图书馆","type":"科教文化服务;图书馆;图书馆","typecode":"140500","address":"塘厦镇","location":"114.071136,22.804689","transed_lng":114.06599327316104,"transed_lat":22.807328013121246,"cityname":"东莞市","adname":"东莞市"},{"id":"B03018J1KO","name":"东莞图书馆(桥头屋厦分馆)","type":"科教文化服务;图书馆;图书馆","typecode":"140500","address":"桥头镇桥东路北二街62号屋厦广场","location":"114.115538,23.026168","transed_lng":114.1104019541101,"transed_lat":23.028706596577216,"cityname":"东莞市","adname":"东莞市"},{"id":"B0FFGIQHEZ","name":"大朗镇佛子凹村电子阅览室","type":"科教文化服务;图书馆;图书馆","typecode":"140500","address":"松佛路1012号","location":"113.900179,22.935704","transed_lng":113.89528754819307,"transed_lat":22.938647232074157,"cityname":"东莞市","adname":"东莞市"},{"id":"B0FFGIVLML","name":"大朗镇黎贝岭村图书阅览室","type":"科教文化服务;图书馆;图书馆","typecode":"140500","address":"富丽西路333黎贝岭大厦","location":"113.907434,22.948742","transed_lng":113.90254617533566,"transed_lat":22.951679074368716,"cityname":"东莞市","adname":"东莞市"},{"id":"B03018LWOL","name":"东莞市图书馆(高埗分馆)","type":"科教文化服务;图书馆;图书馆","typecode":"140500","address":"振兴东七横路与高埗大道南交叉口东北200米","location":"113.728160,23.085949","transed_lng":113.72295872100149,"transed_lat":23.088652729110088,"cityname":"东莞市","adname":"东莞市"},{"id":"B03018JOJ5","name":"西平社区图书阅览室","type":"科教文化服务;图书馆;图书馆","typecode":"140500","address":"西平东七路明致商厦(中信凯旋公馆东100米)","location":"113.748929,22.987211","transed_lng":113.74373646319707,"transed_lat":22.98994803908144,"cityname":"东莞市","adname":"东莞市"},{"id":"B0FFHD12RK","name":"凫山图书室公共电子阅览室","type":"科教文化服务;图书馆;图书馆","typecode":"140500","address":"兴凫路2","location":"113.903265,22.988241","transed_lng":113.89837238021205,"transed_lat":22.991161740881456,"cityname":"东莞市","adname":"东莞市"},{"id":"B0FFHD10XN","name":"大朗镇佛子凹村图书阅览室","type":"科教文化服务;图书馆;图书馆","typecode":"140500","address":"松佛路1012号","location":"113.900179,22.935704","transed_lng":113.89528754819307,"transed_lat":22.938647232074157,"cityname":"东莞市","adname":"东莞市"},{"id":"B0FFHEH0QQ","name":"东莞图书馆(虎门白沙分馆)","type":"科教文化服务;图书馆;图书馆","typecode":"140500","address":"石含路与育才路交叉口南150米","location":"113.664352,22.854653","transed_lng":113.65924048551797,"transed_lat":22.857554345498333,"cityname":"东莞市","adname":"东莞市"},{"id":"B0FFHCUJ5U","name":"大朗镇洋坑塘村图书阅览室","type":"科教文化服务;图书馆;图书馆","typecode":"140500","address":"中心一街附近","location":"113.924918,22.917275","transed_lng":113.92003257208808,"transed_lat":22.9202141621972,"cityname":"东莞市","adname":"东莞市"},{"id":"B03018J9IK","name":"黎滘图书阅览室","type":"科教文化服务;图书馆;图书馆","typecode":"140500","address":"麻涌大道与麻涌立交交叉口北150米","location":"113.602493,23.080908","transed_lng":113.59742188880773,"transed_lat":23.08379078925695,"cityname":"东莞市","adname":"东莞市"},{"id":"B03018LX22","name":"东莞图书馆(樟木头分馆)","type":"科教文化服务;图书馆;图书馆","typecode":"140500","address":"樟木头镇莞樟西路123号","location":"114.071160,22.905870","transed_lng":114.06601058474902,"transed_lat":22.908469853866254,"cityname":"东莞市","adname":"东莞市"},{"id":"B0FFHN5HTU","name":"板石图书馆公共电子阅览室","type":"科教文化服务;图书馆;图书馆","typecode":"140500","address":"常东路与板石大街交叉口北50米","location":"114.005944,22.970608","transed_lng":114.0009065255331,"transed_lat":22.973332291039767,"cityname":"东莞市","adname":"东莞市"},{"id":"B0FFG0L8VF","name":"东莞图书馆莞城分馆市桥服务点","type":"科教文化服务;图书馆;图书馆","typecode":"140500","address":"同德街与市桥路交叉口北100米","location":"113.754349,23.043336","transed_lng":113.74915626232394,"transed_lat":23.046049093363315,"cityname":"东莞市","adname":"东莞市"},{"id":"B0FFGG4G9S","name":"东莞图书馆(桥头东江分馆)","type":"科教文化服务;图书馆;图书馆","typecode":"140500","address":"桥东路北五街东100米","location":"114.124827,23.034162","transed_lng":114.11970598020692,"transed_lat":23.036705434606564,"cityname":"东莞市","adname":"东莞市"},{"id":"B0FFFQ06P7","name":"东莞图书馆东城分馆梨川服务点","type":"科教文化服务;图书馆;图书馆","typecode":"140500","address":"梨川水角工业路24号附近","location":"113.761497,23.056991","transed_lng":113.75630988200162,"transed_lat":23.05970032794503,"cityname":"东莞市","adname":"东莞市"},{"id":"B03018LWA1","name":"赤岭社区图书馆","type":"科教文化服务;图书馆;图书馆","typecode":"140500","address":"赤岭二街11号","location":"113.695319,22.968363","transed_lng":113.69015377176231,"transed_lat":22.97115999405832,"cityname":"东莞市","adname":"东莞市"},{"id":"B0FFGSJCGM","name":"东莞理工学院城市学院图书馆","type":"科教文化服务;图书馆;图书馆","typecode":"140500","address":"东莞理工学院城市学院","location":"113.842401,22.977012","transed_lng":113.83739825619398,"transed_lat":22.979873863415982,"cityname":"东莞市","adname":"东莞市"},{"id":"B0FFHI4XD9","name":"东莞图书馆(长安安力科技园分馆)","type":"科教文化服务;图书馆;图书馆","typecode":"140500","address":"振安中路689号","location":"113.753012,22.775572","transed_lng":113.74783596509546,"transed_lat":22.778392766875342,"cityname":"东莞市","adname":"东莞市"},{"id":"B03018QM9O","name":"东莞图书馆(石碣分馆)","type":"科教文化服务;图书馆;图书馆","typecode":"140500","address":"东莞市政文路石碣文化广场2楼","location":"113.809538,23.098458","transed_lng":113.8044397170405,"transed_lat":23.101206815410393,"cityname":"东莞市","adname":"东莞市"},{"id":"B0FFGIOFM5","name":"东莞图书馆大朗分馆巷尾服务点","type":"科教文化服务;图书馆;图书馆","typecode":"140500","address":"大朗图书馆巷尾工业区分馆(育民六街南)","location":"113.924033,22.947991","transed_lng":113.91914593806601,"transed_lat":22.950918097659933,"cityname":"东莞市","adname":"东莞市"},{"id":"B03018LWJ0","name":"陈屋图书馆","type":"科教文化服务;图书馆;图书馆","typecode":"140500","address":"太平西路与陈屋太平西路二巷交叉口东南50米","location":"113.690640,22.964897","transed_lng":113.68548132733403,"transed_lat":22.967703612739122,"cityname":"东莞市","adname":"东莞市"},{"id":"B0FFGFBM6Z","name":"东莞市虎门镇金洲社区图书馆","type":"科教文化服务;图书馆;图书馆","typecode":"140500","address":"南坊南路与南坊村前路交汇处西北150米","location":"113.682828,22.808377","transed_lng":113.67769093211533,"transed_lat":22.811260547548056,"cityname":"东莞市","adname":"东莞市"},{"id":"B03017WADG","name":"村尾图书室","type":"科教文化服务;图书馆;图书馆","typecode":"140500","address":"村尾村附近","location":"113.993538,23.032592","transed_lng":113.98852795374377,"transed_lat":23.035327068192046,"cityname":"东莞市","adname":"东莞市"},{"id":"B03018QSYY","name":"东莞图书馆老年人图书馆","type":"科教文化服务;图书馆;图书馆","typecode":"140500","address":"新芬路40号","location":"113.756451,23.039562","transed_lng":113.75126021101175,"transed_lat":23.04227713146985,"cityname":"东莞市","adname":"东莞市"},{"id":"B0FFGZUVVQ","name":"东莞图书馆莞城分馆罗沙服务点","type":"科教文化服务;图书馆;图书馆","typecode":"140500","address":"东兴路163号附近","location":"113.769997,23.039502","transed_lng":113.76482151997939,"transed_lat":23.042223767706503,"cityname":"东莞市","adname":"东莞市"},{"id":"B03017UME3","name":"东莞图书馆虎门金洲分馆","type":"科教文化服务;图书馆;图书馆","typecode":"140500","address":"北坊村前路与南坊村前路交叉口东南200米","location":"113.682725,22.808549","transed_lng":113.67758807518257,"transed_lat":22.81143267805425,"cityname":"东莞市","adname":"东莞市"},{"id":"B0FFFFKE4O","name":"东莞图书馆南城分馆元美服务点","type":"科教文化服务;图书馆;图书馆","typecode":"140500","address":"鸿福西路元美社区","location":"113.739385,23.016025","transed_lng":113.73418735107668,"transed_lat":23.018751762782376,"cityname":"东莞市","adname":"东莞市"},{"id":"B0FFHH9Q9B","name":"大岭山金桔村公共电子阅览室","type":"科教文化服务;图书馆;图书馆","typecode":"140500","address":"沙塘尾路与金桔市场路交叉口东北150米","location":"113.845296,22.923596","transed_lng":113.84030428099973,"transed_lat":22.92648582501886,"cityname":"东莞市","adname":"东莞市"},{"id":"B03018LWPT","name":"袁山贝图书馆","type":"科教文化服务;图书馆;图书馆","typecode":"140500","address":"东阳路与富民路交叉口东北50米","location":"113.976447,22.953686","transed_lng":113.97148365749675,"transed_lat":22.95650519297441,"cityname":"东莞市","adname":"东莞市"},{"id":"B03018KBS0","name":"厚街镇河田社区公共电子阅览室","type":"科教文化服务;图书馆;图书馆","typecode":"140500","address":"河田大道112号附近","location":"113.675237,22.929380","transed_lng":113.67010361682851,"transed_lat":22.9322302838591,"cityname":"东莞市","adname":"东莞市"},{"id":"B0FFGEEK3X","name":"厚街镇南五社区公共电子阅览室","type":"科教文化服务;图书馆;图书馆","typecode":"140500","address":"东坑街与南五大街交叉口北150米","location":"113.665497,22.905554","transed_lng":113.66038038133084,"transed_lat":22.90843277576631,"cityname":"东莞市","adname":"东莞市"},{"id":"B0FFHB4L38","name":"常平镇麦元村公共电子阅览室","type":"科教文化服务;图书馆;图书馆","typecode":"140500","address":"麦元村麦园公园常平镇麦元村","location":"114.046028,22.966995","transed_lng":114.04090297379527,"transed_lat":22.9696123294549,"cityname":"东莞市","adname":"东莞市"},{"id":"B0FFH7E6SV","name":"常平镇漱旧村公共电子阅览室","type":"科教文化服务;图书馆;图书馆","typecode":"140500","address":"村政路与漱旧围面前路交叉口西100米","location":"114.053993,22.977084","transed_lng":114.04885541945637,"transed_lat":22.97968058407586,"cityname":"东莞市","adname":"东莞市"},{"id":"B0FFF29JW8","name":"东莞图书馆东城分馆主山服务点","type":"科教文化服务;图书馆;图书馆","typecode":"140500","address":"芳桂路与高田坊路交叉口西50米","location":"113.781196,23.042296","transed_lng":113.77603838045027,"transed_lat":23.04502689476245,"cityname":"东莞市","adname":"东莞市"},{"id":"B0FFH206AP","name":"东莞图书馆南城分馆西平服务点","type":"科教文化服务;图书馆;图书馆","typecode":"140500","address":"东二路与东八西路交叉口东北100米","location":"113.748925,22.987214","transed_lng":113.74373246085632,"transed_lat":22.9899510379789,"cityname":"东莞市","adname":"东莞市"},{"id":"B0FFGIOB2X","name":"东莞图书馆大朗分馆竹山服务点","type":"科教文化服务;图书馆;图书馆","typecode":"140500","address":"竹山路38号竹山文化广场附近","location":"113.935921,22.965470","transed_lng":113.93102526069343,"transed_lat":22.968374710019102,"cityname":"东莞市","adname":"东莞市"},{"id":"B0FFFRO0MX","name":"南城区三元里社区公共电子阅览室","type":"科教文化服务;图书馆;图书馆","typecode":"140500","address":"南城区三元里村三元里农民公寓b栋","location":"113.741113,23.008527","transed_lng":113.73591614639167,"transed_lat":23.01125635622661,"cityname":"东莞市","adname":"东莞市"},{"id":"B03018LWKL","name":"东莞图书馆(望牛墩分馆)","type":"科教文化服务;图书馆;图书馆","typecode":"140500","address":"望牛墩镇文化中心3楼","location":"113.656503,23.051970","transed_lng":113.65139049040472,"transed_lat":23.054802905389483,"cityname":"东莞市","adname":"东莞市"},{"id":"B0FFG2I0AP","name":"东莞图书馆虎门分馆博涌服务点","type":"科教文化服务;图书馆;图书馆","typecode":"140500","address":"人民北路与园下一路交叉口东北200米","location":"113.677340,22.833908","transed_lng":113.6722096160671,"transed_lat":22.83679253396382,"cityname":"东莞市","adname":"东莞市"},{"id":"B0FFGLW59P","name":"凤岗镇三联村民兵图书阅览室","type":"科教文化服务;图书馆;图书馆","typecode":"140500","address":"三联路与排沙围新村一路交叉口北50米","location":"114.138185,22.750973","transed_lng":114.1331102384072,"transed_lat":22.753645182806576,"cityname":"东莞市","adname":"东莞市"},{"id":"B0FFGB21FA","name":"东莞图书馆东城分馆星城社区服务点","type":"科教文化服务;图书馆;图书馆","typecode":"140500","address":"环城东路与龙樟路交叉口西南150米","location":"113.798557,23.060412","transed_lng":113.79343437341969,"transed_lat":23.06315852946039,"cityname":"东莞市","adname":"东莞市"},{"id":"B0FFG46QP3","name":"东莞图书馆高埗分馆草墩服务点","type":"科教文化服务;图书馆;图书馆","typecode":"140500","address":"120省道西150米","location":"113.752638,23.118505","transed_lng":113.74743901875215,"transed_lat":23.12118626633603,"cityname":"东莞市","adname":"东莞市"},{"id":"B0FFF5MQQO","name":"东莞图书馆东城分馆余屋服务点","type":"科教文化服务;图书馆;图书馆","typecode":"140500","address":"余屋街与小塘路交叉口西50米","location":"113.830040,23.078199","transed_lng":113.82499753504551,"transed_lat":23.08099431033303,"cityname":"东莞市","adname":"东莞市"},{"id":"B0FFGJ2YYS","name":"大岭山镇水朗村公共电子阅览室","type":"科教文化服务;图书馆;图书馆","typecode":"140500","address":"水朗兴朗路90号附近","location":"113.818449,22.873017","transed_lng":113.81338872585341,"transed_lat":22.875877454032352,"cityname":"东莞市","adname":"东莞市"},{"id":"B03018LWOA","name":"东莞图书馆道滘永庆分馆","type":"科教文化服务;图书馆;图书馆","typecode":"140500","address":"兴隆街96号之4","location":"113.663098,22.997092","transed_lng":113.65797909537292,"transed_lat":22.999936374891966,"cityname":"东莞市","adname":"东莞市"},{"id":"B0FFG1U8J4","name":"百益图书","type":"科教文化服务;图书馆;图书馆","typecode":"140500","address":"寮步镇香市路海派生活城2楼","location":"113.881792,22.988573","transed_lng":113.87687516879716,"transed_lat":22.991485158770303,"cityname":"东莞市","adname":"东莞市"},{"id":"B03018JA5G","name":"东坑草塘社区图书阅览室","type":"科教文化服务;图书馆;图书馆","typecode":"140500","address":"正兴街与沿河东二路交叉口东北50米","location":"113.946806,22.990612","transed_lng":113.94189617089019,"transed_lat":22.993487038420497,"cityname":"东莞市","adname":"东莞市"},{"id":"B0FFF2Q7UV","name":"大朗图书馆(巷尾工业区分馆)","type":"科教文化服务;图书馆;图书馆","typecode":"140500","address":"金丽路56号","location":"113.942133,22.942359","transed_lng":113.93723224718326,"transed_lat":22.94526341735151,"cityname":"东莞市","adname":"东莞市"},{"id":"B0FFHLFW0N","name":"厚街镇涌口社区公共电子阅览室","type":"科教文化服务;图书馆;图书馆","typecode":"140500","address":"涌口光辉街北与濂泉路交叉口东南50米","location":"113.641463,22.922454","transed_lng":113.63637947986302,"transed_lat":22.9253679925797,"cityname":"东莞市","adname":"东莞市"},{"id":"B0FFH6M5V9","name":"常平镇袁山贝村公共电子阅览室","type":"科教文化服务;图书馆;图书馆","typecode":"140500","address":"东阳路与富民路交叉口东北50米","location":"113.976450,22.953859","transed_lng":113.97148663940338,"transed_lat":22.956678110614476,"cityname":"东莞市","adname":"东莞市"},{"id":"B0FFHC3GQD","name":"东莞图书馆大朗分馆沙步服务点","type":"科教文化服务;图书馆;图书馆","typecode":"140500","address":"沙溪路139号附近","location":"113.979249,22.926918","transed_lng":113.97428087416324,"transed_lat":22.9297406147885,"cityname":"东莞市","adname":"东莞市"},{"id":"B0FFHE3AHB","name":"东莞图书馆长安分馆上沙服务点","type":"科教文化服务;图书馆;图书馆","typecode":"140500","address":"沙溪路21号附近","location":"113.755575,22.790166","transed_lng":113.75039995455256,"transed_lat":22.79298225257197,"cityname":"东莞市","adname":"东莞市"},{"id":"B0FFH6OJNQ","name":"东莞图书馆常平分馆板石服务点","type":"科教文化服务;图书馆;图书馆","typecode":"140500","address":"新城大道与板石北区二街交叉口南50米","location":"114.005932,22.970725","transed_lng":114.00089454820125,"transed_lat":22.97344927690892,"cityname":"东莞市","adname":"东莞市"},{"id":"B0FFG6OPF8","name":"东莞图书馆石碣分馆24小时图书馆","type":"科教文化服务;图书馆;图书馆","typecode":"140500","address":"政文路与百花路交叉口西南100米","location":"113.810087,23.098576","transed_lng":113.804990111202,"transed_lat":23.10132573517439,"cityname":"东莞市","adname":"东莞市"},{"id":"B0FFGEE4L2","name":"东莞图书馆虎门分馆(村头服务点)","type":"科教文化服务;图书馆;图书馆","typecode":"140500","address":"沿河西路与虎门段交叉口西100米","location":"113.725820,22.821368","transed_lng":113.72063706273062,"transed_lat":22.824183717855345,"cityname":"东莞市","adname":"东莞市"},{"id":"B0FFG30GHA","name":"东莞图书馆常平分馆桥梓服务点","type":"科教文化服务;图书馆;图书馆","typecode":"140500","address":"桥城路与桥梓路交叉口东100米","location":"113.975812,22.973964","transed_lng":113.97084879972327,"transed_lat":22.976776266135605,"cityname":"东莞市","adname":"东莞市"},{"id":"B0FFG7K2KH","name":"东莞图书馆麻涌分馆麻四服务点","type":"科教文化服务;图书馆;图书馆","typecode":"140500","address":"麻涌大道51号附近","location":"113.574193,23.043652","transed_lng":113.56910047462344,"transed_lat":23.046538687976426,"cityname":"东莞市","adname":"东莞市"},{"id":"B0FFGIQUGG","name":"东莞图书馆大朗分馆佛子凹服务点","type":"科教文化服务;图书馆;图书馆","typecode":"140500","address":"松佛路1012号","location":"113.900179,22.935704","transed_lng":113.89528754819307,"transed_lat":22.938647232074157,"cityname":"东莞市","adname":"东莞市"},{"id":"B0FFF2VGHW","name":"寮步医院图书室","type":"科教文化服务;图书馆;图书馆","typecode":"140500","address":"寮步镇寮诚西路","location":"113.883790,22.994776","transed_lng":113.8788758551561,"transed_lat":22.99768704442851,"cityname":"东莞市","adname":"东莞市"},{"id":"B0FFF4KHVT","name":"东莞图书馆东城分馆柏洲边服务点","type":"科教文化服务;图书馆;图书馆","typecode":"140500","address":"松岭街与柏洲边路交叉口西100米","location":"113.803080,23.080239","transed_lng":113.79796682601688,"transed_lat":23.082984400718555,"cityname":"东莞市","adname":"东莞市"},{"id":"B0FFFX0JQF","name":"东莞少年儿童图书馆24小时自助图书馆","type":"科教文化服务;图书馆;图书馆","typecode":"140500","address":"新芬路40号","location":"113.756374,23.039658","transed_lng":113.75118313917135,"transed_lat":23.04237307201223,"cityname":"东莞市","adname":"东莞市"},{"id":"B0FFFYKTMT","name":"东莞图书馆(沙田分馆稔洲服务点)","type":"科教文化服务;图书馆;图书馆","typecode":"140500","address":"沙田镇稔洲路旺佳百货东南100米","location":"113.647847,22.830222","transed_lng":113.64276129312152,"transed_lat":22.8331623782021,"cityname":"东莞市","adname":"东莞市"},{"id":"B0FFH172J3","name":"东莞图书馆石龙分馆(林屋服务点)","type":"科教文化服务;图书馆;图书馆","typecode":"140500","address":"兴龙东路四巷与新兴街交叉口南50米","location":"113.859016,23.107146","transed_lng":113.8540463082724,"transed_lat":23.10998025208926,"cityname":"东莞市","adname":"东莞市"},{"id":"B0FFGIZA2V","name":"东华高级中学高一高二本部图书馆","type":"科教文化服务;图书馆;图书馆","typecode":"140500","address":"莞长路33号东华高级中学","location":"113.776848,22.990329","transed_lng":113.7716862656411,"transed_lat":22.993077842263045,"cityname":"东莞市","adname":"东莞市"},{"id":"B0FFGLNESE","name":"东莞图书馆塘厦分馆蛟乙塘服务点","type":"科教文化服务;图书馆;图书馆","typecode":"140500","address":"蛟乙塘商业大道南14号附近","location":"114.078781,22.781515","transed_lng":114.07363678539028,"transed_lat":22.784154078534147,"cityname":"东莞市","adname":"东莞市"},{"id":"B0FFHJ47AD","name":"厚街镇宝塘社区公共电子阅览室","type":"科教文化服务;图书馆;图书馆","typecode":"140500","address":[],"location":"113.651835,22.881373","transed_lng":113.64674044001329,"transed_lat":22.88428668879954,"cityname":"东莞市","adname":"东莞市"},{"id":"B0FFHI5405","name":"大岭山镇马蹄岗村公共电子阅览室","type":"科教文化服务;图书馆;图书馆","typecode":"140500","address":"马蹄岗围面前街116号附近","location":"113.866086,22.937873","transed_lng":113.8611430523528,"transed_lat":22.940789744542705,"cityname":"东莞市","adname":"东莞市"},{"id":"B03018J5DQ","name":"罗沙社区图书馆","type":"科教文化服务;图书馆;图书馆","typecode":"140500","address":"罗沙社区桃苑小区","location":"113.771520,23.046151","transed_lng":113.76634625841946,"transed_lat":23.048871065850953,"cityname":"东莞市","adname":"东莞市"},{"id":"B0FFHQQ2EB","name":"东莞图书馆长安分馆咸西服务点","type":"科教文化服务;图书馆;图书馆","typecode":"140500","address":"莲峰北路102b铺附近","location":"113.807127,22.822349","transed_lng":113.80204071898886,"transed_lat":22.825208496060654,"cityname":"东莞市","adname":"东莞市"},{"id":"B0FFHCUF0X","name":"东莞图书馆大朗分馆(蔡边服务点)","type":"科教文化服务;图书馆;图书馆","typecode":"140500","address":"宗兴街与政通路交叉口东北100米","location":"113.948014,22.934987","transed_lng":113.94310605944945,"transed_lat":22.93788350517043,"cityname":"东莞市","adname":"东莞市"},{"id":"B0FFHGNUIE","name":"东莞图书馆东坑分馆东坑村服务点","type":"科教文化服务;图书馆;图书馆","typecode":"140500","address":"海东学校(骏发一路南)","location":"113.947186,22.983723","transed_lng":113.94227608915726,"transed_lat":22.986600274172698,"cityname":"东莞市","adname":"东莞市"},{"id":"B03018JOJ2","name":"东莞图书馆洪梅分馆黎洲角服务点","type":"科教文化服务;图书馆;图书馆","typecode":"140500","address":"洪梅镇绿园路6号","location":"113.611155,22.996389","transed_lng":113.60608935762912,"transed_lat":22.9993047175898,"cityname":"东莞市","adname":"东莞市"},{"id":"B0FFJ2T69K","name":"东莞图书馆东坑分馆井美村服务点","type":"科教文化服务;图书馆;图书馆","typecode":"140500","address":"文阁路94号附近","location":"113.943622,22.994115","transed_lng":113.93871611499814,"transed_lat":22.996994517448574,"cityname":"东莞市","adname":"东莞市"},{"id":"B03017WG3N","name":"东莞图书馆长安新安分馆","type":"科教文化服务;图书馆;图书馆","typecode":"140500","address":"长安镇新安社区横增路友讯电子厂旁","location":"113.780721,22.815670","transed_lng":113.77557745127004,"transed_lat":22.81849387761395,"cityname":"东莞市","adname":"东莞市"},{"id":"B0FFI68LFJ","name":"茶山镇粟边村社区公共电子阅览室","type":"科教文化服务;图书馆;图书馆","typecode":"140500","address":"星堂街东100米","location":"113.907585,23.036751","transed_lng":113.90269159081589,"transed_lat":23.03965009024318,"cityname":"东莞市","adname":"东莞市"},{"id":"B0FFHJI71S","name":"东莞图书馆虎门分馆小捷滘服务点","type":"科教文化服务;图书馆;图书馆","typecode":"140500","address":"捷南路483号附近","location":"113.697773,22.808545","transed_lng":113.69261514005376,"transed_lat":22.811402012489175,"cityname":"东莞市","adname":"东莞市"},{"id":"B03018QUX0","name":"东莞图书馆24小时自助图书馆(万江分馆)","type":"科教文化服务;图书馆;图书馆","typecode":"140500","address":"万江街道公园路万江曦龙大厦(万江公园东50米)","location":"113.739181,23.044473","transed_lng":113.73398143540969,"transed_lat":23.047187576982516,"cityname":"东莞市","adname":"东莞市"},{"id":"B0FFHH3JMR","name":"东莞图书馆横沥分馆(田饶步服务点)","type":"科教文化服务;图书馆;图书馆","typecode":"140500","address":[],"location":"114.019037,23.036676","transed_lng":114.01396290620134,"transed_lat":23.03933295115981,"cityname":"东莞市","adname":"东莞市"},{"id":"B0FFHBW0OX","name":"东莞图书馆黄江分馆田美社区服务点","type":"科教文化服务;图书馆;图书馆","typecode":"140500","address":"板湖新围街与聚富三街交叉口东北100米","location":"114.022769,22.921319","transed_lng":114.01769372081641,"transed_lat":22.92401481871316,"cityname":"东莞市","adname":"东莞市"},{"id":"B0FFHSIT7V","name":"东莞图书馆24小时图书馆(大朗分馆)","type":"科教文化服务;图书馆;图书馆","typecode":"140500","address":"美景中路27号附近","location":"113.943308,22.939094","transed_lng":113.93840604065814,"transed_lat":22.94199770466947,"cityname":"东莞市","adname":"东莞市"},{"id":"B0FFG94CUQ","name":"东莞图书馆大岭山分馆24小时图书馆","type":"科教文化服务;图书馆;图书馆","typecode":"140500","address":"长富街41号附近","location":"113.842151,22.896819","transed_lng":113.83715279839537,"transed_lat":22.899714267202928,"cityname":"东莞市","adname":"东莞市"},{"id":"B03018QBU0","name":"东莞图书馆麻涌分馆24小时自助图书馆","type":"科教文化服务;图书馆;图书馆","typecode":"140500","address":"麻涌大道西50米","location":"113.577796,23.038452","transed_lng":113.57270894517303,"transed_lat":23.041344444798334,"cityname":"东莞市","adname":"东莞市"},{"id":"B0FFH20HW8","name":"东莞图书馆石龙分馆24小时自助图书馆","type":"科教文化服务;图书馆;图书馆","typecode":"140500","address":"同心路与裕兴路交叉口南150米","location":"113.873865,23.103879","transed_lng":113.86892696677546,"transed_lat":23.106734244345954,"cityname":"东莞市","adname":"东莞市"},{"id":"B0FFGC17WZ","name":"麻涌镇文化广播电视服务中心麻涌图书馆","type":"科教文化服务;图书馆;图书馆","typecode":"140500","address":"麻涌大道西50米","location":"113.577797,23.038450","transed_lng":113.57270994664343,"transed_lat":23.04134244655584,"cityname":"东莞市","adname":"东莞市"},{"id":"B03018LWAI","name":"东正社区图书馆","type":"科教文化服务;图书馆;图书馆","typecode":"140500","address":"东门广场B1层东正社区文体活动中心内","location":"113.763398,23.043099","transed_lng":113.75821389472931,"transed_lat":23.04581516006258,"cityname":"东莞市","adname":"东莞市"},{"id":"B03018IFM1","name":"东莞图书馆(桥头山和分馆)","type":"科教文化服务;图书馆;图书馆","typecode":"140500","address":"南一街85号","location":"114.118749,23.019165","transed_lng":114.11361841636882,"transed_lat":23.021709135430033,"cityname":"东莞市","adname":"东莞市"},{"id":"B0FFHEKWLR","name":"东莞图书馆虎门分馆24小时自助图书馆","type":"科教文化服务;图书馆;图书馆","typecode":"140500","address":"则徐路139号附近","location":"113.668728,22.818059","transed_lng":113.66361206496347,"transed_lat":22.820965804480522,"cityname":"东莞市","adname":"东莞市"},{"id":"B0FFH732SK","name":"东莞图书馆塘厦分馆24小时自助图书馆","type":"科教文化服务;图书馆;图书馆","typecode":"140500","address":"塘厦镇行政新区","location":"114.071141,22.804689","transed_lng":114.06599827028498,"transed_lat":22.807328007088206,"cityname":"东莞市","adname":"东莞市"},{"id":"B0FFHCMAIM","name":"塘厦镇诸佛岭社区图书馆公共电子阅览室","type":"科教文化服务;图书馆;图书馆","typecode":"140500","address":"塘龙东路96-2D1","location":"114.089686,22.803816","transed_lng":114.0845408845839,"transed_lat":22.80644060720996,"cityname":"东莞市","adname":"东莞市"},{"id":"B0FFGB4NGI","name":"东莞图书馆(长安上角分馆)","type":"科教文化服务;图书馆;图书馆","typecode":"140500","address":"民兴路与青龙中街交叉口东南50米","location":"113.715811,22.797227","transed_lng":113.7106354640247,"transed_lat":22.80006189579698,"cityname":"东莞市","adname":"东莞市"},{"id":"B0FFGYWXN0","name":"汀山社区公共电子阅览室","type":"科教文化服务;图书馆;图书馆","typecode":"140500","address":"村前街14号附近","location":"113.690902,22.934368","transed_lng":113.68574497389433,"transed_lat":22.937187157591097,"cityname":"东莞市","adname":"东莞市"},{"id":"B0FFFF7GM7","name":"东莞图书馆大岭山分馆办公室","type":"科教文化服务;图书馆;图书馆","typecode":"140500","address":"长富街41号附近","location":"113.842378,22.896912","transed_lng":113.83738038938982,"transed_lat":22.899807641275228,"cityname":"东莞市","adname":"东莞市"},{"id":"B03018IOFH","name":"东莞理工学院图书馆","type":"科教文化服务;图书馆;图书馆","typecode":"140500","address":"大岭山镇大学路松山湖路段东莞理工学院松山湖校区","location":"113.876695,22.900194","transed_lng":113.87177527781425,"transed_lat":22.90313896630646,"cityname":"东莞市","adname":"东莞市"},{"id":"B0FFH8T43X","name":"石碣镇四甲村公共电子阅览室","type":"科教文化服务;图书馆;图书馆","typecode":"140500","address":"石碣镇庆丰中路四甲公园四甲文体活动中心","location":"113.788712,23.102334","transed_lng":113.78356497179779,"transed_lat":23.105048617535278,"cityname":"东莞市","adname":"东莞市"},{"id":"B03018LX1H","name":"东莞图书馆虎门分馆东风服务点","type":"科教文化服务;图书馆;图书馆","typecode":"140500","address":"虎门镇东安路东风社区文化广场","location":"113.688141,22.797293","transed_lng":113.68299686737441,"transed_lat":22.80017069862322,"cityname":"东莞市","adname":"东莞市"},{"id":"B0FFGZBGX5","name":"新基图书馆南城分馆新基服务点","type":"科教文化服务;图书馆;图书馆","typecode":"140500","address":"新基南路与新基杨柳路交叉口北150米","location":"113.728537,23.005493","transed_lng":113.72334094922743,"transed_lat":23.008230892017043,"cityname":"东莞市","adname":"东莞市"},{"id":"B030104LJN","name":"望牛墩镇官桥涌村图书阅览室","type":"科教文化服务;图书馆;图书馆","typecode":"140500","address":"望牛墩镇北环路","location":"113.645643,23.063767","transed_lng":113.6405449606273,"transed_lat":23.06661371293598,"cityname":"东莞市","adname":"东莞市"},{"id":"B03018ITRD","name":"山厦村图书馆","type":"科教文化服务;图书馆;图书馆","typecode":"140500","address":"村前路北50米","location":"113.953493,23.037145","transed_lng":113.94857010073743,"transed_lat":23.039986109188433,"cityname":"东莞市","adname":"东莞市"},{"id":"B03017UQN6","name":"石碣镇沙腰村图书馆","type":"科教文化服务;图书馆;图书馆","typecode":"140500","address":"石碣镇沙腰村公园中心舞台旁石碣镇","location":"113.781237,23.117793","transed_lng":113.77607445326672,"transed_lat":23.12049216827423,"cityname":"东莞市","adname":"东莞市"},{"id":"B0FFHFNEHK","name":"莞城区西隅社区公共电子阅览室","type":"科教文化服务;图书馆;图书馆","typecode":"140500","address":"下关路与阮涌路交叉口东北50米","location":"113.744833,23.043970","transed_lng":113.7396348565875,"transed_lat":23.046683040663876,"cityname":"东莞市","adname":"东莞市"},{"id":"B03018QLQS","name":"东莞图书馆24小时自助图书馆(常平分馆)","type":"科教文化服务;图书馆;图书馆","typecode":"140500","address":"振华十二街3号附近","location":"113.994001,22.967213","transed_lng":113.98899404533134,"transed_lat":22.969974919665727,"cityname":"东莞市","adname":"东莞市"},{"id":"B0FFH26QN9","name":"东莞理工学院莞城校区图书信息中心","type":"科教文化服务;图书馆;图书馆","typecode":"140500","address":"莞城街道东莞理工学院莞城校区学院路251号","location":"113.772305,23.051116","transed_lng":113.76713208739952,"transed_lat":23.053834563421283,"cityname":"东莞市","adname":"东莞市"},{"id":"B03018IE0Q","name":"东莞图书馆(凤岗分馆)","type":"科教文化服务;图书馆;图书馆","typecode":"140500","address":"凤深大道183号","location":"114.149255,22.744720","transed_lng":114.14420723641241,"transed_lat":22.747411599621863,"cityname":"东莞市","adname":"东莞市"},{"id":"B0FFHCOCHU","name":"东莞图书馆南城分馆周溪服务点","type":"科教文化服务;图书馆;图书馆","typecode":"140500","address":"新兴二路35号附近","location":"113.719095,22.995905","transed_lng":113.71390405819395,"transed_lat":22.998656078923062,"cityname":"东莞市","adname":"东莞市"},{"id":"B0FFGB6V0V","name":"东莞图书馆东城分馆(桑园服务点)","type":"科教文化服务;图书馆;图书馆","typecode":"140500","address":"圃园东路与桑园中路交叉口南50米","location":"113.821254,23.054492","transed_lng":113.81618935999185,"transed_lat":23.05728079461143,"cityname":"东莞市","adname":"东莞市"},{"id":"B03018IU7M","name":"南坑村图书室","type":"科教文化服务;图书馆;图书馆","typecode":"140500","address":"南坑村青少年活动中心","location":"113.990533,23.055529","transed_lng":113.98552901596665,"transed_lat":23.0582632432652,"cityname":"东莞市","adname":"东莞市"},{"id":"B03017UXKP","name":"东莞图书馆(沙田分馆)","type":"科教文化服务;图书馆;图书馆","typecode":"140500","address":"育才路3号","location":"113.617864,22.912897","transed_lng":113.61280158504664,"transed_lat":22.915843628334457,"cityname":"东莞市","adname":"东莞市"},{"id":"B03018J2XN","name":"东莞市图书馆(道滘分馆)","type":"科教文化服务;图书馆;图书馆","typecode":"140500","address":"道滘镇桥东大街2号","location":"113.678727,23.005062","transed_lng":113.67358324473796,"transed_lat":23.007873216691298,"cityname":"东莞市","adname":"东莞市"},{"id":"B03017UMVW","name":"大罗沙村图书馆","type":"科教文化服务;图书馆;图书馆","typecode":"140500","address":"大罗沙正街十三巷2","location":"113.641841,22.989597","transed_lng":113.6367526340726,"transed_lat":22.99248174564851,"cityname":"东莞市","adname":"东莞市"},{"id":"B03018IKA8","name":"松岗村委会图书室","type":"科教文化服务;图书馆;图书馆","typecode":"140500","address":"松岗路132号","location":"114.160628,22.853454","transed_lng":114.15560281800501,"transed_lat":22.856127923917075,"cityname":"东莞市","adname":"东莞市"},{"id":"B03018ILA4","name":"振兴围社区图书室","type":"科教文化服务;图书馆;图书馆","typecode":"140500","address":"塘厦镇广场路7号","location":"114.101096,22.794201","transed_lng":114.0959582275915,"transed_lat":22.79682758611691,"cityname":"东莞市","adname":"东莞市"},{"id":"B03017UXK9","name":"东莞图书馆沙田分馆外借处","type":"科教文化服务;图书馆;图书馆","typecode":"140500","address":"沙田镇横流区育才路5号","location":"113.617661,22.912924","transed_lng":113.61259867649287,"transed_lat":22.91587078365157,"cityname":"东莞市","adname":"东莞市"},{"id":"B03017WK13","name":"东莞图书馆莞城分馆北隅服务点","type":"科教文化服务;图书馆;图书馆","typecode":"140500","address":"光明路与镇海路交叉口西南50米","location":"113.749391,23.049404","transed_lng":113.74419458904558,"transed_lat":23.052114173183732,"cityname":"东莞市","adname":"东莞市"},{"id":"B03018IIXG","name":"平山社区综合文化活动中心","type":"科教文化服务;图书馆;图书馆","typecode":"140500","address":"塘厦镇村寓北路1-a-101","location":"114.091013,22.765049","transed_lng":114.08587089768112,"transed_lat":22.767686254319088,"cityname":"东莞市","adname":"东莞市"},{"id":"B03018N5T2","name":"初坑村图书馆","type":"科教文化服务;图书馆;图书馆","typecode":"140500","address":"初坑二队旧围152","location":"113.923883,22.979044","transed_lng":113.91899399902952,"transed_lat":22.981957922383422,"cityname":"东莞市","adname":"东莞市"},{"id":"B03017UBRK","name":"梨川社区图书室","type":"科教文化服务;图书馆;图书馆","typecode":"140500","address":"运河西一路46附近","location":"113.757741,23.057629","transed_lng":113.75255014526975,"transed_lat":23.060336718646653,"cityname":"东莞市","adname":"东莞市"},{"id":"B03018J1CO","name":"西湖村科普图书室","type":"科教文化服务;图书馆;图书馆","typecode":"140500","address":"畔湖中街与西湖一路交叉口东50米","location":"113.863278,23.093090","transed_lng":113.85831891046524,"transed_lat":23.095936352961978,"cityname":"东莞市","adname":"东莞市"},{"id":"B03018JHKI","name":"光明社区居委会图书馆","type":"科教文化服务;图书馆;图书馆","typecode":"140500","address":"光明三路51号附近","location":"113.793642,22.988685","transed_lng":113.78851297320358,"transed_lat":22.99145503751146,"cityname":"东莞市","adname":"东莞市"},{"id":"B03018IVMP","name":"东莞图书馆万江分馆大莲塘服务点","type":"科教文化服务;图书馆;图书馆|生活服务;生活服务场所;生活服务场所","typecode":"140500|070000","address":"莲溪东路四巷与莲溪路交叉口南50米","location":"113.717502,23.041557","transed_lng":113.71230910149917,"transed_lat":23.044290167832223,"cityname":"东莞市","adname":"东莞市"},{"id":"B03018J53U","name":"东莞图书馆24小时自助图书馆(道滘分馆)","type":"科教文化服务;图书馆;图书馆","typecode":"140500","address":"新兴南路93号","location":"113.667508,22.998604","transed_lng":113.66238214505704,"transed_lat":23.001439378603237,"cityname":"东莞市","adname":"东莞市"},{"id":"B0FFIK6LJM","name":"购书中心(东莞图书馆)","type":"科教文化服务;图书馆;图书馆","typecode":"140500","address":"鸿福路南侧中心广场内东莞图书馆F4层","location":"113.751477,23.013376","transed_lng":113.74628423006565,"transed_lat":23.01610172435698,"cityname":"东莞市","adname":"东莞市"},{"id":"B0FFIK6LJ6","name":"集体研究室(东莞图书馆)","type":"科教文化服务;图书馆;图书馆","typecode":"140500","address":"鸿福路南侧中心广场内东莞图书馆F5层","location":"113.751992,23.013642","transed_lng":113.74679954913573,"transed_lat":23.016367639382153,"cityname":"东莞市","adname":"东莞市"},{"id":"B0FFIK6LJ2","name":"特殊文献阅览室(东莞图书馆)","type":"科教文化服务;图书馆;图书馆","typecode":"140500","address":"鸿福路南侧中心广场内东莞图书馆F5层","location":"113.752262,23.013630","transed_lng":113.74706973092064,"transed_lat":23.01635566436657,"cityname":"东莞市","adname":"东莞市"},{"id":"B0FFIK6LJ1","name":"报刊开架辅助库(东莞图书馆)","type":"科教文化服务;图书馆;图书馆","typecode":"140500","address":"鸿福路南侧中心广场内东莞图书馆F5层","location":"113.752169,23.012979","transed_lng":113.74697671140827,"transed_lat":23.015704938809876,"cityname":"东莞市","adname":"东莞市"},{"id":"B0FFIK6LIZ","name":"储藏室(东莞图书馆)","type":"科教文化服务;图书馆;图书馆","typecode":"140500","address":"鸿福路南侧中心广场内东莞图书馆F5层","location":"113.752334,23.013082","transed_lng":113.7471418160458,"transed_lat":23.015807907135887,"cityname":"东莞市","adname":"东莞市"},{"id":"B0FFIK6LII","name":"设备技术部(东莞图书馆)","type":"科教文化服务;图书馆;图书馆","typecode":"140500","address":"鸿福路南侧中心广场内东莞图书馆F4层","location":"113.752411,23.013434","transed_lng":113.74721884511197,"transed_lat":23.016159761249533,"cityname":"东莞市","adname":"东莞市"},{"id":"B0FFIK6LH2","name":"开架过刊库(东莞图书馆)","type":"科教文化服务;图书馆;图书馆","typecode":"140500","address":"鸿福路南侧中心广场内东莞图书馆F2层","location":"113.752263,23.013630","transed_lng":113.74707073159666,"transed_lat":23.01635566444503,"cityname":"东莞市","adname":"东莞市"},{"id":"B0FFIK6LH1","name":"过刊杂志阅览室(东莞图书馆)","type":"科教文化服务;图书馆;图书馆","typecode":"140500","address":"鸿福路南侧中心广场内东莞图书馆F2层","location":"113.752497,23.013582","transed_lng":113.74730489412819,"transed_lat":23.016307704609687,"cityname":"东莞市","adname":"东莞市"},{"id":"B0FFIK6LGY","name":"现刊杂志阅览室(东莞图书馆)","type":"科教文化服务;图书馆;图书馆","typecode":"140500","address":"鸿福路南侧中心广场内东莞图书馆F2层","location":"113.752169,23.012979","transed_lng":113.74697671140827,"transed_lat":23.015704938809876,"cityname":"东莞市","adname":"东莞市"},{"id":"B0FFIK6LGW","name":"馆藏珍籍展厅(东莞图书馆)","type":"科教文化服务;图书馆;图书馆","typecode":"140500","address":"鸿福路南侧中心广场内东莞图书馆F1层","location":"113.752320,23.012905","transed_lng":113.74712781828187,"transed_lat":23.015630982561756,"cityname":"东莞市","adname":"东莞市"},{"id":"B0FFIK6LGV","name":"采购拆包(东莞图书馆)","type":"科教文化服务;图书馆;图书馆","typecode":"140500","address":"鸿福路南侧中心广场内东莞图书馆F1层","location":"113.752455,23.013209","transed_lng":113.74726289009482,"transed_lat":23.015934862304864,"cityname":"东莞市","adname":"东莞市"},{"id":"B0FFIK6LGT","name":"分类/编目/加工(东莞图书馆)","type":"科教文化服务;图书馆;图书馆","typecode":"140500","address":"鸿福路南侧中心广场内东莞图书馆F1层","location":"113.752465,23.013293","transed_lng":113.7472728913674,"transed_lat":23.016018826832187,"cityname":"东莞市","adname":"东莞市"},{"id":"B0FFIK6LGS","name":"目录检索厅(东莞图书馆)","type":"科教文化服务;图书馆;图书馆","typecode":"140500","address":"鸿福路南侧中心广场内东莞图书馆F1层","location":"113.752128,23.013328","transed_lng":113.74693566074198,"transed_lat":23.016053784817682,"cityname":"东莞市","adname":"东莞市"},{"id":"B0FFIK6LGQ","name":"外借处(东莞图书馆)","type":"科教文化服务;图书馆;图书馆","typecode":"140500","address":"鸿福路南侧中心广场内东莞图书馆F1层","location":"113.752323,23.013301","transed_lng":113.74713079405494,"transed_lat":23.01602681152143,"cityname":"东莞市","adname":"东莞市"},{"id":"B0FFIK6LIF","name":"信息开发部(东莞图书馆)","type":"科教文化服务;图书馆;图书馆","typecode":"140500","address":"鸿福路南侧中心广场内东莞图书馆F4层","location":"113.752328,23.013116","transed_lng":113.74713580971748,"transed_lat":23.01584189194344,"cityname":"东莞市","adname":"东莞市"},{"id":"B0FFIK6LIE","name":"读者服务部(东莞图书馆)","type":"科教文化服务;图书馆;图书馆","typecode":"140500","address":"鸿福路南侧中心广场内东莞图书馆F4层","location":"113.752319,23.013081","transed_lng":113.74712680593129,"transed_lat":23.015806906355053,"cityname":"东莞市","adname":"东莞市"},{"id":"B0FFIK6LIA","name":"参考咨询部(东莞图书馆)","type":"科教文化服务;图书馆;图书馆","typecode":"140500","address":"鸿福路南侧中心广场内东莞图书馆F4层","location":"113.752395,23.013372","transed_lng":113.74720283831275,"transed_lat":23.016097786725197,"cityname":"东莞市","adname":"东莞市"},{"id":"B0FFIK6LI8","name":"馆藏发展部(东莞图书馆)","type":"科教文化服务;图书馆;图书馆","typecode":"140500","address":"鸿福路南侧中心广场内东莞图书馆F4层","location":"113.752337,23.013151","transed_lng":113.74714481350706,"transed_lat":23.015876877534943,"cityname":"东莞市","adname":"东莞市"},{"id":"B0FFIK6LI7","name":"教育培训部(东莞图书馆)","type":"科教文化服务;图书馆;图书馆","typecode":"140500","address":"鸿福路南侧中心广场内东莞图书馆F4层","location":"113.752420,23.013469","transed_lng":113.747227848933,"transed_lat":23.016194746869726,"cityname":"东莞市","adname":"东莞市"},{"id":"B0FFIK6LI6","name":"集体研究室(东莞图书馆)","type":"科教文化服务;图书馆;图书馆","typecode":"140500","address":"鸿福路南侧中心广场内东莞图书馆F4层","location":"113.751991,23.013643","transed_lng":113.74679854840478,"transed_lat":23.01636863888147,"cityname":"东莞市","adname":"东莞市"},{"id":"B0FFIK6LI5","name":"职工活动室(东莞图书馆)","type":"科教文化服务;图书馆;图书馆","typecode":"140500","address":"鸿福路南侧中心广场内东莞图书馆F4层","location":"113.752500,23.013373","transed_lng":113.74730791004687,"transed_lat":23.016098795268753,"cityname":"东莞市","adname":"东莞市"},{"id":"B0FFIK6LI4","name":"工具书阅览室(东莞图书馆)","type":"科教文化服务;图书馆;图书馆","typecode":"140500","address":"鸿福路南侧中心广场内东莞图书馆F3层","location":"113.752077,23.013327","transed_lng":113.74688462667412,"transed_lat":23.016052781558745,"cityname":"东莞市","adname":"东莞市"},{"id":"B0FFIK6LI3","name":"UPS机房(东莞图书馆)","type":"科教文化服务;图书馆;图书馆","typecode":"140500","address":"鸿福路南侧中心广场内东莞图书馆F4层","location":"113.752386,23.013339","transed_lng":113.74719383436856,"transed_lat":23.016064800248596,"cityname":"东莞市","adname":"东莞市"},{"id":"B0FFIK6LI2","name":"集体研究室(东莞图书馆)","type":"科教文化服务;图书馆;图书馆","typecode":"140500","address":"鸿福路南侧中心广场内东莞图书馆F3层","location":"113.751992,23.013643","transed_lng":113.74679954906941,"transed_lat":23.016368638949633,"cityname":"东莞市","adname":"东莞市"},{"id":"B0FFIK6LI1","name":"研究辅导部(东莞图书馆)","type":"科教文化服务;图书馆;图书馆","typecode":"140500","address":"鸿福路南侧中心广场内东莞图书馆F4层","location":"113.752403,23.013404","transed_lng":113.7472108416447,"transed_lat":23.01612977355361,"cityname":"东莞市","adname":"东莞市"},{"id":"B0FFIK6LI0","name":"计算机房(东莞图书馆)","type":"科教文化服务;图书馆;图书馆","typecode":"140500","address":"鸿福路南侧中心广场内东莞图书馆F4层","location":"113.752466,23.013257","transed_lng":113.74727389443946,"transed_lat":23.01598284248931,"cityname":"东莞市","adname":"东莞市"},{"id":"B0FFIK6LHZ","name":"社会科学图书借阅室(东莞图书馆)","type":"科教文化服务;图书馆;图书馆","typecode":"140500","address":"鸿福路南侧中心广场内东莞图书馆F3层","location":"113.752169,23.012979","transed_lng":113.74697671140827,"transed_lat":23.015704938809876,"cityname":"东莞市","adname":"东莞市"},{"id":"B0FFIK6LHY","name":"自然科学图书开架辅助书库(东莞图书馆)","type":"科教文化服务;图书馆;图书馆","typecode":"140500","address":"鸿福路南侧中心广场内东莞图书馆F4层","location":"113.752496,23.013582","transed_lng":113.74730389344231,"transed_lat":23.01630770452234,"cityname":"东莞市","adname":"东莞市"},{"id":"B0FFIK6LHX","name":"自然科学图书借阅室(东莞图书馆)","type":"科教文化服务;图书馆;图书馆","typecode":"140500","address":"鸿福路南侧中心广场内东莞图书馆F3层","location":"113.752497,23.013582","transed_lng":113.74730489412819,"transed_lat":23.016307704609687,"cityname":"东莞市","adname":"东莞市"},{"id":"B0FFIK6LHU","name":"社会科学图书开架辅助书库(东莞图书馆)","type":"科教文化服务;图书馆;图书馆","typecode":"140500","address":"鸿福路南侧中心广场内东莞图书馆F4层","location":"113.752088,23.012999","transed_lng":113.74689565578025,"transed_lat":23.015724924216244,"cityname":"东莞市","adname":"东莞市"},{"id":"B0FFIK6LHT","name":"文献编目部(东莞图书馆)","type":"科教文化服务;图书馆;图书馆","typecode":"140500","address":"鸿福路南侧中心广场内东莞图书馆F4层","location":"113.752346,23.013184","transed_lng":113.7471538174327,"transed_lat":23.01590986399461,"cityname":"东莞市","adname":"东莞市"},{"id":"B0FFIK6LHS","name":"专题文献阅览室(东莞图书馆)","type":"科教文化服务;图书馆;图书馆","typecode":"140500","address":"鸿福路南侧中心广场内东莞图书馆F4层","location":"113.752262,23.013630","transed_lng":113.74706973092064,"transed_lat":23.01635566436657,"cityname":"东莞市","adname":"东莞市"},{"id":"B0FFIK6LHQ","name":"视听室(东莞图书馆)","type":"科教文化服务;图书馆;图书馆","typecode":"140500","address":"鸿福路南侧中心广场内东莞图书馆F3层","location":"113.752169,23.013624","transed_lng":113.74697666863155,"transed_lat":23.016349659830976,"cityname":"东莞市","adname":"东莞市"},{"id":"B0FFIK6LHE","name":"美工室(东莞图书馆)","type":"科教文化服务;图书馆;图书馆","typecode":"140500","address":"鸿福路南侧中心广场内东莞图书馆F1层","location":"113.752381,23.012948","transed_lng":113.74718885689377,"transed_lat":23.015673968952658,"cityname":"东莞市","adname":"东莞市"},{"id":"B0FFIK6LHD","name":"电子阅览室(东莞图书馆)","type":"科教文化服务;图书馆;图书馆","typecode":"140500","address":"鸿福路南侧中心广场内东莞图书馆F3层","location":"113.752322,23.013620","transed_lng":113.74712977222022,"transed_lat":23.01634567346653,"cityname":"东莞市","adname":"东莞市"},{"id":"B0FFIK6LH7","name":"内庭(东莞图书馆)","type":"科教文化服务;图书馆;图书馆","typecode":"140500","address":"鸿福路南侧中心广场内东莞图书馆F1层","location":"113.752126,23.013179","transed_lng":113.74693366928308,"transed_lat":23.01590484911756,"cityname":"东莞市","adname":"东莞市"},{"id":"B0FFIK6LH5","name":"集体研究室(东莞图书馆)","type":"科教文化服务;图书馆;图书馆","typecode":"140500","address":"鸿福路南侧中心广场内东莞图书馆F2层","location":"113.751992,23.013643","transed_lng":113.74679954906941,"transed_lat":23.016368638949633,"cityname":"东莞市","adname":"东莞市"},{"id":"B0FFIK6LH4","name":"儿童阅览室(东莞图书馆)","type":"科教文化服务;图书馆;图书馆","typecode":"140500","address":"鸿福路南侧中心广场内东莞图书馆F1层","location":"113.752409,23.013604","transed_lng":113.7472168324731,"transed_lat":23.016329687553142,"cityname":"东莞市","adname":"东莞市"},{"id":"B0FFIK6LH3","name":"综合办证处(东莞图书馆)","type":"科教文化服务;图书馆;图书馆","typecode":"140500","address":"鸿福路南侧中心广场内东莞图书馆F1层","location":"113.752441,23.013409","transed_lng":113.74724886725727,"transed_lat":23.01613477460268,"cityname":"东莞市","adname":"东莞市"}]
