[{"id":"B0FFFQ083H","name":"东莞市科学科技博物馆(西1门)","type":"科教文化服务;博物馆;博物馆","typecode":"140100","address":"元美中路与元美路交叉口东北150米","location":"113.746140,23.009620","transed_lng":113.7409446474378,"transed_lat":23.012347630976997,"cityname":"东莞市","adname":"东莞市"},{"id":"B0FFFALWT2","name":"东莞市天得茶文化博物馆","type":"科教文化服务;博物馆;博物馆","typecode":"140100","address":"长安镇乌沙振安路60号新恒泰大厦4层","location":"113.784859,22.776809","transed_lng":113.77972570901862,"transed_lat":22.779651144490042,"cityname":"东莞市","adname":"东莞市"},{"id":"B0FFHD5A9Y","name":"东莞市东众木艺有限公司根雕艺术博物馆","type":"科教文化服务;博物馆;博物馆","typecode":"140100","address":"可园北路三舍巷18号","location":"113.746577,23.042292","transed_lng":113.74137966579318,"transed_lat":23.04500546432524,"cityname":"东莞市","adname":"东莞市"},{"id":"B03018KSXO","name":"东莞婚礼博物馆","type":"科教文化服务;博物馆;博物馆","typecode":"140100","address":"振兴路1号3层","location":"113.803659,23.052037","transed_lng":113.79854909377137,"transed_lat":23.054795357676884,"cityname":"东莞市","adname":"东莞市"},{"id":"B0FFF08LGN","name":"东莞钱币博物馆","type":"科教文化服务;博物馆;博物馆","typecode":"140100","address":"鸿福东路2号东莞农商银行大楼1层","location":"113.761660,23.009724","transed_lng":113.756476190249,"transed_lat":23.012453759126192,"cityname":"东莞市","adname":"东莞市"},{"id":"B0FFF2CA7Z","name":"东莞市逸颐艺舍博物馆","type":"科教文化服务;博物馆;博物馆","typecode":"140100","address":"横沥镇田头村彩霞路129号","location":"113.97069,23.011294","transed_lng":113.96573579627172,"transed_lat":23.014104161709554,"cityname":"东莞市","adname":"东莞市"},{"id":"B030100RUA","name":"可园博物馆","type":"科教文化服务;博物馆;博物馆","typecode":"140100","address":"莞城可园路32号","location":"113.74361,23.042376","transed_lng":113.73841154924698,"transed_lat":23.04509000324033,"cityname":"东莞市","adname":"东莞市"},{"id":"B03010380Y","name":"海战博物馆","type":"科教文化服务;博物馆;博物馆","typecode":"140100","address":"虎门镇威远炮台旁边","location":"113.631797,22.796214","transed_lng":113.62673219164125,"transed_lat":22.799190735666937,"cityname":"东莞市","adname":"东莞市"},{"id":"B030100502","name":"东莞博物馆","type":"科教文化服务;博物馆;博物馆","typecode":"140100","address":"莞城街道新芬路36号","location":"113.756095,23.040397","transed_lng":113.75090385497958,"transed_lat":23.043111690146656,"cityname":"东莞市","adname":"东莞市"},{"id":"B030102FUX","name":"冠和博物馆","type":"科教文化服务;博物馆;博物馆","typecode":"140100","address":"莞樟西路中心广场3层","location":"114.069437,22.906288","transed_lng":114.06428861686155,"transed_lat":22.908889823378086,"cityname":"东莞市","adname":"东莞市"},{"id":"B03018IWCD","name":"石龙博物馆(沿江东分校)","type":"科教文化服务;博物馆;博物馆","typecode":"140100","address":"石龙镇人民广场内","location":"113.855553,23.111399","transed_lng":113.8505748232623,"transed_lat":23.114226092716212,"cityname":"东莞市","adname":"东莞市"},{"id":"B030100LO8","name":"鸦片战争博物馆","type":"科教文化服务;博物馆;博物馆","typecode":"140100","address":"虎门镇解放路113号","location":"113.660061,22.824405","transed_lng":113.65495804217089,"transed_lat":22.827325816455318,"cityname":"东莞市","adname":"东莞市"},{"id":"B03017U5IJ","name":"东莞市科学技术博物馆","type":"科教文化服务;博物馆;博物馆","typecode":"140100","address":"元美中路2号(海悦酒店对面,青少年活动中心旁)","location":"113.746581,23.009504","transed_lng":113.741385843683,"transed_lat":23.012231616858585,"cityname":"东莞市","adname":"东莞市"},{"id":"B03017TT0D","name":"东莞蚝岗遗址博物馆","type":"科教文化服务;博物馆;博物馆","typecode":"140100","address":"胜和社区龙船塘(胜和加油站附近)","location":"113.739594,23.027082","transed_lng":113.73439564671914,"transed_lat":23.02980390038932,"cityname":"东莞市","adname":"东莞市"},{"id":"B0FFG209V7","name":"中国沉香文化博物馆","type":"科教文化服务;博物馆;博物馆","typecode":"140100","address":"寮步镇祥富路1号(香慧寺旁)","location":"113.859393,22.994433","transed_lng":113.85443149111317,"transed_lat":22.99731591383961,"cityname":"东莞市","adname":"东莞市"},{"id":"B0FFFRJGEQ","name":"旗峰山艺术博物馆","type":"科教文化服务;博物馆;博物馆","typecode":"140100","address":"东城中路32号旗峰山酒家","location":"113.771973,23.021299","transed_lng":113.76680156984342,"transed_lat":23.024030136875925,"cityname":"东莞市","adname":"东莞市"},{"id":"B0FFH8UEJS","name":"东莞饮食风俗博物馆","type":"科教文化服务;博物馆;博物馆","typecode":"140100","address":"莞香楼4层","location":"113.730588,23.039456","transed_lng":113.72538916671631,"transed_lat":23.042177658431566,"cityname":"东莞市","adname":"东莞市"},{"id":"B03017U14Q","name":"圣心糕点博物馆","type":"公司企业;公司;公司|科教文化服务;博物馆;博物馆","typecode":"170200|140100","address":"茶山镇茶山工业园B区","location":"113.911860,23.048443","transed_lng":113.90696726320914,"transed_lat":23.05133556780316,"cityname":"东莞市","adname":"东莞市"},{"id":"B0FFG2EUEC","name":"凤岗历史博物馆","type":"科教文化服务;博物馆;博物馆","typecode":"140100","address":"园龙山公园山顶","location":"114.148230,22.740794","transed_lng":114.14317991871565,"transed_lat":22.74348505621605,"cityname":"东莞市","adname":"东莞市"},{"id":"B0FFFVO9I8","name":"观音山古树博物馆","type":"科教文化服务;博物馆;博物馆","typecode":"140100","address":"樟木头镇笔架山大道广东观音山国家森林公园","location":"114.096005,22.907142","transed_lng":114.0908560196735,"transed_lat":22.909725160303154,"cityname":"东莞市","adname":"东莞市"},{"id":"B03018QOQW","name":"磊祥瑞国石博物馆","type":"科教文化服务;博物馆;博物馆","typecode":"140100","address":"金龙新邨沿河路27","location":"113.708203,23.036567","transed_lng":113.703018329031,"transed_lat":23.039314340191808,"cityname":"东莞市","adname":"东莞市"},{"id":"B0FFG254RD","name":"名茶汇茶文化博物馆","type":"科教文化服务;博物馆;博物馆","typecode":"140100","address":"东福商业街18-20档附近","location":"113.717569,23.058258","transed_lng":113.7123749462801,"transed_lat":23.060983930443825,"cityname":"东莞市","adname":"东莞市"},{"id":"B0FFJ1HMPE","name":"水晶博物馆","type":"科教文化服务;博物馆;博物馆","typecode":"140100","address":"富兴路与香市路交叉口南100米","location":"113.860781,23.005360","transed_lng":113.85582197666704,"transed_lat":23.008240263745957,"cityname":"东莞市","adname":"东莞市"},{"id":"B0FFJ2UB1X","name":"逸颐艺术培训中心","type":"科教文化服务;博物馆;博物馆","typecode":"140100","address":"彩霞路121号附近","location":"113.971110,23.011215","transed_lng":113.96615488853614,"transed_lat":23.01402406699876,"cityname":"东莞市","adname":"东莞市"},{"id":"B030105EYW","name":"蚝岗民俗文物馆","type":"科教文化服务;博物馆;博物馆","typecode":"140100","address":"蚝岗村莞太路蚝岗牌坊内","location":"113.744094,23.028464","transed_lng":113.73889662902914,"transed_lat":23.031183880828152,"cityname":"东莞市","adname":"东莞市"},{"id":"B03018IV4S","name":"森晖博物馆","type":"科教文化服务;博物馆;博物馆","typecode":"140100","address":"可园路","location":"113.740656,23.040666","transed_lng":113.73545692237458,"transed_lat":23.043381640984247,"cityname":"东莞市","adname":"东莞市"},{"id":"B0FFFFP187","name":"开合箱盒文化博物馆","type":"科教文化服务;博物馆;博物馆","typecode":"140100","address":"星河传说IEO商业街小区(星河新天地)31号楼","location":"113.785254,23.020955","transed_lng":113.78010542521935,"transed_lat":23.023699828175438,"cityname":"东莞市","adname":"东莞市"},{"id":"B0FFH6SW2G","name":"沉香博物馆","type":"科教文化服务;博物馆;博物馆","typecode":"140100","address":"香市公园","location":"113.862735,22.992360","transed_lng":113.85778122560765,"transed_lat":22.995248731232614,"cityname":"东莞市","adname":"东莞市"},{"id":"B0FFGQGDWI","name":"东莞市厚麟古文物博物馆","type":"科教文化服务;博物馆;博物馆","typecode":"140100","address":"石碣龙眼路86号水南东祠第四工业区","location":"113.812906,23.119449","transed_lng":113.80781500756733,"transed_lat":23.122195180593486,"cityname":"东莞市","adname":"东莞市"},{"id":"B03018KSX7","name":"唯美陶瓷博物馆","type":"科教文化服务;博物馆;博物馆","typecode":"140100","address":"高步镇北环路草墩桥侧唯美集团一楼、二楼、三楼","location":"113.752062,23.121899","transed_lng":113.74686240097084,"transed_lat":23.124578838346853,"cityname":"东莞市","adname":"东莞市"},{"id":"B03017VRSA","name":"石龙举重博物馆","type":"科教文化服务;博物馆;博物馆","typecode":"140100","address":"石龙镇滨江东路75号","location":"113.860661,23.106831","transed_lng":113.8556951254714,"transed_lat":23.109667853973505,"cityname":"东莞市","adname":"东莞市"},{"id":"B030100RUA","name":"可园博物馆","type":"科教文化服务;博物馆;博物馆","typecode":"140100","address":"莞城可园路32号","location":"113.74361,23.042376","transed_lng":113.73841154924698,"transed_lat":23.04509000324033,"cityname":"东莞市","adname":"东莞市"},{"id":"B03010380Y","name":"海战博物馆","type":"科教文化服务;博物馆;博物馆","typecode":"140100","address":"虎门镇威远炮台旁边","location":"113.631797,22.796214","transed_lng":113.62673219164125,"transed_lat":22.799190735666937,"cityname":"东莞市","adname":"东莞市"},{"id":"B030100502","name":"东莞博物馆","type":"科教文化服务;博物馆;博物馆","typecode":"140100","address":"莞城街道新芬路36号","location":"113.756095,23.040397","transed_lng":113.75090385497958,"transed_lat":23.043111690146656,"cityname":"东莞市","adname":"东莞市"},{"id":"B030102FUX","name":"冠和博物馆","type":"科教文化服务;博物馆;博物馆","typecode":"140100","address":"莞樟西路中心广场3层","location":"114.069437,22.906288","transed_lng":114.06428861686155,"transed_lat":22.908889823378086,"cityname":"东莞市","adname":"东莞市"},{"id":"B03018IWCD","name":"石龙博物馆(沿江东分校)","type":"科教文化服务;博物馆;博物馆","typecode":"140100","address":"石龙镇人民广场内","location":"113.855553,23.111399","transed_lng":113.8505748232623,"transed_lat":23.114226092716212,"cityname":"东莞市","adname":"东莞市"},{"id":"B030100LO8","name":"鸦片战争博物馆","type":"科教文化服务;博物馆;博物馆","typecode":"140100","address":"虎门镇解放路113号","location":"113.660061,22.824405","transed_lng":113.65495804217089,"transed_lat":22.827325816455318,"cityname":"东莞市","adname":"东莞市"},{"id":"B03017U5IJ","name":"东莞市科学技术博物馆","type":"科教文化服务;博物馆;博物馆","typecode":"140100","address":"元美中路2号(海悦酒店对面,青少年活动中心旁)","location":"113.746581,23.009504","transed_lng":113.741385843683,"transed_lat":23.012231616858585,"cityname":"东莞市","adname":"东莞市"},{"id":"B03017TT0D","name":"东莞蚝岗遗址博物馆","type":"科教文化服务;博物馆;博物馆","typecode":"140100","address":"胜和社区龙船塘(胜和加油站附近)","location":"113.739594,23.027082","transed_lng":113.73439564671914,"transed_lat":23.02980390038932,"cityname":"东莞市","adname":"东莞市"},{"id":"B0FFG209V7","name":"中国沉香文化博物馆","type":"科教文化服务;博物馆;博物馆","typecode":"140100","address":"寮步镇祥富路1号(香慧寺旁)","location":"113.859393,22.994433","transed_lng":113.85443149111317,"transed_lat":22.99731591383961,"cityname":"东莞市","adname":"东莞市"},{"id":"B0FFFRJGEQ","name":"旗峰山艺术博物馆","type":"科教文化服务;博物馆;博物馆","typecode":"140100","address":"东城中路32号旗峰山酒家","location":"113.771973,23.021299","transed_lng":113.76680156984342,"transed_lat":23.024030136875925,"cityname":"东莞市","adname":"东莞市"},{"id":"B0FFH8UEJS","name":"东莞饮食风俗博物馆","type":"科教文化服务;博物馆;博物馆","typecode":"140100","address":"莞香楼4层","location":"113.730588,23.039456","transed_lng":113.72538916671631,"transed_lat":23.042177658431566,"cityname":"东莞市","adname":"东莞市"},{"id":"B03017U14Q","name":"圣心糕点博物馆","type":"公司企业;公司;公司|科教文化服务;博物馆;博物馆","typecode":"170200|140100","address":"茶山镇茶山工业园B区","location":"113.911860,23.048443","transed_lng":113.90696726320914,"transed_lat":23.05133556780316,"cityname":"东莞市","adname":"东莞市"},{"id":"B0FFG2EUEC","name":"凤岗历史博物馆","type":"科教文化服务;博物馆;博物馆","typecode":"140100","address":"园龙山公园山顶","location":"114.148230,22.740794","transed_lng":114.14317991871565,"transed_lat":22.74348505621605,"cityname":"东莞市","adname":"东莞市"},{"id":"B0FFFVO9I8","name":"观音山古树博物馆","type":"科教文化服务;博物馆;博物馆","typecode":"140100","address":"樟木头镇笔架山大道广东观音山国家森林公园","location":"114.096005,22.907142","transed_lng":114.0908560196735,"transed_lat":22.909725160303154,"cityname":"东莞市","adname":"东莞市"},{"id":"B03018QOQW","name":"磊祥瑞国石博物馆","type":"科教文化服务;博物馆;博物馆","typecode":"140100","address":"金龙新邨沿河路27","location":"113.708203,23.036567","transed_lng":113.703018329031,"transed_lat":23.039314340191808,"cityname":"东莞市","adname":"东莞市"},{"id":"B0FFG254RD","name":"名茶汇茶文化博物馆","type":"科教文化服务;博物馆;博物馆","typecode":"140100","address":"东福商业街18-20档附近","location":"113.717569,23.058258","transed_lng":113.7123749462801,"transed_lat":23.060983930443825,"cityname":"东莞市","adname":"东莞市"},{"id":"B0FFJ1HMPE","name":"水晶博物馆","type":"科教文化服务;博物馆;博物馆","typecode":"140100","address":"富兴路与香市路交叉口南100米","location":"113.860781,23.005360","transed_lng":113.85582197666704,"transed_lat":23.008240263745957,"cityname":"东莞市","adname":"东莞市"},{"id":"B0FFJ2UB1X","name":"逸颐艺术培训中心","type":"科教文化服务;博物馆;博物馆","typecode":"140100","address":"彩霞路121号附近","location":"113.971110,23.011215","transed_lng":113.96615488853614,"transed_lat":23.01402406699876,"cityname":"东莞市","adname":"东莞市"},{"id":"B030105EYW","name":"蚝岗民俗文物馆","type":"科教文化服务;博物馆;博物馆","typecode":"140100","address":"蚝岗村莞太路蚝岗牌坊内","location":"113.744094,23.028464","transed_lng":113.73889662902914,"transed_lat":23.031183880828152,"cityname":"东莞市","adname":"东莞市"},{"id":"B03018IV4S","name":"森晖博物馆","type":"科教文化服务;博物馆;博物馆","typecode":"140100","address":"可园路","location":"113.740656,23.040666","transed_lng":113.73545692237458,"transed_lat":23.043381640984247,"cityname":"东莞市","adname":"东莞市"},{"id":"B0FFFFP187","name":"开合箱盒文化博物馆","type":"科教文化服务;博物馆;博物馆","typecode":"140100","address":"星河传说IEO商业街小区(星河新天地)31号楼","location":"113.785254,23.020955","transed_lng":113.78010542521935,"transed_lat":23.023699828175438,"cityname":"东莞市","adname":"东莞市"},{"id":"B0FFH6SW2G","name":"沉香博物馆","type":"科教文化服务;博物馆;博物馆","typecode":"140100","address":"香市公园","location":"113.862735,22.992360","transed_lng":113.85778122560765,"transed_lat":22.995248731232614,"cityname":"东莞市","adname":"东莞市"},{"id":"B0FFGQGDWI","name":"东莞市厚麟古文物博物馆","type":"科教文化服务;博物馆;博物馆","typecode":"140100","address":"石碣龙眼路86号水南东祠第四工业区","location":"113.812906,23.119449","transed_lng":113.80781500756733,"transed_lat":23.122195180593486,"cityname":"东莞市","adname":"东莞市"},{"id":"B03018KSX7","name":"唯美陶瓷博物馆","type":"科教文化服务;博物馆;博物馆","typecode":"140100","address":"高步镇北环路草墩桥侧唯美集团一楼、二楼、三楼","location":"113.752062,23.121899","transed_lng":113.74686240097084,"transed_lat":23.124578838346853,"cityname":"东莞市","adname":"东莞市"},{"id":"B03017VRSA","name":"石龙举重博物馆","type":"科教文化服务;博物馆;博物馆","typecode":"140100","address":"石龙镇滨江东路75号","location":"113.860661,23.106831","transed_lng":113.8556951254714,"transed_lat":23.109667853973505,"cityname":"东莞市","adname":"东莞市"}]
