[{"id":"B03017VVBC","name":"香树丽舍","type":"商务住宅;住宅区;住宅小区","typecode":"120302","address":"南城东莞市南城区宏图大道62号(环城路与宏图路的交汇处)","location":"113.729072,22.990913","transed_lng":113.72387676210094,"transed_lat":22.993656774728404,"cityname":"东莞市","adname":"东莞市"},{"id":"B03017UNC3","name":"君汇华庭","type":"商务住宅;住宅区;住宅小区","typecode":"120302","address":"厚街镇康乐南路199号凤山公园对面","location":"113.658391,22.918352","transed_lng":113.65328443041227,"transed_lat":22.921238743683023,"cityname":"东莞市","adname":"东莞市"},{"id":"B03017WMXY","name":"七宝一居","type":"商务住宅;住宅区;住宅小区","typecode":"120302","address":"莞太大道与三元路交汇处","location":"113.742436,23.006923","transed_lng":113.7372395645792,"transed_lat":23.009652628235592,"cityname":"东莞市","adname":"东莞市"},{"id":"B030100V6D","name":"新天美地花园","type":"商务住宅;住宅区;住宅小区","typecode":"120302","address":"常平常平镇上坑段","location":"114.0122,22.987137","transed_lng":114.00714578203993,"transed_lat":22.989835407428064,"cityname":"东莞市","adname":"东莞市"},{"id":"B03017VW94","name":"青竹园","type":"商务住宅;住宅区;住宅小区","typecode":"120302","address":"工业东路","location":"113.907614,22.958711","transed_lng":113.90272561515172,"transed_lat":22.96164376898488,"cityname":"东莞市","adname":"东莞市"},{"id":"B03017UY9J","name":"帝景湾","type":"商务住宅;住宅区;住宅小区","typecode":"120302","address":"龙城一路与京瓷路交叉口西北角","location":"113.876738,23.103499","transed_lng":113.87180524958383,"transed_lat":23.10635742351306,"cityname":"东莞市","adname":"东莞市"},{"id":"B03017WDKX","name":"丰泰旗山绿洲","type":"商务住宅;住宅区;住宅小区","typecode":"120302","address":"寮步镇横坑村","location":"113.818821,23.020287","transed_lng":113.81375209728625,"transed_lat":23.023085975083518,"cityname":"东莞市","adname":"东莞市"},{"id":"B0301042WD","name":"南国水乡","type":"商务住宅;住宅区;住宅小区","typecode":"120302","address":"东坑镇东兴东路1号","location":"113.974047,22.990137","transed_lng":113.9690867526365,"transed_lat":22.992947183057623,"cityname":"东莞市","adname":"东莞市"},{"id":"B030104XE3","name":"阳光大厦(石柱路)","type":"商务住宅;住宅区;住宅小区","typecode":"120302","address":"石柱路32号","location":"113.769541,23.056249","transed_lng":113.76436377482997,"transed_lat":23.058963251042904,"cityname":"东莞市","adname":"东莞市"},{"id":"B0301021XU","name":"三正半山豪苑","type":"商务住宅;住宅区;住宅小区","typecode":"120302","address":"迎宾大道20号","location":"114.073686,22.8128","transed_lng":114.06854142493852,"transed_lat":22.81543318038682,"cityname":"东莞市","adname":"东莞市"},{"id":"B030100A0F","name":"天鹅湖花园","type":"商务住宅;住宅区;住宅小区","typecode":"120302","address":"观山路","location":"113.993597,22.981709","transed_lng":113.98859012176425,"transed_lat":22.984465893122533,"cityname":"东莞市","adname":"东莞市"},{"id":"B03017VB9A","name":"城市家园","type":"商务住宅;住宅区;住宅小区","typecode":"120302","address":"振兴西路","location":"113.985169,23.020238","transed_lng":113.9801806032613,"transed_lat":23.023003376256685,"cityname":"东莞市","adname":"东莞市"},{"id":"B030101V17","name":"花园新村(振兴北路)","type":"商务住宅;住宅区;住宅小区","typecode":"120302","address":"建设路与振兴北路交叉口西南200米","location":"113.715848,23.084717","transed_lng":113.71065343804435,"transed_lat":23.08743374904017,"cityname":"东莞市","adname":"东莞市"},{"id":"B03017UYDJ","name":"海港城","type":"商务住宅;住宅区;住宅小区","typecode":"120302","address":"虎门大道与银龙南路东一巷交叉口南100米","location":"113.675858,22.81579","transed_lng":113.67073109300014,"transed_lat":22.8186840272507,"cityname":"东莞市","adname":"东莞市"},{"id":"B03017WD80","name":"海岸国际","type":"商务住宅;住宅区;住宅小区","typecode":"120302","address":"虎门太沙路与太新路交叉口正南方向20米","location":"113.678799,22.806476","transed_lng":113.67366816619581,"transed_lat":22.809367788774463,"cityname":"东莞市","adname":"东莞市"},{"id":"B03017UYQU","name":"星耀国际","type":"商务住宅;楼宇;商住两用楼宇|商务住宅;住宅区;住宅小区","typecode":"120203|120302","address":"荔苑路7号(樟深中路与蓓蕾街交叉口)","location":"114.078093,22.902317","transed_lng":114.07294097401636,"transed_lat":22.904911020248097,"cityname":"东莞市","adname":"东莞市"},{"id":"B03018J08N","name":"万科紫台","type":"商务住宅;住宅区;住宅小区","typecode":"120302","address":"虎门东莞市虎门镇连升中路88号(华池酒店南侧)","location":"113.691216,22.801704","transed_lng":113.68606725117891,"transed_lat":22.80457466149164,"cityname":"东莞市","adname":"东莞市"},{"id":"B03017UYS2","name":"翰林雅苑","type":"商务住宅;住宅区;住宅小区","typecode":"120302","address":"常平镇还珠沥教育路","location":"113.997191,22.946766","transed_lng":113.9921772955893,"transed_lat":22.94952702177565,"cityname":"东莞市","adname":"东莞市"},{"id":"B03017U5JH","name":"尚书银座商务公寓","type":"商务住宅;住宅区;住宅小区","typecode":"120302","address":"南城区鸿福路100号","location":"113.753426,23.012984","transed_lng":113.74823458912898,"transed_lat":23.01571006080668,"cityname":"东莞市","adname":"东莞市"},{"id":"B03017UMGT","name":"百悦尚城","type":"商务住宅;住宅区;住宅小区","typecode":"120302","address":"南城东莞市南城东莞大道666号","location":"113.722781,22.976813","transed_lng":113.71758918837291,"transed_lat":22.97956844539994,"cityname":"东莞市","adname":"东莞市"},{"id":"B03017UXXA","name":"金牛花苑","type":"商务住宅;住宅区;住宅小区","typecode":"120302","address":"新安二路10号","location":"113.796221,22.813831","transed_lng":113.79110920018461,"transed_lat":22.816675870864803,"cityname":"东莞市","adname":"东莞市"},{"id":"B03017UBX1","name":"都市阳光","type":"商务住宅;住宅区;住宅小区","typecode":"120302","address":"黄金路与宏五路交互处","location":"113.716572,22.976147","transed_lng":113.7113841002074,"transed_lat":22.97890950782005,"cityname":"东莞市","adname":"东莞市"},{"id":"B03017UW5N","name":"金地·格林小城","type":"商务住宅;住宅区;住宅小区","typecode":"120302","address":"宏伟路金地格林小城","location":"113.752844,22.998148","transed_lng":113.7476531579214,"transed_lat":23.00088041389027,"cityname":"东莞市","adname":"东莞市"},{"id":"B030100VLN","name":"宜家花园(太新路二街)","type":"商务住宅;住宅区;住宅小区","typecode":"120302","address":"虎门太沙路与海运路交汇处西南向150米","location":"113.677038,22.808009","transed_lng":113.67190977573703,"transed_lat":22.810903580018568,"cityname":"东莞市","adname":"东莞市"},{"id":"B030103PNZ","name":"锦绣花园(玉堂围街)","type":"商务住宅;住宅区;住宅小区","typecode":"120302","address":"黄江镇","location":"114.011365,22.912706","transed_lng":114.00631771996936,"transed_lat":22.915438577625704,"cityname":"东莞市","adname":"东莞市"},{"id":"B03017U9CY","name":"新世纪星城","type":"商务住宅;住宅区;住宅小区","typecode":"120302","address":"学星路76号","location":"113.804565,23.037512","transed_lng":113.79945826908525,"transed_lat":23.04027811480009,"cityname":"东莞市","adname":"东莞市"},{"id":"B0FFF2T2FU","name":"益田大运城邦","type":"商务住宅;住宅区;住宅小区","typecode":"120302","address":"城邦大道与龙平西路交汇处","location":"114.205639,22.718539","transed_lng":114.20073932230122,"transed_lat":22.72133863024029,"cityname":"东莞市","adname":"东莞市"},{"id":"B03018J8YP","name":"碧桂园·天麓山","type":"商务住宅;住宅区;住宅小区","typecode":"120302","address":"环市东路566号","location":"114.112686,22.797844","transed_lng":114.10756094302826,"transed_lat":22.800473650085934,"cityname":"东莞市","adname":"东莞市"},{"id":"B0FFG0ZOHR","name":"南部湾万科城","type":"商务住宅;住宅区;住宅小区","typecode":"120302","address":"长德路168号","location":"113.706369,22.81333","transed_lng":113.70120092212846,"transed_lat":22.81617185546058,"cityname":"东莞市","adname":"东莞市"},{"id":"B03018JOKI","name":"雅园新村","type":"商务住宅;住宅区;住宅小区","typecode":"120302","address":"台心路2号","location":"113.766799,22.980101","transed_lng":113.76162317269633,"transed_lat":22.98284626768519,"cityname":"东莞市","adname":"东莞市"},{"id":"B03017UO9F","name":"中惠·沁林山庄","type":"商务住宅;住宅区;住宅小区","typecode":"120302","address":"107国道","location":"113.82989,22.838319","transed_lng":113.82486275142547,"transed_lat":22.841214477362346,"cityname":"东莞市","adname":"东莞市"},{"id":"B030100SXZ","name":"企石村","type":"商务住宅;住宅区;住宅小区","typecode":"120302","address":"高埗镇中心西路93号附近","location":"113.723116,23.090100","transed_lng":113.71791650093135,"transed_lat":23.092806517245116,"cityname":"东莞市","adname":"东莞市"},{"id":"B03017VASD","name":"地标广场","type":"商务住宅;住宅区;住宅小区","typecode":"120302","address":"虎门镇连升路龙泉国际酒店西对面以南","location":"113.688186,22.809046","transed_lng":113.68304103344815,"transed_lat":22.811919470951594,"cityname":"东莞市","adname":"东莞市"},{"id":"B03017ULOD","name":"雍华庭(东平街)","type":"商务住宅;住宅区;住宅小区","typecode":"120302","address":"东城西路123号","location":"113.767803,23.032596","transed_lng":113.7626249974014,"transed_lat":23.035319219835284,"cityname":"东莞市","adname":"东莞市"},{"id":"B03017U7WQ","name":"东城中心","type":"商务住宅;住宅区;住宅小区","typecode":"120302","address":"东城路","location":"113.777545,23.029223","transed_lng":113.77238185910662,"transed_lat":23.03195570628542,"cityname":"东莞市","adname":"东莞市"},{"id":"B030101ORS","name":"碧水天源","type":"商务住宅;住宅区;住宅小区","typecode":"120302","address":"大朗镇松佛路229号","location":"113.917681,22.92843","transed_lng":113.91279648801917,"transed_lat":22.931370791139223,"cityname":"东莞市","adname":"东莞市"},{"id":"B03017U5IA","name":"三元里","type":"商务住宅;住宅区;住宅小区","typecode":"120302","address":"三元路与塘坝一路交叉口北150米","location":"113.740517,23.009375","transed_lng":113.73531997343686,"transed_lat":23.012104200868446,"cityname":"东莞市","adname":"东莞市"},{"id":"B03017ULWV","name":"花园城","type":"商务住宅;住宅区;住宅小区","typecode":"120302","address":"环城路桑园路","location":"113.796732,23.060512","transed_lng":113.79160516190584,"transed_lat":23.063255668617046,"cityname":"东莞市","adname":"东莞市"},{"id":"B03017UY7A","name":"花城广场","type":"商务住宅;住宅区;住宅小区","typecode":"120302","address":"东门路与学岭一街交叉口北50米","location":"113.761908,23.046318","transed_lng":113.75672202987444,"transed_lat":23.04903207900737,"cityname":"东莞市","adname":"东莞市"},{"id":"B03018J6ZY","name":"万科·金域华府2期(广彩路)","type":"商务住宅;住宅区;住宅小区","typecode":"120302","address":"宏图大道21号万科金域华府","location":"113.734236,22.996515","transed_lng":113.7290394838777,"transed_lat":22.999252792523606,"cityname":"东莞市","adname":"东莞市"},{"id":"B03017V4XP","name":"滨江公馆","type":"商务住宅;住宅区;住宅小区","typecode":"120302","address":"莞穗大道与蓬庙桥交汇处东南角","location":"113.727344,23.050171","transed_lng":113.72214536656841,"transed_lat":23.052890599206723,"cityname":"东莞市","adname":"东莞市"},{"id":"B030104SQE","name":"新天地华庭","type":"商务住宅;住宅区;住宅小区","typecode":"120302","address":"寮步镇横坑管理区(莞樟公路三星电机对面)","location":"113.829534,23.022616","transed_lng":113.82449379776469,"transed_lat":23.02543415669967,"cityname":"东莞市","adname":"东莞市"},{"id":"B03018I5DL","name":"南城名苑","type":"商务住宅;住宅区;住宅小区","typecode":"120302","address":"鸿福西路76号","location":"113.738712,23.016256","transed_lng":113.73351425310679,"transed_lat":23.018982946014503,"cityname":"东莞市","adname":"东莞市"},{"id":"B03017UVXU","name":"聚龙湾","type":"商务住宅;住宅区;住宅小区","typecode":"120302","address":"东升路","location":"113.86971,23.107593","transed_lng":113.86476361372621,"transed_lat":23.110441862076446,"cityname":"东莞市","adname":"东莞市"},{"id":"B03017VARE","name":"光大花园","type":"商务住宅;住宅区;住宅小区","typecode":"120302","address":"新源路与光大路交汇处","location":"113.771591,22.998533","transed_lng":113.76642051491714,"transed_lat":23.00127368025423,"cityname":"东莞市","adname":"东莞市"},{"id":"B03018I5M8","name":"东湖花园","type":"商务住宅;住宅区;住宅小区","typecode":"120302","address":"东纵大道3号沃尔玛楼上","location":"113.766438,23.039587","transed_lng":113.76125777565913,"transed_lat":23.042306346732012,"cityname":"东莞市","adname":"东莞市"},{"id":"B030104CWG","name":"石竹花园","type":"商务住宅;住宅区;住宅小区","typecode":"120302","address":"朝阳路","location":"113.755079,23.011018","transed_lng":113.74988897518631,"transed_lat":23.013745165716458,"cityname":"东莞市","adname":"东莞市"},{"id":"B03017UNGU","name":"中惠香樟绿洲","type":"商务住宅;住宅区;住宅小区","typecode":"120302","address":"樟木头镇东城路与柏峰路交汇处(威达酒店西侧)","location":"114.076283,22.920067","transed_lng":114.07113032199888,"transed_lat":22.922655352833665,"cityname":"东莞市","adname":"东莞市"},{"id":"B03017UY70","name":"龙城国际(龙升路)","type":"商务住宅;住宅区;住宅小区","typecode":"120302","address":"石龙镇龙升路8号","location":"113.879478,23.110247","transed_lng":113.87454954547367,"transed_lat":23.11310525577735,"cityname":"东莞市","adname":"东莞市"},{"id":"B03017UNPI","name":"万科棠樾","type":"商务住宅;住宅区;住宅小区","typecode":"120302","address":"塘厦镇林坪路附近","location":"114.022524,22.777053","transed_lng":114.01745871539713,"transed_lat":22.779804551708317,"cityname":"东莞市","adname":"东莞市"},{"id":"B03018J8X4","name":"观澜碧桂园","type":"商务住宅;住宅区;住宅小区","typecode":"120302","address":"塘厦平山村高尔夫大道南","location":"114.078445,22.752193","transed_lng":114.07330278771452,"transed_lat":22.754841849168745,"cityname":"东莞市","adname":"东莞市"},{"id":"B03017WDIF","name":"金地格林上院","type":"商务住宅;住宅区;住宅小区","typecode":"120302","address":"大岭山金桔村建设路与农场南一路交汇处","location":"113.850451,22.909814","transed_lng":113.84547333257368,"transed_lat":22.912718540352866,"cityname":"东莞市","adname":"东莞市"},{"id":"B03017UYAK","name":"江南第一城","type":"商务住宅;住宅区;住宅小区","typecode":"120302","address":"金丰路宏远","location":"113.720185,23.009333","transed_lng":113.71499248709969,"transed_lat":23.012077079126424,"cityname":"东莞市","adname":"东莞市"},{"id":"B03017U8VK","name":"新世界花园北区","type":"商务住宅;住宅区;住宅小区","typecode":"120302","address":"东城东路","location":"113.783188,23.024293","transed_lng":113.77803524961402,"transed_lat":23.02703391607682,"cityname":"东莞市","adname":"东莞市"},{"id":"B03017WBMY","name":"皇家公馆","type":"商务住宅;住宅区;住宅小区","typecode":"120302","address":"东坑镇镇政府旁","location":"113.934961,22.996952","transed_lng":113.93006408992147,"transed_lat":22.999844556981135,"cityname":"东莞市","adname":"东莞市"},{"id":"B03017UJRC","name":"新世纪豪园","type":"商务住宅;住宅区;住宅小区","typecode":"120302","address":"旗峰路288号","location":"113.766787,23.011673","transed_lng":113.76160906780137,"transed_lat":23.014404612250924,"cityname":"东莞市","adname":"东莞市"},{"id":"B03017W2K2","name":"滨江花园(滨江南路)","type":"商务住宅;住宅区;住宅小区","typecode":"120302","address":"虎门镇威远岛九门寨","location":"113.666829,22.800613","transed_lng":113.66171716538759,"transed_lat":22.803529652612077,"cityname":"东莞市","adname":"东莞市"},{"id":"B03017UJB1","name":"江南世家","type":"商务住宅;住宅区;住宅小区","typecode":"120302","address":"江南商业街A-085号","location":"113.728211,23.017586","transed_lng":113.72301424622049,"transed_lat":23.02031892382377,"cityname":"东莞市","adname":"东莞市"},{"id":"B03017W4KZ","name":"万科城(万布路)","type":"商务住宅;住宅区;住宅小区","typecode":"120302","address":"常平镇常黄路附近","location":"114.021575,22.932199","transed_lng":114.01650178054017,"transed_lat":22.934893624708952,"cityname":"东莞市","adname":"东莞市"},{"id":"B03017UGW5","name":"二村","type":"商务住宅;住宅区;住宅小区","typecode":"120302","address":"同德路与文昌路交叉口东南50米","location":"113.802975,23.093266","transed_lng":113.79786071206915,"transed_lat":23.096005759618798,"cityname":"东莞市","adname":"东莞市"},{"id":"B030101ZWQ","name":"明珠广场","type":"商务住宅;住宅区;住宅小区","typecode":"120302","address":"天鹅湖路","location":"113.990709,22.981925","transed_lng":113.98570937121207,"transed_lat":22.984690485252035,"cityname":"东莞市","adname":"东莞市"},{"id":"B03017WCN1","name":"世纪城国际公馆3期","type":"商务住宅;住宅区;住宅小区","typecode":"120302","address":"绿色路1号","location":"113.744161,22.987631","transed_lng":113.73896635981184,"transed_lat":22.990368519173323,"cityname":"东莞市","adname":"东莞市"},{"id":"B03017VSHT","name":"葡萄庄园","type":"商务住宅;住宅区;住宅小区","typecode":"120302","address":"金鳌大道9号","location":"113.722744,23.038084","transed_lng":113.71754814567174,"transed_lat":23.04081301425709,"cityname":"东莞市","adname":"东莞市"},{"id":"B03017UYRR","name":"鼎峰·品筑","type":"商务住宅;住宅区;住宅小区","typecode":"120302","address":"松柏路与金富一路交叉口东南角","location":"113.872449,23.021458","transed_lng":113.86751359731375,"transed_lat":23.024346703368906,"cityname":"东莞市","adname":"东莞市"},{"id":"B03017WCHY","name":"鹿港小镇","type":"商务住宅;住宅区;住宅小区","typecode":"120302","address":"厚街厚街大道西151号","location":"113.659382,22.953614","transed_lng":113.65427162781266,"transed_lat":22.956484014944444,"cityname":"东莞市","adname":"东莞市"},{"id":"B0301029WL","name":"中惠华庭","type":"商务住宅;住宅区;住宅小区","typecode":"120302","address":"东城中路南38号","location":"113.774099,23.029628","transed_lng":113.76893024489635,"transed_lat":23.0323573213644,"cityname":"东莞市","adname":"东莞市"},{"id":"B03017UKX8","name":"江滨花园(万江路)","type":"商务住宅;住宅区;住宅小区","typecode":"120302","address":"江滨大道金泰开发区","location":"113.729042,23.040438","transed_lng":113.72384348510978,"transed_lat":23.043160402522215,"cityname":"东莞市","adname":"东莞市"},{"id":"B03017TSSB","name":"光大景湖湾畔","type":"商务住宅;住宅区;住宅小区","typecode":"120302","address":"南城南城富民步行街沿河路","location":"113.723771,23.004696","transed_lng":113.7185768510396,"transed_lat":23.00743843256705,"cityname":"东莞市","adname":"东莞市"},{"id":"B03017V19C","name":"东骏豪苑(东骏路)","type":"商务住宅;住宅区;住宅小区","typecode":"120302","address":"东骏路28号","location":"113.754157,22.984007","transed_lng":113.74896805071815,"transed_lat":22.98674568985367,"cityname":"东莞市","adname":"东莞市"},{"id":"B03017UOFD","name":"新世纪花园北区","type":"商务住宅;住宅区;住宅小区","typecode":"120302","address":"石碣镇同富东路","location":"113.821808,23.102278","transed_lng":113.81674171314097,"transed_lat":23.10504767315731,"cityname":"东莞市","adname":"东莞市"},{"id":"B03017UBXG","name":"金域中央","type":"商务住宅;住宅区;住宅小区","typecode":"120302","address":"东莞大道与黄金路交汇处","location":"113.719869,22.973946","transed_lng":113.71467902423686,"transed_lat":22.976705707624877,"cityname":"东莞市","adname":"东莞市"},{"id":"B030100RKG","name":"金域名苑","type":"商务住宅;住宅区;住宅小区","typecode":"120302","address":"莞城街道红山西路38号","location":"113.748486,23.030297","transed_lng":113.74329037254557,"transed_lat":23.03301543782986,"cityname":"东莞市","adname":"东莞市"},{"id":"B030105Y3K","name":"中信凯旋城","type":"商务住宅;住宅区;住宅小区","typecode":"120302","address":"东莞大道旁边","location":"113.759572,23.00367","transed_lng":113.75438645227858,"transed_lat":23.006401557476348,"cityname":"东莞市","adname":"东莞市"},{"id":"B03017V6QL","name":"桃园雅居","type":"商务住宅;住宅区;住宅小区","typecode":"120302","address":"赵屋东路45号","location":"113.724053,23.01408","transed_lng":113.71885809582233,"transed_lat":23.016818103825372,"cityname":"东莞市","adname":"东莞市"},{"id":"B03017WKLX","name":"景湖湾畔2期","type":"商务住宅;住宅区;住宅小区","typecode":"120302","address":"宏远新基大道沿河路边","location":"113.723177,23.003199","transed_lng":113.7179832400492,"transed_lat":23.005942656381052,"cityname":"东莞市","adname":"东莞市"},{"id":"B03017UO30","name":"盛世豪庭","type":"商务住宅;住宅区;住宅小区","typecode":"120302","address":"虎门镇人民北路88号","location":"113.675356,22.828455","transed_lng":113.67022904387984,"transed_lat":22.83134533937077,"cityname":"东莞市","adname":"东莞市"},{"id":"B03017V7NT","name":"金丰花园","type":"商务住宅;住宅区;住宅小区","typecode":"120302","address":"康城商业街与新科路交叉口北100米","location":"113.724772,23.017616","transed_lng":113.71957653535493,"transed_lat":23.020351899635745,"cityname":"东莞市","adname":"东莞市"},{"id":"B03017VB7H","name":"万科城市高尔夫花园","type":"商务住宅;住宅区;住宅小区","typecode":"120302","address":"寮步东莞市东城环城路西南路交界处","location":"113.817586,23.009313","transed_lng":113.81251453408166,"transed_lat":23.01211442970498,"cityname":"东莞市","adname":"东莞市"},{"id":"B03017TZ5H","name":"石井村","type":"商务住宅;住宅区;住宅小区","typecode":"120302","address":"东昇路","location":"113.800555,23.019465","transed_lng":113.79543976599024,"transed_lat":23.022232308174317,"cityname":"东莞市","adname":"东莞市"},{"id":"B0301022NS","name":"石竹山水园","type":"商务住宅;住宅区;住宅小区","typecode":"120302","address":"桥头镇桥新大道26号","location":"114.066605,23.024822","transed_lng":114.06145080893621,"transed_lat":23.027376970439793,"cityname":"东莞市","adname":"东莞市"},{"id":"B03017WD8Y","name":"中惠珺庭","type":"商务住宅;住宅区;住宅小区","typecode":"120302","address":"黄江镇中心城区北部板湖村环城路与北环路交界西北处","location":"114.016212,22.923217","transed_lng":114.01115213549996,"transed_lat":22.925930873921242,"cityname":"东莞市","adname":"东莞市"},{"id":"B03017U5OH","name":"中信德方斯","type":"商务住宅;住宅区;住宅小区|公司企业;公司;公司","typecode":"120302|170200","address":"南城长泰路与东莞大道交汇处(东泰花园南站旁)","location":"113.754867,23.001778","transed_lng":113.74967742026374,"transed_lat":23.004509124721803,"cityname":"东莞市","adname":"东莞市"},{"id":"B03017U18X","name":"御花苑天逸湾","type":"商务住宅;住宅区;住宅小区","typecode":"120302","address":"南外环路299号","location":"113.725383,22.957175","transed_lng":113.72019127772909,"transed_lat":22.959936408835574,"cityname":"东莞市","adname":"东莞市"},{"id":"B03017WMNY","name":"万科虹溪诺雅","type":"商务住宅;住宅区;住宅小区","typecode":"120302","address":"松山湖","location":"113.900911,22.918428","transed_lng":113.89602121772099,"transed_lat":22.921378537005893,"cityname":"东莞市","adname":"东莞市"},{"id":"B030101XA0","name":"金月湾","type":"商务住宅;住宅区;住宅小区","typecode":"120302","address":"东城东城大道东城文化广场旁","location":"113.77975,23.030505","transed_lng":113.77459057502344,"transed_lat":23.03323941033562,"cityname":"东莞市","adname":"东莞市"},{"id":"B0301037Z5","name":"海逸豪庭","type":"商务住宅;住宅区;住宅小区","typecode":"120302","address":"厚街镇大迳村","location":"113.736357,22.919815","transed_lng":113.73116549739862,"transed_lat":22.922584366478088,"cityname":"东莞市","adname":"东莞市"},{"id":"B030104D4Z","name":"时富花园","type":"商务住宅;住宅区;住宅小区","typecode":"120302","address":"寮步镇莞樟大道横坑路段","location":"113.819704,23.026696","transed_lng":113.81463703233705,"transed_lat":23.029493851394083,"cityname":"东莞市","adname":"东莞市"},{"id":"B03017UPEX","name":"万科·金域蓝湾","type":"商务住宅;住宅区;住宅小区","typecode":"120302","address":"富民中路222号","location":"113.92504,22.932025","transed_lng":113.92015357826699,"transed_lat":22.93495784612459,"cityname":"东莞市","adname":"东莞市"},{"id":"B03017UN9Z","name":"御景花园","type":"商务住宅;住宅区;住宅小区","typecode":"120302","address":"樟木头镇","location":"114.091814,22.919184","transed_lng":114.08666204944707,"transed_lat":22.921762935483383,"cityname":"东莞市","adname":"东莞市"},{"id":"B03017VUBJ","name":"中信凯旋国际","type":"商务住宅;住宅区;住宅小区","typecode":"120302","address":"东莞大道与隆溪路交汇处森林湖对面","location":"113.732969,22.986329","transed_lng":113.72777328382563,"transed_lat":22.98907198030812,"cityname":"东莞市","adname":"东莞市"},{"id":"B0301025Z9","name":"新中银·金色华庭","type":"商务住宅;住宅区;住宅小区","typecode":"120302","address":"南城区东莞大道新中银花园","location":"113.749995,22.994552","transed_lng":113.74480257154866,"transed_lat":22.997285836682853,"cityname":"东莞市","adname":"东莞市"},{"id":"B03017VXLN","name":"凯悦美景","type":"商务住宅;住宅区;住宅小区","typecode":"120302","address":"大朗镇人和路198号","location":"113.945082,22.933981","transed_lng":113.94017812141315,"transed_lat":22.936883598641735,"cityname":"东莞市","adname":"东莞市"},{"id":"B03017UOML","name":"南国雅苑","type":"商务住宅;住宅区;住宅小区","typecode":"120302","address":"中堂镇振兴路鸿富国际大酒店旁","location":"113.652228,23.098472","transed_lng":113.64711865908393,"transed_lat":23.101292893952003,"cityname":"东莞市","adname":"东莞市"},{"id":"B030105LB1","name":"华凯豪庭","type":"商务住宅;住宅区;住宅小区","typecode":"120302","address":"簪花路6","location":"113.758332,23.019826","transed_lng":113.75314419625576,"transed_lat":23.022550159026625,"cityname":"东莞市","adname":"东莞市"},{"id":"B030105LDD","name":"未来世界花园","type":"商务住宅;住宅区;住宅小区","typecode":"120302","address":"西平宏伟路","location":"113.7533,22.994179","transed_lng":113.7481097447201,"transed_lat":22.996913180057096,"cityname":"东莞市","adname":"东莞市"},{"id":"B03017UYSF","name":"半岛城邦","type":"商务住宅;住宅区;住宅小区","typecode":"120302","address":"金湾路西100米","location":"113.669909,22.77945","transed_lng":113.66479373876315,"transed_lat":22.78236803480029,"cityname":"东莞市","adname":"东莞市"},{"id":"B03017U7TE","name":"愉景花园","type":"商务住宅;住宅区;住宅小区","typecode":"120302","address":"迎宾路1号","location":"113.799409,23.014157","transed_lng":113.79429141138263,"transed_lat":23.016924776537216,"cityname":"东莞市","adname":"东莞市"},{"id":"B030101WV1","name":"金澳花园","type":"商务住宅;住宅区;住宅小区","typecode":"120302","address":"莞城东城大道65号","location":"113.762133,23.032221","transed_lng":113.75694820850293,"transed_lat":23.03494124642051,"cityname":"东莞市","adname":"东莞市"},{"id":"B030100RKJ","name":"金源花园","type":"商务住宅;住宅区;住宅小区","typecode":"120302","address":"东宝路与大井头路交汇处","location":"113.789769,23.037151","transed_lng":113.7846284726782,"transed_lat":23.039894661155703,"cityname":"东莞市","adname":"东莞市"},{"id":"B03017WDPY","name":"森林湖","type":"商务住宅;住宅区;住宅小区","typecode":"120302","address":"五环路与东莞大道交汇处","location":"113.737346,22.978466","transed_lng":113.73215064824264,"transed_lat":22.981209906510742,"cityname":"东莞市","adname":"东莞市"},{"id":"B03017U9CY","name":"新世纪星城","type":"商务住宅;住宅区;住宅小区","typecode":"120302","address":"学星路76号","location":"113.804565,23.037512","transed_lng":113.79945826908525,"transed_lat":23.04027811480009,"cityname":"东莞市","adname":"东莞市"},{"id":"B0FFF2T2FU","name":"益田大运城邦","type":"商务住宅;住宅区;住宅小区","typecode":"120302","address":"城邦大道与龙平西路交汇处","location":"114.205639,22.718539","transed_lng":114.20073932230122,"transed_lat":22.72133863024029,"cityname":"东莞市","adname":"东莞市"},{"id":"B03018J8YP","name":"碧桂园·天麓山","type":"商务住宅;住宅区;住宅小区","typecode":"120302","address":"环市东路566号","location":"114.112686,22.797844","transed_lng":114.10756094302826,"transed_lat":22.800473650085934,"cityname":"东莞市","adname":"东莞市"},{"id":"B0FFG0ZOHR","name":"南部湾万科城","type":"商务住宅;住宅区;住宅小区","typecode":"120302","address":"长德路168号","location":"113.706369,22.81333","transed_lng":113.70120092212846,"transed_lat":22.81617185546058,"cityname":"东莞市","adname":"东莞市"},{"id":"B03018JOKI","name":"雅园新村","type":"商务住宅;住宅区;住宅小区","typecode":"120302","address":"台心路2号","location":"113.766799,22.980101","transed_lng":113.76162317269633,"transed_lat":22.98284626768519,"cityname":"东莞市","adname":"东莞市"},{"id":"B03017UO9F","name":"中惠·沁林山庄","type":"商务住宅;住宅区;住宅小区","typecode":"120302","address":"107国道","location":"113.82989,22.838319","transed_lng":113.82486275142547,"transed_lat":22.841214477362346,"cityname":"东莞市","adname":"东莞市"},{"id":"B030100SXZ","name":"企石村","type":"商务住宅;住宅区;住宅小区","typecode":"120302","address":"高埗镇中心西路93号附近","location":"113.723116,23.090100","transed_lng":113.71791650093135,"transed_lat":23.092806517245116,"cityname":"东莞市","adname":"东莞市"},{"id":"B03017VASD","name":"地标广场","type":"商务住宅;住宅区;住宅小区","typecode":"120302","address":"虎门镇连升路龙泉国际酒店西对面以南","location":"113.688186,22.809046","transed_lng":113.68304103344815,"transed_lat":22.811919470951594,"cityname":"东莞市","adname":"东莞市"},{"id":"B03017ULOD","name":"雍华庭(东平街)","type":"商务住宅;住宅区;住宅小区","typecode":"120302","address":"东城西路123号","location":"113.767803,23.032596","transed_lng":113.7626249974014,"transed_lat":23.035319219835284,"cityname":"东莞市","adname":"东莞市"},{"id":"B03017U7WQ","name":"东城中心","type":"商务住宅;住宅区;住宅小区","typecode":"120302","address":"东城路","location":"113.777545,23.029223","transed_lng":113.77238185910662,"transed_lat":23.03195570628542,"cityname":"东莞市","adname":"东莞市"},{"id":"B030101ORS","name":"碧水天源","type":"商务住宅;住宅区;住宅小区","typecode":"120302","address":"大朗镇松佛路229号","location":"113.917681,22.92843","transed_lng":113.91279648801917,"transed_lat":22.931370791139223,"cityname":"东莞市","adname":"东莞市"},{"id":"B03017U5IA","name":"三元里","type":"商务住宅;住宅区;住宅小区","typecode":"120302","address":"三元路与塘坝一路交叉口北150米","location":"113.740517,23.009375","transed_lng":113.73531997343686,"transed_lat":23.012104200868446,"cityname":"东莞市","adname":"东莞市"},{"id":"B03017ULWV","name":"花园城","type":"商务住宅;住宅区;住宅小区","typecode":"120302","address":"环城路桑园路","location":"113.796732,23.060512","transed_lng":113.79160516190584,"transed_lat":23.063255668617046,"cityname":"东莞市","adname":"东莞市"},{"id":"B03017UY7A","name":"花城广场","type":"商务住宅;住宅区;住宅小区","typecode":"120302","address":"东门路与学岭一街交叉口北50米","location":"113.761908,23.046318","transed_lng":113.75672202987444,"transed_lat":23.04903207900737,"cityname":"东莞市","adname":"东莞市"},{"id":"B03018J6ZY","name":"万科·金域华府2期(广彩路)","type":"商务住宅;住宅区;住宅小区","typecode":"120302","address":"宏图大道21号万科金域华府","location":"113.734236,22.996515","transed_lng":113.7290394838777,"transed_lat":22.999252792523606,"cityname":"东莞市","adname":"东莞市"},{"id":"B03017V4XP","name":"滨江公馆","type":"商务住宅;住宅区;住宅小区","typecode":"120302","address":"莞穗大道与蓬庙桥交汇处东南角","location":"113.727344,23.050171","transed_lng":113.72214536656841,"transed_lat":23.052890599206723,"cityname":"东莞市","adname":"东莞市"},{"id":"B030104SQE","name":"新天地华庭","type":"商务住宅;住宅区;住宅小区","typecode":"120302","address":"寮步镇横坑管理区(莞樟公路三星电机对面)","location":"113.829534,23.022616","transed_lng":113.82449379776469,"transed_lat":23.02543415669967,"cityname":"东莞市","adname":"东莞市"},{"id":"B03018I5DL","name":"南城名苑","type":"商务住宅;住宅区;住宅小区","typecode":"120302","address":"鸿福西路76号","location":"113.738712,23.016256","transed_lng":113.73351425310679,"transed_lat":23.018982946014503,"cityname":"东莞市","adname":"东莞市"},{"id":"B03017UVXU","name":"聚龙湾","type":"商务住宅;住宅区;住宅小区","typecode":"120302","address":"东升路","location":"113.86971,23.107593","transed_lng":113.86476361372621,"transed_lat":23.110441862076446,"cityname":"东莞市","adname":"东莞市"},{"id":"B03017VARE","name":"光大花园","type":"商务住宅;住宅区;住宅小区","typecode":"120302","address":"新源路与光大路交汇处","location":"113.771591,22.998533","transed_lng":113.76642051491714,"transed_lat":23.00127368025423,"cityname":"东莞市","adname":"东莞市"},{"id":"B03018I5M8","name":"东湖花园","type":"商务住宅;住宅区;住宅小区","typecode":"120302","address":"东纵大道3号沃尔玛楼上","location":"113.766438,23.039587","transed_lng":113.76125777565913,"transed_lat":23.042306346732012,"cityname":"东莞市","adname":"东莞市"},{"id":"B030104CWG","name":"石竹花园","type":"商务住宅;住宅区;住宅小区","typecode":"120302","address":"朝阳路","location":"113.755079,23.011018","transed_lng":113.74988897518631,"transed_lat":23.013745165716458,"cityname":"东莞市","adname":"东莞市"},{"id":"B03017UNGU","name":"中惠香樟绿洲","type":"商务住宅;住宅区;住宅小区","typecode":"120302","address":"樟木头镇东城路与柏峰路交汇处(威达酒店西侧)","location":"114.076283,22.920067","transed_lng":114.07113032199888,"transed_lat":22.922655352833665,"cityname":"东莞市","adname":"东莞市"},{"id":"B03017UY70","name":"龙城国际(龙升路)","type":"商务住宅;住宅区;住宅小区","typecode":"120302","address":"石龙镇龙升路8号","location":"113.879478,23.110247","transed_lng":113.87454954547367,"transed_lat":23.11310525577735,"cityname":"东莞市","adname":"东莞市"},{"id":"B03017UNPI","name":"万科棠樾","type":"商务住宅;住宅区;住宅小区","typecode":"120302","address":"塘厦镇林坪路附近","location":"114.022524,22.777053","transed_lng":114.01745871539713,"transed_lat":22.779804551708317,"cityname":"东莞市","adname":"东莞市"},{"id":"B030100B0A","name":"新城市花园(常田路)","type":"商务住宅;住宅区;住宅小区","typecode":"120302","address":"常平镇东兴路589号","location":"113.994819,22.990124","transed_lng":113.98980848453077,"transed_lat":22.992873567846804,"cityname":"东莞市","adname":"东莞市"},{"id":"B03017WDOB","name":"祥利上城","type":"商务住宅;住宅区;住宅小区","typecode":"120302","address":"凤岗中心永盛大街与凤观路交汇处","location":"114.119987,22.738498","transed_lng":114.11487693932065,"transed_lat":22.741152363526368,"cityname":"东莞市","adname":"东莞市"},{"id":"B03018J71Z","name":"北大资源·御湾","type":"商务住宅;住宅区;住宅小区","typecode":"120302","address":"城市候机楼旁","location":"113.727861,23.032267","transed_lng":113.72266338293028,"transed_lat":23.03499386948464,"cityname":"东莞市","adname":"东莞市"},{"id":"B03018I6TP","name":"长安花园(建安路)","type":"商务住宅;住宅区;住宅小区","typecode":"120302","address":"长安镇乌沙兴发路138号","location":"113.774746,22.770238","transed_lng":113.769595345508,"transed_lat":22.77307159622093,"cityname":"东莞市","adname":"东莞市"},{"id":"B03017UAEJ","name":"玉兰花园","type":"商务住宅;住宅区;住宅小区","typecode":"120302","address":"美峰路","location":"113.769673,23.024687","transed_lng":113.76449804953238,"transed_lat":23.027414921012138,"cityname":"东莞市","adname":"东莞市"},{"id":"B030100TRQ","name":"世纪康城","type":"商务住宅;住宅区;住宅小区","typecode":"120302","address":"常马路","location":"114.014561,22.979673","transed_lng":114.00950145957042,"transed_lat":22.98236764515826,"cityname":"东莞市","adname":"东莞市"},{"id":"B03018IOQ1","name":"万科·金域松湖","type":"商务住宅;住宅区;住宅小区","typecode":"120302","address":"松山湖工业北四路2号","location":"113.91303,22.964631","transed_lng":113.90814288310395,"transed_lat":22.96755919166944,"cityname":"东莞市","adname":"东莞市"},{"id":"B03017WFJF","name":"富康豪庭","type":"商务住宅;住宅区;住宅小区","typecode":"120302","address":"迎宾大道3号","location":"114.077112,22.808747","transed_lng":114.07196641222608,"transed_lat":22.811378145013535,"cityname":"东莞市","adname":"东莞市"},{"id":"B0301009F0","name":"金泽花园(草岭路)","type":"商务住宅;住宅区;住宅小区","typecode":"120302","address":"平头岭东城路","location":"113.771487,23.032587","transed_lng":113.76631410891417,"transed_lat":23.035312877762525,"cityname":"东莞市","adname":"东莞市"},{"id":"B030104UC4","name":"星城国际花园","type":"商务住宅;住宅区;住宅小区","typecode":"120302","address":"香市路与祥富路交汇处","location":"113.863941,23.005883","transed_lng":113.8589890201664,"transed_lat":23.008767586204097,"cityname":"东莞市","adname":"东莞市"},{"id":"B03018J0A4","name":"理想0769","type":"商务住宅;住宅区;住宅小区","typecode":"120302","address":"金鳌路(近市汽车总站)","location":"113.718575,23.03844","transed_lng":113.71338157797112,"transed_lat":23.041173282979173,"cityname":"东莞市","adname":"东莞市"},{"id":"B030105V00","name":"蔚蓝星湖","type":"商务住宅;住宅区;住宅小区","typecode":"120302","address":"大塘头东兴路东莞实验中学旁","location":"113.788127,23.053747","transed_lng":113.78298198739023,"transed_lat":23.05648134996006,"cityname":"东莞市","adname":"东莞市"},{"id":"B03017UW2U","name":"光大景湖名郡","type":"商务住宅;住宅区;住宅小区","typecode":"120302","address":"新源南路北150米","location":"113.76143,22.987381","transed_lng":113.75624742566663,"transed_lat":22.990120323049712,"cityname":"东莞市","adname":"东莞市"},{"id":"B03017V6IN","name":"御泉山","type":"商务住宅;住宅区;住宅小区","typecode":"120302","address":"黄金路888号","location":"113.712469,22.974728","transed_lng":113.70728446442844,"transed_lat":22.977496235527145,"cityname":"东莞市","adname":"东莞市"},{"id":"B03018J6XZ","name":"东城国际","type":"商务住宅;住宅区;住宅小区","typecode":"120302","address":"中堂镇天豪酒店前面","location":"113.666026,23.095191","transed_lng":113.66089609881752,"transed_lat":23.097987883750676,"cityname":"东莞市","adname":"东莞市"},{"id":"B03017VTEB","name":"盛世华庭","type":"商务住宅;住宅区;住宅小区","typecode":"120302","address":"横沥南环路江南南路和瑞康路的交汇处","location":"113.965513,23.010714","transed_lng":113.96056970616932,"transed_lat":23.013537973724173,"cityname":"东莞市","adname":"东莞市"},{"id":"B03017TS69","name":"活力康城","type":"商务住宅;住宅区;住宅小区","typecode":"120302","address":"金丰路3号","location":"113.726123,23.015936","transed_lng":113.72092708634248,"transed_lat":23.018671404081996,"cityname":"东莞市","adname":"东莞市"},{"id":"B03017UY89","name":"丰田花园(丰田坊商业步行街)","type":"商务住宅;住宅区;住宅小区","typecode":"120302","address":"凤岗雁田村","location":"114.169231,22.69312","transed_lng":114.16423949326449,"transed_lat":22.69586225688202,"cityname":"东莞市","adname":"东莞市"},{"id":"B03018JYRI","name":"鼎盛中环","type":"商务住宅;住宅区;住宅小区","typecode":"120302","address":"厚街寮厦村(S256省道寮厦路段)","location":"113.678008,22.942255","transed_lng":113.67286948260296,"transed_lat":22.945094575116347,"cityname":"东莞市","adname":"东莞市"},{"id":"B030100RLS","name":"锦厦新村","type":"商务住宅;住宅区;住宅小区","typecode":"120302","address":"长安镇锦厦社区","location":"113.799295,22.804891","transed_lng":113.79419086271021,"transed_lat":22.80774382238215,"cityname":"东莞市","adname":"东莞市"},{"id":"B03017UYS4","name":"风临花语岸","type":"商务住宅;住宅区;住宅小区","typecode":"120302","address":"莞樟路中金富路与松柏路交汇处","location":"113.872641,23.019556","transed_lng":113.86770608989814,"transed_lat":23.022445745149653,"cityname":"东莞市","adname":"东莞市"},{"id":"B03017TZL8","name":"袁山贝村","type":"地名地址信息;普通地名;村庄级地名|商务住宅;住宅区;住宅小区","typecode":"190108|120302","address":"东莞市","location":"113.976255,22.954368","transed_lng":113.97129205421501,"transed_lat":22.957187439661315,"cityname":"东莞市","adname":"东莞市"},{"id":"B030101RR1","name":"凤凰山庄","type":"商务住宅;住宅区;住宅小区","typecode":"120302","address":"叶屋路与工业路交叉汇处西南","location":"114.096995,23.013141","transed_lng":114.09183963284666,"transed_lat":23.01567883945652,"cityname":"东莞市","adname":"东莞市"},{"id":"B03017V40H","name":"盛世东方","type":"商务住宅;住宅区;住宅小区","typecode":"120302","address":"东城东城中路与温南路交汇处东北角","location":"113.779443,23.04805","transed_lng":113.7742818746415,"transed_lat":23.050776535550245,"cityname":"东莞市","adname":"东莞市"},{"id":"B03017UDW4","name":"美地芳邻","type":"商务住宅;住宅区;住宅小区","typecode":"120302","address":"东宝路51号","location":"113.783934,23.055491","transed_lng":113.77878059900095,"transed_lat":23.0582193717927,"cityname":"东莞市","adname":"东莞市"},{"id":"B03017W7K2","name":"水天一色","type":"商务住宅;住宅区;住宅小区","typecode":"120302","address":"石龙镇政府旁临近东江","location":"113.882467,23.103833","transed_lng":113.87754379460884,"transed_lat":23.106696448116406,"cityname":"东莞市","adname":"东莞市"},{"id":"B030101RNU","name":"丰泰华园山庄","type":"商务住宅;住宅区;住宅小区","typecode":"120302","address":"虎门镇新联村连升路镇标入口300米","location":"113.686519,22.851694","transed_lng":113.68137364327845,"transed_lat":22.85455463069814,"cityname":"东莞市","adname":"东莞市"},{"id":"B03017UNW2","name":"飞龙山庄","type":"商务住宅;住宅区;住宅小区","typecode":"120302","address":"虎门大道26号","location":"113.677083,22.821502","transed_lng":113.67195382416853,"transed_lat":22.82439161821377,"cityname":"东莞市","adname":"东莞市"},{"id":"B03018J5TN","name":"保利·红珊瑚","type":"商务住宅;住宅区;住宅小区","typecode":"120302","address":"松山湖工业北二路6号","location":"113.901462,22.963426","transed_lng":113.8965697402404,"transed_lat":22.966357472242557,"cityname":"东莞市","adname":"东莞市"},{"id":"B03017WJD4","name":"锦绣花园(湖景路)","type":"商务住宅;住宅区;住宅小区","typecode":"120302","address":"塘厦湖景路与康湖街交叉口(银湖山庄对面)","location":"114.074262,22.818021","transed_lng":114.06911682671576,"transed_lat":22.82065166606252,"cityname":"东莞市","adname":"东莞市"},{"id":"B03017UAEA","name":"旗峰花园","type":"商务住宅;住宅区;住宅小区","typecode":"120302","address":"黄旗山东城大道","location":"113.768197,23.030414","transed_lng":113.76301966324276,"transed_lat":23.03313842199785,"cityname":"东莞市","adname":"东莞市"},{"id":"B03017VU9M","name":"清华居","type":"商务住宅;住宅区;住宅小区","typecode":"120302","address":"南城东莞市南城区水濂山路33号","location":"113.720903,22.960383","transed_lng":113.71571330274365,"transed_lat":22.9631474281026,"cityname":"东莞市","adname":"东莞市"},{"id":"B030101XB4","name":"金晖花园","type":"商务住宅;住宅区;住宅小区","typecode":"120302","address":"莞城八达路40号","location":"113.752036,23.030783","transed_lng":113.74684244122207,"transed_lat":23.03350123655628,"cityname":"东莞市","adname":"东莞市"},{"id":"B03017U5CM","name":"龙湾雅苑","type":"商务住宅;住宅区;住宅小区","typecode":"120302","address":"胜利路10号附近","location":"113.719286,23.021249","transed_lng":113.71409325612781,"transed_lat":23.02398890654124,"cityname":"东莞市","adname":"东莞市"},{"id":"B030100C7E","name":"骏马山庄","type":"商务住宅;住宅区;住宅小区","typecode":"120302","address":"莞太路白马路段381号","location":"113.712058,22.981442","transed_lng":113.70687337751957,"transed_lat":22.984207880436006,"cityname":"东莞市","adname":"东莞市"},{"id":"B03017TUYJ","name":"芳桂园","type":"商务住宅;住宅区;住宅小区","typecode":"120302","address":"东城东莞市东城主山东城中路段高田坊路和芳桂路交汇处","location":"113.780022,23.042983","transed_lng":113.7748622303145,"transed_lat":23.045712324717172,"cityname":"东莞市","adname":"东莞市"},{"id":"B03017UW0D","name":"新兴大厦(连升路)","type":"商务住宅;住宅区;住宅小区","typecode":"120302","address":"连升北路711号","location":"113.682408,22.823668","transed_lng":113.6772705614018,"transed_lat":22.826546790415307,"cityname":"东莞市","adname":"东莞市"},{"id":"B03018I5DO","name":"金泰花园","type":"商务住宅;住宅区;住宅小区","typecode":"120302","address":"中纺前街","location":"113.733503,23.043355","transed_lng":113.7283034400292,"transed_lat":23.046073011561244,"cityname":"东莞市","adname":"东莞市"},{"id":"B0301050B9","name":"映湖山庄","type":"商务住宅;住宅区;住宅小区","typecode":"120302","address":"水濂山水库内","location":"113.731513,22.963302","transed_lng":113.726319031402,"transed_lat":22.966055869527956,"cityname":"东莞市","adname":"东莞市"},{"id":"B03017WDKZ","name":"荷塘月色","type":"商务住宅;住宅区;住宅小区","typecode":"120302","address":"迎宾路1号(东城东路与东升路交汇处)","location":"113.788497,23.020634","transed_lng":113.783354930825,"transed_lat":23.02338309190225,"cityname":"东莞市","adname":"东莞市"},{"id":"B03017WJPB","name":"花样年君山","type":"商务住宅;住宅区;住宅小区","typecode":"120302","address":"石井支路玉兰中学旁","location":"113.810461,23.015381","transed_lng":113.80537053783647,"transed_lat":23.018166869521686,"cityname":"东莞市","adname":"东莞市"},{"id":"B03018I5R9","name":"幸福彼岸","type":"商务住宅;住宅区;住宅小区","typecode":"120302","address":"创业园六路与粤晖路交叉口北100米","location":"113.639519,22.993547","transed_lng":113.63443315085158,"transed_lat":22.996433591861464,"cityname":"东莞市","adname":"东莞市"},{"id":"B03017U951","name":"金桥花园","type":"商务住宅;住宅区;住宅小区","typecode":"120302","address":"银丰街59号附近","location":"113.791536,23.060528","transed_lng":113.78639766550646,"transed_lat":23.063264064020995,"cityname":"东莞市","adname":"东莞市"},{"id":"B03017UMP4","name":"中堂东港城","type":"商务住宅;住宅区;住宅小区","typecode":"120302","address":"中堂镇107国道及新兴路旁","location":"113.661655,23.094759","transed_lng":113.65653189133835,"transed_lat":23.09756429592622,"cityname":"东莞市","adname":"东莞市"},{"id":"B03017UOUX","name":"金椅豪园","type":"商务住宅;住宅区;住宅小区","typecode":"120302","address":"企石企石镇黄大仙路与滨江大道交汇处","location":"114.014756,23.077811","transed_lng":114.00968953928711,"transed_lat":23.08046284897112,"cityname":"东莞市","adname":"东莞市"},{"id":"B03017UO2Y","name":"西湖花园(虎门大道)","type":"商务住宅;住宅区;住宅小区","typecode":"120302","address":"富华四路","location":"113.653648,22.809527","transed_lng":113.64855552637823,"transed_lat":22.81246488136743,"cityname":"东莞市","adname":"东莞市"},{"id":"B03017UW1D","name":"凤凰花园(东兴大道北)","type":"商务住宅;住宅区;住宅小区","typecode":"120302","address":"塘厦塘龙路与东兴大道北交汇处东南角","location":"114.096047,22.802707","transed_lng":114.09090493699001,"transed_lat":22.805330515260685,"cityname":"东莞市","adname":"东莞市"},{"id":"B030100O66","name":"城市花园(旗峰路)","type":"商务住宅;住宅区;住宅小区","typecode":"120302","address":"东城西路与旗峰路交汇处西250米","location":"113.763364,23.027277","transed_lng":113.75818090523707,"transed_lat":23.029999960840957,"cityname":"东莞市","adname":"东莞市"},{"id":"B03017UOXO","name":"聚豪名轩","type":"商务住宅;住宅区;住宅小区","typecode":"120302","address":"温泉中路与西湖东路交汇处","location":"113.870812,23.095833","transed_lng":113.86586858360812,"transed_lat":23.09868807655769,"cityname":"东莞市","adname":"东莞市"},{"id":"B0FFH72Y3Q","name":"恒大绿洲销售","type":"商务住宅;楼宇;商住两用楼宇|商务住宅;住宅区;住宅小区","typecode":"120203|120302","address":"凤岗镇龙平西路与宏盈路交汇处","location":"114.150178,22.715075","transed_lng":114.14513449864965,"transed_lat":22.71777673212064,"cityname":"东莞市","adname":"东莞市"},{"id":"B03017WC92","name":"甲壳虫之家","type":"商务住宅;住宅区;住宅小区","typecode":"120302","address":"寮步寮城中路国际汽车城","location":"113.845674,23.007313","transed_lng":113.84067783082999,"transed_lat":23.010167639313686,"cityname":"东莞市","adname":"东莞市"},{"id":"B03017ULXP","name":"新世纪明上居","type":"商务住宅;住宅区;住宅小区","typecode":"120302","address":"大朗镇明上街","location":"113.921782,22.933477","transed_lng":113.91689654948279,"transed_lat":22.936412379404757,"cityname":"东莞市","adname":"东莞市"},{"id":"B03017W7JH","name":"锦绣江南","type":"商务住宅;住宅区;住宅小区","typecode":"120302","address":"石排镇石崇大道21号(中国邮政旁)","location":"113.938127,23.101141","transed_lng":113.93322040916192,"transed_lat":23.10398417359917,"cityname":"东莞市","adname":"东莞市"},{"id":"B03017VXN6","name":"金美花园","type":"商务住宅;住宅区;住宅小区","typecode":"120302","address":"金美路","location":"113.984,22.966889","transed_lng":113.97901791949069,"transed_lat":22.969680857505182,"cityname":"东莞市","adname":"东莞市"},{"id":"B03017WFL7","name":"金地·博登湖","type":"商务住宅;住宅区;住宅小区","typecode":"120302","address":"塘厦镇新世纪酒吧街","location":"114.088774,22.820947","transed_lng":114.08362748786354,"transed_lat":22.82356580160742,"cityname":"东莞市","adname":"东莞市"},{"id":"B03017U45G","name":"金福商厦","type":"商务住宅;住宅区;住宅小区","typecode":"120302","address":"万江东莞市万江江滨花园对面万江路","location":"113.731413,23.04009","transed_lng":113.72621395815116,"transed_lat":23.04281079742043,"cityname":"东莞市","adname":"东莞市"},{"id":"B03017VT2E","name":"时富城东世家","type":"商务住宅;住宅区;住宅小区","typecode":"120302","address":"寮步东升路与寮城中路交汇处西北角200米","location":"113.818992,23.025371","transed_lng":113.81392321982192,"transed_lat":23.028168096382906,"cityname":"东莞市","adname":"东莞市"},{"id":"B03017V3HE","name":"沿海·丽水佳园","type":"商务住宅;住宅区;住宅小区","typecode":"120302","address":"道滘镇港口大道","location":"113.670934,22.978779","transed_lng":113.66580408921025,"transed_lat":22.981616410539203,"cityname":"东莞市","adname":"东莞市"},{"id":"B03017UYCU","name":"蓝月湾","type":"商务住宅;住宅区;住宅小区","typecode":"120302","address":"常平金美路塘角路段蓝月湾","location":"113.983042,22.972344","transed_lng":113.97806188590718,"transed_lat":22.975136308703917,"cityname":"东莞市","adname":"东莞市"},{"id":"B03017UMZ8","name":"中央公馆","type":"商务住宅;住宅区;住宅小区","typecode":"120302","address":"寮步镇中心区蟠龙大道与东区大道交汇处","location":"113.865958,22.997498","transed_lng":113.8610109322077,"transed_lat":23.000388978713723,"cityname":"东莞市","adname":"东莞市"},{"id":"B03017WDQ2","name":"御庭苑","type":"商务住宅;住宅区;住宅小区","typecode":"120302","address":"大屏嶂林场浪琴路2号","location":"114.016678,22.780897","transed_lng":114.01162629443606,"transed_lat":22.783664066315186,"cityname":"东莞市","adname":"东莞市"},{"id":"B03017UO3P","name":"绿茵豪庭","type":"商务住宅;住宅区;住宅小区","typecode":"120302","address":"樟木头镇先威大道","location":"114.064241,22.900381","transed_lng":114.05909703355272,"transed_lat":22.902992490786094,"cityname":"东莞市","adname":"东莞市"},{"id":"B030102ADF","name":"棕榈泉","type":"商务住宅;住宅区;住宅小区","typecode":"120302","address":"黄江环城路与东进路交汇处西北角400米","location":"114.012751,22.917862","transed_lng":114.00769995235382,"transed_lat":22.92058830970477,"cityname":"东莞市","adname":"东莞市"},{"id":"B03017VVFD","name":"光大·锦绣山河","type":"商务住宅;住宅区;住宅小区","typecode":"120302","address":"松山湖红棉路3号","location":"113.875397,22.921247","transed_lng":113.87047358746337,"transed_lat":22.924181902654787,"cityname":"东莞市","adname":"东莞市"},{"id":"B030101RB1","name":"东苑小区","type":"商务住宅;住宅区;住宅小区","typecode":"120302","address":"黄旗山公园对面","location":"113.776509,23.023953","transed_lng":113.77134448227454,"transed_lat":23.026686975549698,"cityname":"东莞市","adname":"东莞市"},{"id":"B03018IY2Z","name":"丽都花园","type":"商务住宅;住宅区;住宅小区","typecode":"120302","address":"常平常平镇新火车站旁丽城开发区","location":"114.021125,22.979844","transed_lng":114.01604970751191,"transed_lat":22.982519535336433,"cityname":"东莞市","adname":"东莞市"},{"id":"B03017UXO4","name":"水岸山城","type":"商务住宅;住宅区;住宅小区","typecode":"120302","address":"凤岗镇凤深大道","location":"114.16223,22.720705","transed_lng":114.15721774486613,"transed_lat":22.723426783288115,"cityname":"东莞市","adname":"东莞市"},{"id":"B030100ACF","name":"宝马山花园(东宝路)","type":"商务住宅;住宅区;住宅小区","typecode":"120302","address":"东宝路与莞龙路交汇处","location":"113.78296,23.054982","transed_lng":113.7778047925112,"transed_lat":23.05770944759652,"cityname":"东莞市","adname":"东莞市"},{"id":"B03017WLO5","name":"万科运河东1号","type":"商务住宅;住宅区;住宅小区","typecode":"120302","address":"莞城街道莞城区运河东三路80号","location":"113.739555,23.029411","transed_lng":113.7343564864753,"transed_lat":23.032131910773497,"cityname":"东莞市","adname":"东莞市"},{"id":"B03017WJ6A","name":"城市花园(德政西路)","type":"商务住宅;住宅区;住宅小区","typecode":"120302","address":"长安镇德政西路","location":"113.795871,22.811222","transed_lng":113.7907585797873,"transed_lat":22.81406728190235,"cityname":"东莞市","adname":"东莞市"},{"id":"B03017UNE9","name":"万科松山湖1号","type":"商务住宅;住宅区;住宅小区","typecode":"120302","address":"湖园区翠竹路","location":"113.897514,22.922166","transed_lng":113.89262115775556,"transed_lat":22.925114580036585,"cityname":"东莞市","adname":"东莞市"},{"id":"B030101TKQ","name":"海悦花园(蟠龙路)","type":"商务住宅;住宅区;住宅小区","typecode":"120302","address":"寮步镇建设路和蟠龙大道交汇处","location":"113.863051,22.9951","transed_lng":113.85809775166878,"transed_lat":22.9979879968928,"cityname":"东莞市","adname":"东莞市"},{"id":"B030104SH1","name":"新世纪豪园第一居","type":"商务住宅;住宅区;住宅小区","typecode":"120302","address":"东城南路168号","location":"113.778776,23.020019","transed_lng":113.77361556838193,"transed_lat":23.02275692292701,"cityname":"东莞市","adname":"东莞市"},{"id":"B030101X4Q","name":"金色家园","type":"商务住宅;住宅区;住宅小区","typecode":"120302","address":"虎门镇虎门大道100号","location":"113.691336,22.823481","transed_lng":113.68618565825156,"transed_lat":22.82634361458081,"cityname":"东莞市","adname":"东莞市"},{"id":"B03017UM9L","name":"鼎盛时代广场","type":"商务住宅;住宅区;住宅小区","typecode":"120302","address":"厚街镇厚街大道18号","location":"113.677701,22.936512","transed_lng":113.67256333295263,"transed_lat":22.939354590618112,"cityname":"东莞市","adname":"东莞市"},{"id":"B03017ULPN","name":"教师村(学府路)","type":"商务住宅;住宅区;住宅小区","typecode":"120302","address":"松山湖管委会大学路1号","location":"113.869771,22.902991","transed_lng":113.86483794550543,"transed_lat":22.90592706295011,"cityname":"东莞市","adname":"东莞市"},{"id":"B03017UOMN","name":"莞都国际花城","type":"商务住宅;住宅区;住宅小区","typecode":"120302","address":"中堂镇振兴路(东莞银行旁)","location":"113.650870,23.095181","transed_lng":113.6457627981904,"transed_lat":23.09800563574272,"cityname":"东莞市","adname":"东莞市"},{"id":"B03018JOQR","name":"汇景华府","type":"商务住宅;住宅区;住宅小区","typecode":"120302","address":"厚街镇北环路265号","location":"113.677022,22.948645","transed_lng":113.67188458414208,"transed_lat":22.951483727830563,"cityname":"东莞市","adname":"东莞市"},{"id":"B03017UNML","name":"丰泰东海山庄","type":"商务住宅;住宅区;住宅小区","typecode":"120302","address":"虎门赤岗白马湖畔","location":"113.703084,22.85526","transed_lng":113.69791673317064,"transed_lat":22.858091088001,"cityname":"东莞市","adname":"东莞市"},{"id":"B030105IOO","name":"蓝天花园","type":"商务住宅;住宅区;住宅小区","typecode":"120302","address":"凤岗东莞市凤岗镇田南山雁鸣湖山庄内","location":"114.184229,22.693913","transed_lng":114.17927795551122,"transed_lat":22.69668322604804,"cityname":"东莞市","adname":"东莞市"},{"id":"B0301009CD","name":"罗一新村","type":"商务住宅;住宅区;住宅小区","typecode":"120302","address":"东城西路","location":"113.769976,23.035716","transed_lng":113.76480074143375,"transed_lat":23.03843938274942,"cityname":"东莞市","adname":"东莞市"},{"id":"B03017V63Q","name":"达鑫·江滨新城","type":"商务住宅;住宅区;住宅小区","typecode":"120302","address":"滨江西路与大王洲桥交叉口","location":"113.773002,23.074056","transed_lng":113.76782861444117,"transed_lat":23.07676536186813,"cityname":"东莞市","adname":"东莞市"},{"id":"B030103Z36","name":"玫瑰花园","type":"商务住宅;住宅区;住宅小区","typecode":"120302","address":"常平镇元江元","location":"114.039016,22.983947","transed_lng":114.0339022476168,"transed_lat":22.98657325311961,"cityname":"东莞市","adname":"东莞市"},{"id":"B030105MFV","name":"坝新苑第十","type":"商务住宅;住宅区;住宅小区","typecode":"120302","address":"坝翔商业街16号附近","location":"113.728087,23.025021","transed_lng":113.72288979167288,"transed_lat":23.027750811675972,"cityname":"东莞市","adname":"东莞市"},{"id":"B03017UVZE","name":"名门华轩B座","type":"商务住宅;住宅区;住宅小区","typecode":"120302","address":"虎门镇虎门大道","location":"113.676081,22.815759","transed_lng":113.6709537494313,"transed_lat":22.818652614177356,"cityname":"东莞市","adname":"东莞市"},{"id":"B03017TSL5","name":"加州花园","type":"商务住宅;住宅区;住宅小区","typecode":"120302","address":"万江石美加州花园107国道旁","location":"113.717082,23.059386","transed_lng":113.71188821474418,"transed_lat":23.062112015799272,"cityname":"东莞市","adname":"东莞市"},{"id":"B03017UYBZ","name":"天利中央花园","type":"商务住宅;住宅区;住宅小区","typecode":"120302","address":"宏伟路9号(宏伟路东侧)","location":"113.751639,22.991951","transed_lng":113.74644775515759,"transed_lat":22.994685999826764,"cityname":"东莞市","adname":"东莞市"},{"id":"B03017UXN6","name":"嘉辉豪庭","type":"商务住宅;住宅区;住宅小区","typecode":"120302","address":"龙平大道","location":"114.189196,22.719031","transed_lng":114.18425635124474,"transed_lat":22.721803549624497,"cityname":"东莞市","adname":"东莞市"},{"id":"B0FFF3JLLR","name":"富盈广场","type":"商务住宅;楼宇;商务写字楼|商务住宅;住宅区;住宅小区","typecode":"120201|120302","address":"侨立广场2楼","location":"113.997263,22.9733","transed_lng":113.99224738428296,"transed_lat":22.976049432672067,"cityname":"东莞市","adname":"东莞市"},{"id":"B03017V1DZ","name":"盛世华南","type":"商务住宅;住宅区;住宅小区","typecode":"120302","address":"万江路附近","location":"113.724969,23.037807","transed_lng":113.71977210966277,"transed_lat":23.040534003289828,"cityname":"东莞市","adname":"东莞市"},{"id":"B03018IY12","name":"联华.花园城","type":"商务住宅;住宅区;住宅小区","typecode":"120302","address":"东城东路400号","location":"113.797135,23.058405","transed_lng":113.79200922230605,"transed_lat":23.061150184198578,"cityname":"东莞市","adname":"东莞市"},{"id":"B03017TS5X","name":"江南雅筑","type":"商务住宅;住宅区;住宅小区","typecode":"120302","address":"金丰路8号","location":"113.723742,23.010955","transed_lng":113.71854744993763,"transed_lat":23.013694752806828,"cityname":"东莞市","adname":"东莞市"},{"id":"B0301022T8","name":"世纪绿洲","type":"商务住宅;住宅区;住宅小区","typecode":"120302","address":"白濠绿洲路9号","location":"113.661301,22.86375","transed_lng":113.65619358636842,"transed_lat":22.866653521666965,"cityname":"东莞市","adname":"东莞市"},{"id":"B03018I3RJ","name":"五坊村","type":"商务住宅;住宅区;住宅小区","typecode":"120302","address":"高埗镇冼沙村","location":"113.747691,23.094752","transed_lng":113.74249069105052,"transed_lat":23.097443071035073,"cityname":"东莞市","adname":"东莞市"},{"id":"B03017WJC1","name":"翠湖豪苑","type":"商务住宅;住宅区;住宅小区","typecode":"120302","address":"凤岗镇雁田祥新西路翠湖","location":"114.15938,22.691866","transed_lng":114.15436198403738,"transed_lat":22.694590160404346,"cityname":"东莞市","adname":"东莞市"},{"id":"B03017UMQB","name":"盈翠豪园","type":"商务住宅;住宅区;住宅小区","typecode":"120302","address":"石碣东风中路33号","location":"113.813453,23.107396","transed_lng":113.80836422481806,"transed_lat":23.11014810925427,"cityname":"东莞市","adname":"东莞市"},{"id":"B03017US9F","name":"翡翠山湖","type":"商务住宅;住宅区;住宅小区","typecode":"120302","address":"浸校塘环村路与清凤路交汇处","location":"114.144294,22.763023","transed_lng":114.13923278352979,"transed_lat":22.765700725411097,"cityname":"东莞市","adname":"东莞市"},{"id":"B03018I5JL","name":"聚福豪苑","type":"商务住宅;住宅区;住宅小区","typecode":"120302","address":"东城西路128号","location":"113.765639,23.032668","transed_lng":113.76045823955671,"transed_lat":23.035389854558737,"cityname":"东莞市","adname":"东莞市"},{"id":"B03017V27K","name":"东华医院住宅区(东升路)","type":"商务住宅;住宅区;住宅小区","typecode":"120302","address":"东城东路1号","location":"113.78698,23.02833","transed_lng":113.781834348287,"transed_lat":23.031073800953585,"cityname":"东莞市","adname":"东莞市"},{"id":"B03017ULQF","name":"丰泰裕田花园","type":"商务住宅;住宅区;住宅小区","typecode":"120302","address":"虎门镇嘉丰路","location":"113.738726,22.81212","transed_lng":113.7335417466467,"transed_lat":22.81493048146979,"cityname":"东莞市","adname":"东莞市"},{"id":"B03018J8T8","name":"碧桂园豪园","type":"商务住宅;住宅区;住宅小区","typecode":"120302","address":"塘厦镇高尔夫大道南","location":"114.080896,22.752223","transed_lng":114.07575337279663,"transed_lat":22.75486981161929,"cityname":"东莞市","adname":"东莞市"},{"id":"B03017U3OA","name":"上东国际南区","type":"商务住宅;住宅区;住宅小区","typecode":"120302","address":"鸿福路与运河交汇处东北侧","location":"113.729702,23.021833","transed_lng":113.72450454493026,"transed_lat":23.024562918371235,"cityname":"东莞市","adname":"东莞市"},{"id":"B03017VVNQ","name":"富阳","type":"商务住宅;住宅区;住宅小区","typecode":"120302","address":"松佛路88号","location":"113.922761,22.931284","transed_lng":113.91787542353211,"transed_lat":22.93421940935093,"cityname":"东莞市","adname":"东莞市"},{"id":"B030101UX0","name":"虎门新园东区","type":"商务住宅;住宅区;住宅小区","typecode":"120302","address":"金龙路164号","location":"113.680648,22.8141","transed_lng":113.67551384611923,"transed_lat":22.816985572823324,"cityname":"东莞市","adname":"东莞市"},{"id":"B03017UO8G","name":"明珠东区","type":"商务住宅;住宅区;住宅小区","typecode":"120302","address":"祠北路97号附近","location":"113.836162,23.107479","transed_lng":113.83113415120579,"transed_lat":23.110273611813447,"cityname":"东莞市","adname":"东莞市"},{"id":"B03017UMD3","name":"常阳花园","type":"商务住宅;住宅区;住宅小区","typecode":"120302","address":"常平镇常平木榆市场旁(中心小学)","location":"114.002588,22.975816","transed_lng":113.99755868771821,"transed_lat":22.978548201041306,"cityname":"东莞市","adname":"东莞市"},{"id":"B03017VB7I","name":"丽湖山庄","type":"商务住宅;住宅区;住宅小区","typecode":"120302","address":"厚街镇下汴村","location":"113.66947,22.880612","transed_lng":113.6643488168947,"transed_lat":22.883493380103623,"cityname":"东莞市","adname":"东莞市"},{"id":"B03017UMHD","name":"中信森林湖·兰溪谷","type":"商务住宅;住宅区;住宅小区","typecode":"120302","address":"东莞大道与环城西路交汇处","location":"113.737522,22.978419","transed_lng":113.73232666130956,"transed_lat":22.98116284222749,"cityname":"东莞市","adname":"东莞市"},{"id":"B0301021VO","name":"三屯富怡花园","type":"商务住宅;住宅区;住宅小区","typecode":"120302","address":"107国道旁边","location":"113.677428,22.95853","transed_lng":113.67228930723549,"transed_lat":22.96136373528161,"cityname":"东莞市","adname":"东莞市"},{"id":"B03017UO9I","name":"长塘花园","type":"商务住宅;住宅区;住宅小区","typecode":"120302","address":"大朗美景中路388号","location":"113.934146,22.930663","transed_lng":113.92925403667562,"transed_lat":22.933585148640923,"cityname":"东莞市","adname":"东莞市"},{"id":"B03017W5HV","name":"中惠·香樟半岛","type":"商务住宅;住宅区;住宅小区","typecode":"120302","address":"樟深路樱花山庄对面","location":"114.083847,22.888997","transed_lng":114.07869524472808,"transed_lat":22.891592040081335,"cityname":"东莞市","adname":"东莞市"},{"id":"B03017VAR6","name":"东海阳光","type":"商务住宅;住宅区;住宅小区","typecode":"120302","address":"东城东城大道东城政府西侧","location":"113.781775,23.028861","transed_lng":113.77661932437015,"transed_lat":23.03159832800342,"cityname":"东莞市","adname":"东莞市"},{"id":"B03018I3IO","name":"天邑湾","type":"商务住宅;住宅区;住宅小区","typecode":"120302","address":"万江区万高路万龙路","location":"113.731493,23.059933","transed_lng":113.72629262524515,"transed_lat":23.062645235391276,"cityname":"东莞市","adname":"东莞市"},{"id":"B03017UYCX","name":"盈翠豪庭","type":"商务住宅;住宅区;住宅小区","typecode":"120302","address":"崇焕路与东风路交界处","location":"113.812341,23.104141","transed_lng":113.80724954893516,"transed_lat":23.10689244726009,"cityname":"东莞市","adname":"东莞市"},{"id":"B030100539","name":"富雅花园","type":"商务住宅;住宅区;住宅小区","typecode":"120302","address":"红荔路52号","location":"113.762771,23.058413","transed_lng":113.75758517263883,"transed_lat":23.06112229276517,"cityname":"东莞市","adname":"东莞市"},{"id":"B03017UYSG","name":"凯东新城","type":"商务住宅;住宅区;住宅小区","typecode":"120302","address":"大岭山镇中心区教育西路","location":"113.842519,22.90226","transed_lng":113.8375214136712,"transed_lat":22.905153702621202,"cityname":"东莞市","adname":"东莞市"},{"id":"B03018I5Y4","name":"阳光花园(育华路)","type":"商务住宅;住宅区;住宅小区","typecode":"120302","address":"石柱路32号","location":"113.77499,23.056118","transed_lng":113.76982089330343,"transed_lat":23.058836727676585,"cityname":"东莞市","adname":"东莞市"},{"id":"B03017WMS7","name":"天诚国际","type":"商务住宅;住宅区;住宅小区","typecode":"120302","address":"南城区鸿福西路(南城商务大厦旁)","location":"113.73775,23.016994","transed_lng":113.73255211833937,"transed_lat":23.01972106074687,"cityname":"东莞市","adname":"东莞市"},{"id":"B03017UYC4","name":"天诚康桥","type":"商务住宅;住宅区;住宅小区","typecode":"120302","address":"鸿福西路","location":"113.737747,23.01792","transed_lng":113.73254905668522,"transed_lat":23.02064666179193,"cityname":"东莞市","adname":"东莞市"},{"id":"B030101P4X","name":"聚富花园","type":"商务住宅;住宅区;住宅小区","typecode":"120302","address":"元江元村","location":"114.030003,22.977975","transed_lng":114.02490785461293,"transed_lat":22.98062681362049,"cityname":"东莞市","adname":"东莞市"},{"id":"B030100A4B","name":"红山大厦","type":"商务住宅;住宅区;住宅小区","typecode":"120302","address":"红山路7号","location":"113.751563,23.026612","transed_lng":113.74636940744112,"transed_lat":23.02933200795788,"cityname":"东莞市","adname":"东莞市"},{"id":"B03017UYCH","name":"东成花园","type":"商务住宅;住宅区;住宅小区","typecode":"120302","address":"横沥瑞康路及彩霞路交界处","location":"113.969214,23.014172","transed_lng":113.96426278257775,"transed_lat":23.016984850561936,"cityname":"东莞市","adname":"东莞市"},{"id":"B030105LE0","name":"盈丰花园","type":"商务住宅;住宅区;住宅小区","typecode":"120302","address":"万江区水蛇涌","location":"113.711477,23.043534","transed_lng":113.70628877887899,"transed_lat":23.04627383437554,"cityname":"东莞市","adname":"东莞市"},{"id":"B030105ITO","name":"莲花苑","type":"商务住宅;住宅区;住宅小区","typecode":"120302","address":"长盛西路82号","location":"113.800112,22.808317","transed_lng":113.79500955863719,"transed_lat":22.811169902410963,"cityname":"东莞市","adname":"东莞市"},{"id":"B030101OJB","name":"宝湖山庄","type":"商务住宅;住宅区;住宅小区","typecode":"120302","address":"黄江镇田美社区","location":"114.026727,22.906425","transed_lng":114.02164371718254,"transed_lat":22.9091160065255,"cityname":"东莞市","adname":"东莞市"},{"id":"B03017WJPP","name":"东江豪门","type":"商务住宅;住宅区;住宅小区","typecode":"120302","address":"东江大道企石新兴路与黄大仙路交界处","location":"114.010783,23.079367","transed_lng":114.00572625051352,"transed_lat":23.08202997188373,"cityname":"东莞市","adname":"东莞市"},{"id":"B03017UXU4","name":"锦江花园","type":"商务住宅;住宅区;住宅小区","typecode":"120302","address":"长安镇河东二路71号","location":"113.80245,22.794572","transed_lng":113.7973540323438,"transed_lat":22.797433523762834,"cityname":"东莞市","adname":"东莞市"},{"id":"B03017UNM3","name":"新世纪领居C区","type":"商务住宅;住宅区;住宅小区","typecode":"120302","address":"金印路","location":"113.83072,22.906236","transed_lng":113.82569058743769,"transed_lat":22.909106101238766,"cityname":"东莞市","adname":"东莞市"},{"id":"B03017WDPK","name":"丰泰观山碧水","type":"商务住宅;住宅区;住宅小区","typecode":"120302","address":"厚街镇横岗水库侧","location":"113.72098,22.90958","transed_lng":113.71579361609567,"transed_lat":22.91236579462904,"cityname":"东莞市","adname":"东莞市"},{"id":"B0301009F9","name":"黄金花园(元美路)","type":"商务住宅;住宅区;住宅小区","typecode":"120302","address":"元美路24号","location":"113.744399,23.00782","transed_lng":113.7392031022102,"transed_lat":23.010548735483656,"cityname":"东莞市","adname":"东莞市"},{"id":"B03018IQHU","name":"天骄峰景(石井支路)","type":"商务住宅;住宅区;住宅小区","typecode":"120302","address":"石井支路","location":"113.80212,23.017227","transed_lng":113.79700865394388,"transed_lat":23.019997813658176,"cityname":"东莞市","adname":"东莞市"},{"id":"B03017W057","name":"虎门国际公馆","type":"商务住宅;住宅区;住宅小区","typecode":"120302","address":"虎门镇白沙(虎门镇标往厚街方向300米)","location":"113.675677,22.848612","transed_lng":113.67054822710556,"transed_lat":22.851494116346444,"cityname":"东莞市","adname":"东莞市"},{"id":"B03018I5XT","name":"花园新村(市场路)","type":"商务住宅;住宅区;住宅小区","typecode":"120302","address":"花园路133号","location":"113.758937,23.049941","transed_lng":113.75374776869153,"transed_lat":23.05265237805784,"cityname":"东莞市","adname":"东莞市"},{"id":"B03017U2X6","name":"龙福花园(康佳路)","type":"商务住宅;住宅区;住宅小区","typecode":"120302","address":"凤岗镇凤深大道","location":"114.151102,22.739241","transed_lng":114.14605927822788,"transed_lat":22.74193740387894,"cityname":"东莞市","adname":"东莞市"},{"id":"B03017V7NS","name":"精英世家","type":"商务住宅;住宅区;住宅小区","typecode":"120302","address":"港口大道精英世家附近","location":"113.722165,23.019429","transed_lng":113.7169706873392,"transed_lat":23.022166645038688,"cityname":"东莞市","adname":"东莞市"},{"id":"B03017UXKL","name":"沙田东港城","type":"商务住宅;住宅区;住宅小区","typecode":"120302","address":"兴隆西路6号","location":"113.617728,22.904956","transed_lng":113.61266616398044,"transed_lat":22.9079060264729,"cityname":"东莞市","adname":"东莞市"},{"id":"B03018J70R","name":"锦绣半山","type":"商务住宅;住宅区;住宅小区","typecode":"120302","address":"虎门大道与连升路交汇处西北200米","location":"113.680105,22.822443","transed_lng":113.67497112612841,"transed_lat":22.82532655780784,"cityname":"东莞市","adname":"东莞市"},{"id":"B03017WBW0","name":"怡和园(创兴二路)","type":"商务住宅;住宅区;住宅小区","typecode":"120302","address":"虎门镇虎门大道26号","location":"113.582282,23.046915","transed_lng":113.57719992708438,"transed_lat":23.04980737830484,"cityname":"东莞市","adname":"东莞市"},{"id":"B030100ONY","name":"东安花园","type":"商务住宅;住宅区;住宅小区","typecode":"120302","address":"东昇路与英湖路交叉口","location":"113.810473,23.020806","transed_lng":113.80538221250175,"transed_lat":23.02358954507033,"cityname":"东莞市","adname":"东莞市"},{"id":"B03017UXWR","name":"蓝山锦湾","type":"商务住宅;住宅区;住宅小区","typecode":"120302","address":"凤岗镇雁田祥新东路38号","location":"114.17791,22.703391","transed_lng":114.17294141481764,"transed_lat":22.70614703557617,"cityname":"东莞市","adname":"东莞市"},{"id":"B03018N937","name":"莲丰花园","type":"商务住宅;住宅区;住宅小区","typecode":"120302","address":"万江总站义乌小商品城后面","location":"113.711451,23.028878","transed_lng":113.70626377374138,"transed_lat":23.03162418191267,"cityname":"东莞市","adname":"东莞市"},{"id":"B03017U5F5","name":"名门世家(美丰路)","type":"商务住宅;住宅区;住宅小区","typecode":"120302","address":"三元里三元路段报业大","location":"113.742698,23.007513","transed_lng":113.7375015958366,"transed_lat":23.010242297232917,"cityname":"东莞市","adname":"东莞市"},{"id":"B030100A45","name":"戴屋庄","type":"商务住宅;住宅区;住宅小区","typecode":"120302","address":"塘头新村一巷","location":"113.750407,23.037322","transed_lng":113.74521197719041,"transed_lat":23.040037354600265,"cityname":"东莞市","adname":"东莞市"},{"id":"B03017UJKX","name":"金牛花园","type":"商务住宅;住宅区;住宅小区","typecode":"120302","address":"莞城金牛路18号","location":"113.752052,23.037375","transed_lng":113.74685801435469,"transed_lat":23.04009039622815,"cityname":"东莞市","adname":"东莞市"},{"id":"B03017W6IR","name":"天龙居(翠樱街)","type":"商务住宅;住宅区;住宅小区","typecode":"120302","address":"樟木头丽城大道景城花园内","location":"114.068483,22.895048","transed_lng":114.06333600571219,"transed_lat":22.897655683568846,"cityname":"东莞市","adname":"东莞市"},{"id":"B03017VAR1","name":"翠亨豪园","type":"商务住宅;住宅区;住宅小区","typecode":"120302","address":"黄江富海大道与东江路交汇处","location":"113.998276,22.906305","transed_lng":113.99326217335216,"transed_lat":22.909079728890788,"cityname":"东莞市","adname":"东莞市"},{"id":"B030101OXS","name":"步步高小区","type":"商务住宅;住宅区;住宅小区","typecode":"120302","address":"万兴路与万园路交叉口西北100米","location":"113.767891,23.045111","transed_lng":113.76271228373201,"transed_lat":23.047828890429987,"cityname":"东莞市","adname":"东莞市"},{"id":"B03018IJ5Z","name":"新围","type":"商务住宅;住宅区;住宅小区","typecode":"120302","address":"新围一巷与新安西路交叉口西北150米","location":"113.706679,22.771116","transed_lng":113.70151337138596,"transed_lat":22.77397192541002,"cityname":"东莞市","adname":"东莞市"},{"id":"B03017U9DP","name":"庆峰花园(学前路新街)","type":"商务住宅;住宅区;住宅小区","typecode":"120302","address":"温塘庆华路40号","location":"113.802038,23.03434","transed_lng":113.796925330513,"transed_lat":23.03710328925987,"cityname":"东莞市","adname":"东莞市"},{"id":"B03017W4OD","name":"东田丽园","type":"商务住宅;住宅区;住宅小区","typecode":"120302","address":"常平镇常东路与南城路交叉口","location":"114.014208,22.962872","transed_lng":114.00915042461332,"transed_lat":22.965574917141826,"cityname":"东莞市","adname":"东莞市"},{"id":"B03010095F","name":"文明商业城","type":"商务住宅;住宅区;住宅小区","typecode":"120302","address":"桥头镇工业路","location":"114.095459,23.023245","transed_lng":114.09030199511818,"transed_lat":23.025778597113256,"cityname":"东莞市","adname":"东莞市"},{"id":"B03018I477","name":"聚龙阁","type":"商务住宅;住宅区;住宅小区","typecode":"120302","address":"塘厦人民医院对面","location":"114.082936,22.802804","transed_lng":114.07778992160151,"transed_lat":22.805432528807735,"cityname":"东莞市","adname":"东莞市"},{"id":"B030100VON","name":"银湖花园","type":"商务住宅;住宅区;住宅小区","typecode":"120302","address":"横西一路","location":"113.805446,23.030579","transed_lng":113.80034189867966,"transed_lat":23.033349592202313,"cityname":"东莞市","adname":"东莞市"},{"id":"B030103QCA","name":"景城花园(荔苑路)","type":"商务住宅;住宅区;住宅小区","typecode":"120302","address":"荔苑路6号","location":"114.079132,22.900766","transed_lng":114.0739798481635,"transed_lat":22.903359748878668,"cityname":"东莞市","adname":"东莞市"},{"id":"B03018IOD3","name":"南坊","type":"商务住宅;住宅区;住宅小区","typecode":"120302","address":"凤阳路19号","location":"113.716715,22.83412","transed_lng":113.71153636949649,"transed_lat":22.83694046206488,"cityname":"东莞市","adname":"东莞市"},{"id":"B03018I61T","name":"景湖春晓","type":"商务住宅;住宅区;住宅小区","typecode":"120302","address":"长泰路与东骏路交汇处西南角","location":"113.75865,22.995733","transed_lng":113.75346409087261,"transed_lat":22.998467679924197,"cityname":"东莞市","adname":"东莞市"},{"id":"B0301020WD","name":"平苑","type":"商务住宅;住宅区;住宅小区","typecode":"120302","address":"虎门镇连升路606号","location":"113.68369,22.821956","transed_lng":113.67855075622084,"transed_lat":22.824833033823353,"cityname":"东莞市","adname":"东莞市"},{"id":"B03017WJ52","name":"阳光粤港","type":"商务住宅;住宅区;住宅小区","typecode":"120302","address":"中山东路66号","location":"113.988671,23.001404","transed_lng":113.9836751895882,"transed_lat":23.004167154307268,"cityname":"东莞市","adname":"东莞市"},{"id":"B03017U39X","name":"河畔新苑","type":"商务住宅;住宅区;住宅小区","typecode":"120302","address":"宏远中心","location":"113.722833,23.01261","transed_lng":113.71763878988223,"transed_lat":23.015349924287634,"cityname":"东莞市","adname":"东莞市"},{"id":"B03017VAR0","name":"翠景湾","type":"商务住宅;住宅区;住宅小区","typecode":"120302","address":"常平沿河东一路1号","location":"113.985725,22.975889","transed_lng":113.98073812463524,"transed_lat":22.978671915148198,"cityname":"东莞市","adname":"东莞市"},{"id":"B03018I5DM","name":"运河城","type":"商务住宅;住宅区;住宅小区","typecode":"120302","address":"运河西三路33号","location":"113.741633,23.036496","transed_lng":113.73643440398914,"transed_lat":23.03921310147899,"cityname":"东莞市","adname":"东莞市"},{"id":"B03017VYBM","name":"南山豪苑","type":"商务住宅;住宅区;住宅小区","typecode":"120302","address":"桥南路105号","location":"113.671768,22.910596","transed_lng":113.66664125956697,"transed_lat":22.913460751162027,"cityname":"东莞市","adname":"东莞市"},{"id":"B03018I53X","name":"天景花园","type":"商务住宅;住宅区;住宅小区","typecode":"120302","address":"石排镇石排大道","location":"113.942665,23.08534","transed_lng":113.93775440565491,"transed_lat":23.08818209103419,"cityname":"东莞市","adname":"东莞市"},{"id":"B03017UNA8","name":"碧月湾花园","type":"商务住宅;住宅区;住宅小区","typecode":"120302","address":"聚富路79号","location":"114.155845,22.831913","transed_lng":114.15080853003948,"transed_lat":22.834586417112693,"cityname":"东莞市","adname":"东莞市"},{"id":"B03017WJPG","name":"香樟国际","type":"商务住宅;住宅区;住宅小区","typecode":"120302","address":"樟木头南城大道花园酒店斜对面","location":"114.063976,22.901328","transed_lng":114.05883220930767,"transed_lat":22.90393950114875,"cityname":"东莞市","adname":"东莞市"},{"id":"B03017UQX7","name":"太平花园","type":"商务住宅;住宅区;住宅小区","typecode":"120302","address":"百达大道","location":"113.699205,22.821101","transed_lng":113.69404454218727,"transed_lat":22.82395112544853,"cityname":"东莞市","adname":"东莞市"},{"id":"B03017UXTL","name":"健逸天地","type":"商务住宅;住宅区;住宅小区","typecode":"120302","address":"长安镇横岗头村横增路","location":"113.78782,22.80663","transed_lng":113.7826906185509,"transed_lat":22.809465613446868,"cityname":"东莞市","adname":"东莞市"},{"id":"B030103RH4","name":"骏景高尔夫花园东区","type":"商务住宅;住宅区;住宅小区","typecode":"120302","address":"塘厦镇高尔夫大道南","location":"114.082816,22.751083","transed_lng":114.07767332679482,"transed_lat":22.75372876468889,"cityname":"东莞市","adname":"东莞市"},{"id":"B03017U07U","name":"万辉花园","type":"商务住宅;住宅区;住宅小区","typecode":"120302","address":"樟木头镇百果洞先威大道万辉花园","location":"114.050323,22.906856","transed_lng":114.04519522643409,"transed_lat":22.909489628602717,"cityname":"东莞市","adname":"东莞市"},{"id":"B03018I4IS","name":"新世纪上河居","type":"商务住宅;住宅区;住宅小区","typecode":"120302","address":"厚街镇(厚街水道边)","location":"113.646139,22.951465","transed_lng":113.64104766396379,"transed_lat":22.954359238172547,"cityname":"东莞市","adname":"东莞市"},{"id":"B03017UY9A","name":"天骄御峰花园","type":"商务住宅;住宅区;住宅小区","typecode":"120302","address":"金树路与鸿福东路交汇处","location":"113.768661,23.008779","transed_lng":113.76348571781121,"transed_lat":23.011513087035574,"cityname":"东莞市","adname":"东莞市"},{"id":"B03017UMCA","name":"锦园小区","type":"商务住宅;住宅区;住宅小区","typecode":"120302","address":"良平西路141号","location":"113.832363,23.008437","transed_lng":113.8273313764867,"transed_lat":23.0112666385544,"cityname":"东莞市","adname":"东莞市"},{"id":"B030101Y75","name":"浪琴花园","type":"商务住宅;住宅区;住宅小区","typecode":"120302","address":"梅观高速大坪出口大屏嶂森林公园内(观澜高尔夫球会旁)","location":"114.018788,22.781401","transed_lng":114.0137312029581,"transed_lat":22.784161772232906,"cityname":"东莞市","adname":"东莞市"},{"id":"B03017W42X","name":"帝雍园","type":"商务住宅;住宅区;住宅小区","typecode":"120302","address":"樟木头镇柏地帝豪路","location":"114.080526,22.916002","transed_lng":114.07537261585631,"transed_lat":22.918588297520294,"cityname":"东莞市","adname":"东莞市"},{"id":"B03017UY9P","name":"现代经典花园","type":"商务住宅;住宅区;住宅小区","typecode":"120302","address":"西平宏伟路39号","location":"113.746093,22.985411","transed_lng":113.74089923284737,"transed_lat":22.988149106013005,"cityname":"东莞市","adname":"东莞市"},{"id":"B03017TTHL","name":"新世纪博客公寓","type":"商务住宅;住宅区;住宅小区","typecode":"120302","address":"鸿福路和东莞大道交汇处","location":"113.764531,23.009487","transed_lng":113.759350438632,"transed_lat":23.012218253345576,"cityname":"东莞市","adname":"东莞市"},{"id":"B030101XRN","name":"凯达华庭","type":"商务住宅;住宅区;住宅小区","typecode":"120302","address":"桥头镇碧莲路2号","location":"114.106272,23.019844","transed_lng":114.10112436772275,"transed_lat":23.022380345202603,"cityname":"东莞市","adname":"东莞市"},{"id":"B03017ULVD","name":"高尔夫公寓","type":"商务住宅;住宅区;住宅小区","typecode":"120302","address":"横中八路附近","location":"113.818472,23.012667","transed_lng":113.81340266743248,"transed_lat":23.01546862166113,"cityname":"东莞市","adname":"东莞市"},{"id":"B03017UAL5","name":"草塘小区(南门路)","type":"商务住宅;住宅区;住宅小区","typecode":"120302","address":"南城路(莞城中心金牛路比较靠近人民公园正门)","location":"113.755991,23.036953","transed_lng":113.75079999673055,"transed_lat":23.039669149723466,"cityname":"东莞市","adname":"东莞市"},{"id":"B03017VB5N","name":"香榭丽公寓","type":"商务住宅;住宅区;住宅小区","typecode":"120302","address":"厚街镇体育路","location":"113.670115,22.944268","transed_lng":113.66498863679175,"transed_lat":22.947121759817996,"cityname":"东莞市","adname":"东莞市"},{"id":"B03018IE7O","name":"宜家花园(德政中路)","type":"商务住宅;住宅区;住宅小区","typecode":"120302","address":"长安镇德政中路82号","location":"113.811804,22.815379","transed_lng":113.80673006387687,"transed_lat":22.81824926565335,"cityname":"东莞市","adname":"东莞市"},{"id":"B0FFI6KS0N","name":"恒大滨江左岸(建设中)","type":"商务住宅;住宅区;住宅小区","typecode":"120302","address":"平乐路西100米","location":"113.562041,23.005301","transed_lng":113.55692930771085,"transed_lat":23.008188184244638,"cityname":"东莞市","adname":"东莞市"},{"id":"B03018J34L","name":"丰泰橡树溪谷","type":"商务住宅;住宅区;住宅小区","typecode":"120302","address":"观音山麓樟深路(雍景花园旁)","location":"114.09071,22.885329","transed_lng":114.08555985537944,"transed_lat":22.887922200991504,"cityname":"东莞市","adname":"东莞市"},{"id":"B03018J4UW","name":"金桂华府","type":"商务住宅;住宅区;住宅小区","typecode":"120302","address":"龙平西路","location":"114.151358,22.713132","transed_lng":114.14631762986647,"transed_lat":22.71583629143491,"cityname":"东莞市","adname":"东莞市"},{"id":"B03017WCI3","name":"月畔湾","type":"商务住宅;住宅区;住宅小区","typecode":"120302","address":"厚街厚街涌口富民路","location":"113.639066,22.928437","transed_lng":113.63398492835732,"transed_lat":22.93135212565695,"cityname":"东莞市","adname":"东莞市"},{"id":"B030101XAO","name":"金洲1区","type":"商务住宅;住宅区;住宅小区","typecode":"120302","address":"虎门镇太沙路","location":"113.682205,22.806523","transed_lng":113.67706898846608,"transed_lat":22.809408369573177,"cityname":"东莞市","adname":"东莞市"},{"id":"B03017WC8E","name":"汇景凯伦花园","type":"商务住宅;住宅区;住宅小区","typecode":"120302","address":"厚街大道","location":"113.657995,22.953719","transed_lng":113.65288671024953,"transed_lat":22.95659152306781,"cityname":"东莞市","adname":"东莞市"},{"id":"B03017W98B","name":"金洲2区","type":"商务住宅;住宅区;住宅小区","typecode":"120302","address":"虎门镇太沙路","location":"113.68245,22.804611","transed_lng":113.67731374535433,"transed_lat":22.807496590307306,"cityname":"东莞市","adname":"东莞市"},{"id":"B03017V5PU","name":"锦绣旗峰","type":"商务住宅;住宅区;住宅小区","typecode":"120302","address":"东城鸿福路与新源路交汇处","location":"113.773506,23.002615","transed_lng":113.76833811531075,"transed_lat":23.00535548736239,"cityname":"东莞市","adname":"东莞市"},{"id":"B03017VWDZ","name":"月荷居","type":"商务住宅;住宅区;住宅小区","typecode":"120302","address":"松山湖北部科技园工业北路","location":"113.897096,22.962881","transed_lng":113.89220016298896,"transed_lat":22.965812213216875,"cityname":"东莞市","adname":"东莞市"},{"id":"B03018J6ZK","name":"佳兆业·水岸豪门","type":"商务住宅;住宅区;住宅小区","typecode":"120302","address":"凤岗镇雁田村凤深大道与龙平路交界处","location":"114.165846,22.704348","transed_lng":114.16084457097956,"transed_lat":22.707080984463175,"cityname":"东莞市","adname":"东莞市"},{"id":"B03017WMCB","name":"和堂","type":"商务住宅;住宅区;住宅小区","typecode":"120302","address":"松山湖东莞市松山湖新竹路","location":"113.889699,22.934925","transed_lng":113.88479686566397,"transed_lat":22.937865445699625,"cityname":"东莞市","adname":"东莞市"},{"id":"B03017TXNK","name":"三元大厦(住宅)","type":"商务住宅;住宅区;住宅小区","typecode":"120302","address":"南城东莞市南城行政中心区莞太路鸿福路口","location":"113.739984,23.011461","transed_lng":113.73478674315224,"transed_lat":23.014189498876494,"cityname":"东莞市","adname":"东莞市"},{"id":"B030101S2U","name":"富民大厦","type":"商务住宅;住宅区;住宅小区","typecode":"120302","address":"银山街附近","location":"113.779885,23.037430","transed_lng":113.77472535523457,"transed_lat":23.04016156830622,"cityname":"东莞市","adname":"东莞市"},{"id":"B03017UYAM","name":"丰盛名苑","type":"商务住宅;住宅区;住宅小区","typecode":"120302","address":"三元里中央生活区科技大道南城汽车总站","location":"113.721219,22.986171","transed_lng":113.7160274140585,"transed_lat":22.98892399843547,"cityname":"东莞市","adname":"东莞市"},{"id":"B03017UYR8","name":"南峰玫瑰园","type":"商务住宅;住宅区;住宅小区","typecode":"120302","address":"黄江镇中心西进路与富海大道交汇处","location":"114.001584,22.914831","transed_lng":113.99656121390393,"transed_lat":22.917592159282474,"cityname":"东莞市","adname":"东莞市"},{"id":"B03017VXHO","name":"东方银座·中心城","type":"商务住宅;住宅区;住宅小区","typecode":"120302","address":"大朗美景东路和莞樟路交汇处","location":"113.954049,22.942789","transed_lng":113.94913127015506,"transed_lat":22.94566954262424,"cityname":"东莞市","adname":"东莞市"},{"id":"B03017WCFF","name":"新世纪丽江豪园","type":"商务住宅;住宅区;住宅小区","typecode":"120302","address":"茶山镇莞龙路京山路段","location":"113.844458,23.0906","transed_lng":113.83945325262533,"transed_lat":23.09341683475578,"cityname":"东莞市","adname":"东莞市"},{"id":"B03017UW1G","name":"塘盛花园","type":"商务住宅;住宅区;住宅小区","typecode":"120302","address":"花园新街北8号","location":"114.099552,22.819429","transed_lng":114.09441129892396,"transed_lat":22.822046461138846,"cityname":"东莞市","adname":"东莞市"},{"id":"B03018JHFB","name":"酒店公寓","type":"商务住宅;住宅区;住宅小区","typecode":"120302","address":"塘厦镇大坪林坪路","location":"114.009858,22.780290","transed_lng":114.00482309373383,"transed_lat":22.78307744650241,"cityname":"东莞市","adname":"东莞市"},{"id":"B030101X6K","name":"金湾花园","type":"商务住宅;住宅区;住宅小区","typecode":"120302","address":"虎门海景路木棉岛1号","location":"113.668954,22.77713","transed_lng":113.66384038177445,"transed_lat":22.780050627984597,"cityname":"东莞市","adname":"东莞市"},{"id":"B03017U2DX","name":"四村公寓","type":"商务住宅;住宅区;住宅小区","typecode":"120302","address":"塘厦镇四村","location":"114.077325,22.80442","transed_lng":114.07217963620674,"transed_lat":22.807052484507082,"cityname":"东莞市","adname":"东莞市"},{"id":"B03017WCKL","name":"粤港花园","type":"商务住宅;住宅区;住宅小区","typecode":"120302","address":"沙田镇沙太路","location":"113.620751,22.907864","transed_lng":113.6156874157531,"transed_lat":22.910810181511756,"cityname":"东莞市","adname":"东莞市"},{"id":"B03017UW0Y","name":"爱都花园","type":"商务住宅;住宅区;住宅小区","typecode":"120302","address":"樟木头樟木头新都会酒店旁","location":"114.064677,22.908098","transed_lng":114.05953213866883,"transed_lat":22.910705657434807,"cityname":"东莞市","adname":"东莞市"},{"id":"B03017UW19","name":"龙都花园(永隆街)","type":"商务住宅;住宅区;住宅小区","typecode":"120302","address":"樟木头樟木头永龙街龙都花园","location":"114.062672,22.907556","transed_lng":114.05752901646329,"transed_lat":22.91016694128765,"cityname":"东莞市","adname":"东莞市"},{"id":"B030100A7D","name":"叫尾村","type":"地名地址信息;普通地名;村庄级地名|商务住宅;住宅区;住宅小区","typecode":"190108|120302","address":"叫尾新街1巷3号","location":"113.779478,23.053285","transed_lng":113.77431658945697,"transed_lat":23.05600932821251,"cityname":"东莞市","adname":"东莞市"},{"id":"B03017WJP8","name":"丹缇轩","type":"商务住宅;住宅区;住宅小区","typecode":"120302","address":"新阳路中2号","location":"114.09872,22.845405","transed_lng":114.09357694961072,"transed_lat":22.848012710853645,"cityname":"东莞市","adname":"东莞市"},{"id":"B03017WLYR","name":"塞纳城市嘉园","type":"商务住宅;住宅区;住宅小区","typecode":"120302","address":"南城鸿福路68号(家福特旁)","location":"113.734545,23.017333","transed_lng":113.72934708242519,"transed_lat":23.020061605000134,"cityname":"东莞市","adname":"东莞市"},{"id":"B03017VSRH","name":"中信·御园","type":"商务住宅;住宅区;住宅小区","typecode":"120302","address":"迎宾路与石井大道交汇处","location":"113.794029,23.015636","transed_lng":113.7888990507665,"transed_lat":23.01839494381793,"cityname":"东莞市","adname":"东莞市"},{"id":"B03017VBCC","name":"丰泰东海城堡","type":"商务住宅;住宅区;住宅小区","typecode":"120302","address":"虎门镇高科一路","location":"113.702108,22.857753","transed_lng":113.69694168330125,"transed_lat":22.860584635677824,"cityname":"东莞市","adname":"东莞市"},{"id":"B030100821","name":"明珠花园(中兴路)","type":"商务住宅;住宅区;住宅小区","typecode":"120302","address":"康乐北路1号","location":"113.67174,22.946713","transed_lng":113.6666109342693,"transed_lat":22.949562617947276,"cityname":"东莞市","adname":"东莞市"},{"id":"B03017UY9N","name":"龙泉豪苑","type":"商务住宅;住宅区;住宅小区","typecode":"120302","address":"连升中路(龙泉国际酒店南侧)","location":"113.689181,22.806346","transed_lng":113.68403479438044,"transed_lat":22.809218641929743,"cityname":"东莞市","adname":"东莞市"},{"id":"B03018IRZT","name":"和谐家园(卫生路)","type":"商务住宅;住宅区;住宅小区","typecode":"120302","address":"茶山镇中心城区茶山南路38号","location":"113.871083,23.061673","transed_lng":113.8661423312451,"transed_lat":23.064542816974274,"cityname":"东莞市","adname":"东莞市"},{"id":"B030105HET","name":"富兴苑(荣文路)","type":"商务住宅;住宅区;住宅小区","typecode":"120302","address":"荣文路535号","location":"113.796868,22.796442","transed_lng":113.79175880662024,"transed_lat":22.799294016181783,"cityname":"东莞市","adname":"东莞市"},{"id":"B030100DG2","name":"华南花园","type":"商务住宅;住宅区;住宅小区","typecode":"120302","address":"石龙镇滨江西路1号","location":"113.847879,23.10292","transed_lng":113.84288228511677,"transed_lat":23.105737744932515,"cityname":"东莞市","adname":"东莞市"},{"id":"B030105LDF","name":"文华花园(文华路)","type":"商务住宅;住宅区;住宅小区","typecode":"120302","address":"文华路与红荔路交叉口东北150米","location":"113.765632,23.05866","transed_lng":113.76044950712144,"transed_lat":23.061370689871246,"cityname":"东莞市","adname":"东莞市"},{"id":"B0301009BF","name":"宏达花园","type":"商务住宅;住宅区;住宅小区","typecode":"120302","address":"东福商业街326号","location":"113.719355,23.064807","transed_lng":113.71415932153238,"transed_lat":23.067528120128742,"cityname":"东莞市","adname":"东莞市"},{"id":"B03017UY9C","name":"博美雅居","type":"商务住宅;住宅区;住宅小区","typecode":"120302","address":"虎门镇人民北路客运总站斜对面","location":"113.680984,22.844064","transed_lng":113.67584737502938,"transed_lat":22.84693781528959,"cityname":"东莞市","adname":"东莞市"},{"id":"B03017WKQD","name":"明华苑","type":"商务住宅;住宅区;住宅小区","typecode":"120302","address":"四环路新城市中心旁","location":"113.758288,23.001406","transed_lng":113.75310137631321,"transed_lat":23.004138112897383,"cityname":"东莞市","adname":"东莞市"},{"id":"B03017WL2N","name":"又一居","type":"商务住宅;住宅区;住宅小区","typecode":"120302","address":"东城东莞市东城东泰107国道与东莞大道交汇处","location":"113.756579,23.00335","transed_lng":113.75139072199919,"transed_lat":23.006080803490192,"cityname":"东莞市","adname":"东莞市"},{"id":"B03017UNIS","name":"东逸翠苑","type":"商务住宅;住宅区;住宅小区","typecode":"120302","address":"厚街镇康乐南路新城88商业街","location":"113.659843,22.921198","transed_lng":113.65473405154262,"transed_lat":22.924080875643263,"cityname":"东莞市","adname":"东莞市"},{"id":"B03017UREN","name":"隆福花园","type":"商务住宅;住宅区;住宅小区","typecode":"120302","address":"塘厦镇塘兴路","location":"114.07915,22.807396","transed_lng":114.07400400655753,"transed_lat":22.81002579968352,"cityname":"东莞市","adname":"东莞市"},{"id":"B03017UBZP","name":"袁屋边公寓","type":"商务住宅;住宅区;住宅小区","typecode":"120302","address":"袁屋边社区隐山路","location":"113.719778,22.987177","transed_lng":113.71458720453788,"transed_lat":22.98993110009946,"cityname":"东莞市","adname":"东莞市"},{"id":"B03017UYCM","name":"生活会馆公寓","type":"商务住宅;住宅区;住宅小区","typecode":"120302","address":"振兴西路附近","location":"113.974021,23.017288","transed_lng":113.96905905131437,"transed_lat":23.02008650617611,"cityname":"东莞市","adname":"东莞市"},{"id":"B030101XU0","name":"康湖山庄行政大楼","type":"商务住宅;楼宇;商务写字楼|商务住宅;住宅区;住宅小区","typecode":"120201|120302","address":"黄江康湖大道","location":"114.036368,22.918798","transed_lng":114.0312636402434,"transed_lat":22.92145854490026,"cityname":"东莞市","adname":"东莞市"},{"id":"B03018J4M3","name":"富美楼A座","type":"商务住宅;住宅区;住宅小区","typecode":"120302","address":"万高路与黄昌街交叉口东北100米","location":"113.728217,23.055869","transed_lng":113.72301770283914,"transed_lat":23.058585438947492,"cityname":"东莞市","adname":"东莞市"},{"id":"B03018I476","name":"三正世纪新城","type":"商务住宅;住宅区;住宅小区","typecode":"120302","address":"塘厦镇清湖头","location":"114.080852,22.767704","transed_lng":114.07570835962193,"transed_lat":22.770345935858455,"cityname":"东莞市","adname":"东莞市"},{"id":"B03017UVXS","name":"金沙湾花园","type":"商务住宅;住宅区;住宅小区","typecode":"120302","address":"裕兴路","location":"113.870764,23.104376","transed_lng":113.86581993488774,"transed_lat":23.107227472027258,"cityname":"东莞市","adname":"东莞市"},{"id":"B03018J5F7","name":"富美楼B座","type":"商务住宅;住宅区;住宅小区","typecode":"120302","address":"万高路26号108附近","location":"113.728402,23.055695","transed_lng":113.72320265770627,"transed_lat":23.058411364061964,"cityname":"东莞市","adname":"东莞市"},{"id":"B03017W2Q5","name":"柏景豪庭","type":"商务住宅;住宅区;住宅小区","typecode":"120302","address":"虎门镇虎门大道与连升中路交汇处","location":"113.683849,22.820092","transed_lng":113.67870964170936,"transed_lat":22.822969421065398,"cityname":"东莞市","adname":"东莞市"},{"id":"B030101XGT","name":"精英名都","type":"商务住宅;住宅区;住宅小区","typecode":"120302","address":"南城东莞市南城区三元里南城汽车站旁","location":"113.722394,22.985425","transed_lng":113.71720181931614,"transed_lat":22.988177117055127,"cityname":"东莞市","adname":"东莞市"},{"id":"B03017WJ9B","name":"红荔花园","type":"商务住宅;住宅区;住宅小区","typecode":"120302","address":"江源路8号","location":"114.105902,22.807985","transed_lng":114.10076796661042,"transed_lat":22.810607857109535,"cityname":"东莞市","adname":"东莞市"},{"id":"B03018JHDJ","name":"金域半山","type":"商务住宅;住宅区;住宅小区","typecode":"120302","address":"塘厦镇迎宾大道旁康湖街","location":"114.074829,22.816104","transed_lng":114.06968371812123,"transed_lat":22.818734763645576,"cityname":"东莞市","adname":"东莞市"},{"id":"B030105ITJ","name":"莲花E区","type":"商务住宅;住宅区;住宅小区","typecode":"120302","address":"长青南路202号","location":"113.802861,22.805839","transed_lng":113.79776529012489,"transed_lat":22.808697250407022,"cityname":"东莞市","adname":"东莞市"},{"id":"B03018JB3B","name":"茗雅苑","type":"商务住宅;住宅区;住宅小区","typecode":"120302","address":"太平一路与振兴路交叉口南50米","location":"113.710224,23.043309","transed_lng":113.70503693794959,"transed_lat":23.046050622771627,"cityname":"东莞市","adname":"东莞市"},{"id":"B03017WMTK","name":"茗苑(澳南路)","type":"商务住宅;住宅区;住宅小区","typecode":"120302","address":"澳南路15号","location":"113.757766,23.031934","transed_lng":113.75257687340181,"transed_lat":23.034652762332424,"cityname":"东莞市","adname":"东莞市"},{"id":"B03017WMC9","name":"中天城市之门","type":"商务住宅;住宅区;住宅小区","typecode":"120302","address":"南城大龙路与莞太路交汇处东北角(莞太路水乡大道入口处)","location":"113.699231,22.974953","transed_lng":113.69406038157543,"transed_lat":22.977740652741133,"cityname":"东莞市","adname":"东莞市"},{"id":"B03017VU5O","name":"雍景家园","type":"商务住宅;住宅区;住宅小区","typecode":"120302","address":"洪梅黎洲角村","location":"113.615493,22.985494","transed_lng":113.61042684592682,"transed_lat":22.988411604359243,"cityname":"东莞市","adname":"东莞市"},{"id":"B03018I2GT","name":"中信东泰花园(东骏路)","type":"商务住宅;住宅区;住宅小区","typecode":"120302","address":"东莞市东城东泰东莞大道与四环路交界","location":"113.760564,22.998442","transed_lng":113.75537979248043,"transed_lat":23.00117618881944,"cityname":"东莞市","adname":"东莞市"},{"id":"B030101YOQ","name":"联益村","type":"商务住宅;住宅区;住宅小区","typecode":"120302","address":"鸿福西路希尔顿广场对面","location":"113.738236,23.019799","transed_lng":113.73303797080004,"transed_lat":23.022524624664896,"cityname":"东莞市","adname":"东莞市"},{"id":"B03018I55A","name":"中惠山畔名城(锦绣路)","type":"商务住宅;住宅区;住宅小区","typecode":"120302","address":"锦绣路122号","location":"113.799101,22.81648","transed_lng":113.7939956523094,"transed_lat":22.819328361167113,"cityname":"东莞市","adname":"东莞市"},{"id":"B03018PPJL","name":"市场楼","type":"商务住宅;住宅区;住宅小区","typecode":"120302","address":"火炼树","location":"113.765970,23.006560","transed_lng":113.76079137827666,"transed_lat":23.009293330542768,"cityname":"东莞市","adname":"东莞市"},{"id":"B030105LA7","name":"东江花园(东江大道)","type":"商务住宅;住宅区;住宅小区","typecode":"120302","address":"市地中心路41号附近","location":"113.759317,23.060116","transed_lng":113.75412745920865,"transed_lat":23.062823153246665,"cityname":"东莞市","adname":"东莞市"},{"id":"B03017UM3E","name":"翠湖花园","type":"商务住宅;住宅区;住宅小区","typecode":"120302","address":"寮步寮步镇横坑","location":"113.812724,23.026039","transed_lng":113.80763867493717,"transed_lat":23.02882430960424,"cityname":"东莞市","adname":"东莞市"},{"id":"B03017UY81","name":"学府1号","type":"商务住宅;住宅区;住宅小区","typecode":"120302","address":"莞城堑头汉塘街一巷与堑头汉塘街交汇处西北角200米","location":"113.77073,23.053974","transed_lng":113.76555459833466,"transed_lat":23.0566901015578,"cityname":"东莞市","adname":"东莞市"},{"id":"B03017UMYU","name":"香缤城市花园","type":"商务住宅;住宅区;住宅小区","typecode":"120302","address":"寮步东莞市寮步镇政府旁-寮步镇香市路与石大路交","location":"113.875736,22.994706","transed_lng":113.87080847594471,"transed_lat":22.99760986765282,"cityname":"东莞市","adname":"东莞市"},{"id":"B03018NTKV","name":"工业园生活区","type":"商务住宅;住宅区;住宅小区","typecode":"120302","address":"芦溪二路36号附近","location":"113.906773,23.003339","transed_lng":113.90188136865387,"transed_lat":23.006252722409453,"cityname":"东莞市","adname":"东莞市"},{"id":"B03017UNWY","name":"帝豪花园","type":"商务住宅;住宅区;住宅小区","typecode":"120302","address":"樟木头镇百果洞社区","location":"114.047042,22.906112","transed_lng":114.04191934106481,"transed_lat":22.908752851397782,"cityname":"东莞市","adname":"东莞市"},{"id":"B03017UM6U","name":"卓越·蔚蓝城邦","type":"商务住宅;住宅区;住宅小区","typecode":"120302","address":"常平常平东莞东火车站对面500米(常平镇环城路与十三号公路交汇处)","location":"114.042825,22.958939","transed_lng":114.0377059552571,"transed_lat":22.961567005133553,"cityname":"东莞市","adname":"东莞市"},{"id":"B03017UY80","name":"时代广场","type":"商务住宅;住宅区;住宅小区","typecode":"120302","address":"麻涌镇麻涌镇政府对面文化广场侧","location":"113.580738,23.054108","transed_lng":113.5756536583301,"transed_lat":23.056996169044314,"cityname":"东莞市","adname":"东莞市"},{"id":"B03018N39L","name":"白沙社区","type":"地名地址信息;普通地名;村庄级地名|商务住宅;住宅区;住宅小区","typecode":"190108|120302","address":"虎门镇白沙中心南路虎门白沙医院附近","location":"113.665609,22.853238","transed_lng":113.66049562843467,"transed_lat":22.856137516990334,"cityname":"东莞市","adname":"东莞市"},{"id":"B03018OB7D","name":"君悦·蓝庭","type":"商务住宅;住宅区;住宅小区","typecode":"120302","address":"黄江镇宝灵二街13号","location":"114.009086,22.915148","transed_lng":114.00404424327205,"transed_lat":22.917886374893243,"cityname":"东莞市","adname":"东莞市"},{"id":"B03017WG53","name":"蔡屋新村","type":"商务住宅;住宅区;住宅小区","typecode":"120302","address":"长安镇乌沙村","location":"113.789368,22.79388","transed_lng":113.78424262597584,"transed_lat":22.796722127618114,"cityname":"东莞市","adname":"东莞市"},{"id":"B030103UP9","name":"丽景花园(丽景路)","type":"商务住宅;住宅区;住宅小区","typecode":"120302","address":"丽景路2号","location":"114.1,22.824212","transed_lng":114.09485934017773,"transed_lat":22.82682773905275,"cityname":"东莞市","adname":"东莞市"},{"id":"B03017U5BS","name":"官桥滘","type":"商务住宅;住宅区;住宅小区","typecode":"120302","address":"坝新路","location":"113.712429,23.015086","transed_lng":113.70724182742289,"transed_lat":23.017836849520542,"cityname":"东莞市","adname":"东莞市"},{"id":"B03017U933","name":"世纪楼","type":"商务住宅;住宅区;住宅小区","typecode":"120302","address":"绿化横巷3号","location":"113.791120,23.061810","transed_lng":113.78598069283248,"transed_lat":23.06454493779793,"cityname":"东莞市","adname":"东莞市"},{"id":"B03017WJP9","name":"鼎峰·尚境","type":"商务住宅;住宅区;住宅小区","typecode":"120302","address":"寮步横坑村","location":"113.809452,23.019219","transed_lng":113.80435870848761,"transed_lat":23.022001427177393,"cityname":"东莞市","adname":"东莞市"},{"id":"B03018I2DU","name":"聚豪华庭","type":"商务住宅;住宅区;住宅小区","typecode":"120302","address":"广电路与裕兴路交叉口东北100米","location":"113.871994,23.105632","transed_lng":113.86705227244659,"transed_lat":23.10848440444514,"cityname":"东莞市","adname":"东莞市"},{"id":"B030101TMK","name":"豪岗村","type":"商务住宅;住宅区;住宅小区","typecode":"120302","address":"豪岗宏远时代广场西(莞太路西)","location":"113.744120,23.028246","transed_lng":113.73892265215936,"transed_lat":23.030965968912792,"cityname":"东莞市","adname":"东莞市"},{"id":"B03017UOR5","name":"丽城花园","type":"商务住宅;住宅区;住宅小区","typecode":"120302","address":"东升镇常马路","location":"114.022374,22.979561","transed_lng":114.01729581423918,"transed_lat":22.982233112506357,"cityname":"东莞市","adname":"东莞市"},{"id":"B0FFFDEPQC","name":"竹园新村","type":"商务住宅;住宅区;住宅小区","typecode":"120302","address":"谢岗镇大厚管理区","location":"114.176959,22.954460","transed_lng":114.1719715729118,"transed_lat":22.957123169441278,"cityname":"东莞市","adname":"东莞市"},{"id":"B03017WAHK","name":"长埔村","type":"商务住宅;住宅区;住宅小区","typecode":"120302","address":"塘厦大道南附近","location":"114.105736,22.79343","transed_lng":114.10060274636943,"transed_lat":22.796057914517622,"cityname":"东莞市","adname":"东莞市"},{"id":"B03018I4IX","name":"碧桂苑(富民路)","type":"商务住宅;住宅区;住宅小区","typecode":"120302","address":"富民路附近","location":"113.640140,22.926250","transed_lng":113.63505781660939,"transed_lat":22.92916442921187,"cityname":"东莞市","adname":"东莞市"},{"id":"B03017UQSF","name":"汇江花园","type":"商务住宅;住宅区;住宅小区","typecode":"120302","address":"新围新村2号","location":"114.105446,22.80993","transed_lng":114.10031135273594,"transed_lat":22.81255201372861,"cityname":"东莞市","adname":"东莞市"},{"id":"B03018IWK0","name":"东盛新城","type":"商务住宅;住宅区;住宅小区","typecode":"120302","address":"麻涌大盛镇东盛新城","location":"113.546295,23.058461","transed_lng":113.54114242143514,"transed_lat":23.06129558419104,"cityname":"东莞市","adname":"东莞市"},{"id":"B030102AMQ","name":"怡康花园","type":"商务住宅;住宅区;住宅小区","typecode":"120302","address":"红山路1号","location":"113.751325,23.031337","transed_lng":113.74613094116437,"transed_lat":23.03405495752507,"cityname":"东莞市","adname":"东莞市"},{"id":"B03017TUKP","name":"望族家园","type":"商务住宅;住宅区;住宅小区","typecode":"120302","address":"东城大道238号","location":"113.769947,23.031003","transed_lng":113.7647720130866,"transed_lat":23.033728393519254,"cityname":"东莞市","adname":"东莞市"},{"id":"B03017UN1J","name":"东惠广场","type":"商务住宅;住宅区;住宅小区","typecode":"120302","address":"谢岗谢岗镇谢常路镇政府旁","location":"114.15149,22.964104","transed_lng":114.14643357995794,"transed_lat":22.96671591825383,"cityname":"东莞市","adname":"东莞市"},{"id":"B03017WLUP","name":"盈锋广场","type":"商务住宅;住宅区;住宅小区","typecode":"120302","address":"东纵大道138号","location":"113.776246,23.037138","transed_lng":113.77108017785706,"transed_lat":23.039866037420165,"cityname":"东莞市","adname":"东莞市"},{"id":"B030100QDK","name":"宏景中心","type":"商务住宅;住宅区;住宅小区","typecode":"120302","address":"沿河路","location":"113.72947,23.011441","transed_lng":113.72427329396362,"transed_lat":23.0141755884686,"cityname":"东莞市","adname":"东莞市"},{"id":"B03017V211","name":"理想0769沁园","type":"商务住宅;住宅区;住宅小区","typecode":"120302","address":"莲溪三路与莲溪路交叉口东南200米","location":"113.720004,23.041267","transed_lng":113.71480947942462,"transed_lat":23.043997488850895,"cityname":"东莞市","adname":"东莞市"},{"id":"B03018I5XU","name":"东兴花园","type":"商务住宅;住宅区;住宅小区","typecode":"120302","address":"东莞市东城黄旗山赛格电子市场东城南路与东城中路交汇处","location":"113.771215,23.025008","transed_lng":113.76604221550498,"transed_lat":23.02773693664992,"cityname":"东莞市","adname":"东莞市"},{"id":"B03017V7UV","name":"陶然豪园","type":"商务住宅;住宅区;住宅小区","typecode":"120302","address":"莲峰北路106号","location":"113.80993,22.822045","transed_lng":113.80485082322191,"transed_lat":22.824909502488275,"cityname":"东莞市","adname":"东莞市"},{"id":"B03017ULRE","name":"颐和","type":"商务住宅;住宅区;住宅小区","typecode":"120302","address":"石新大兴路与石新大兴路一街交叉口南200米","location":"114.090164,22.907943","transed_lng":114.0850121682248,"transed_lat":22.91052713476298,"cityname":"东莞市","adname":"东莞市"},{"id":"B03018I6P9","name":"桂花园","type":"商务住宅;住宅区;住宅小区","typecode":"120302","address":"石排镇沿河路桂花园(海贝儿幼儿园东北150米)","location":"113.932023,23.08665","transed_lng":113.92712266352163,"transed_lat":23.089508215727474,"cityname":"东莞市","adname":"东莞市"},{"id":"B03017UW5M","name":"棕榈园","type":"商务住宅;住宅区;住宅小区","typecode":"120302","address":"广隆百货广场路棕榈园(华尔登国际酒店东50米)","location":"114.088049,23.008684","transed_lng":114.08288988371713,"transed_lat":23.01122599640821,"cityname":"东莞市","adname":"东莞市"},{"id":"B03017UOQN","name":"雍景花园","type":"商务住宅;住宅区;住宅小区","typecode":"120302","address":"樟木头镇樟洋区樟深公路","location":"114.087562,22.886459","transed_lng":114.08241087018266,"transed_lat":22.889053005158623,"cityname":"东莞市","adname":"东莞市"},{"id":"B03018LQSS","name":"上元(黄河路)","type":"商务住宅;住宅区;住宅小区","typecode":"120302","address":"黄河路37号","location":"114.111000,22.773459","transed_lng":114.10587429437126,"transed_lat":22.77609594885459,"cityname":"东莞市","adname":"东莞市"},{"id":"B03017UN9A","name":"杏花村(宝湖路)","type":"商务住宅;住宅区;住宅小区","typecode":"120302","address":"赵林大道杏花村","location":"114.123711,22.95885","transed_lng":114.11859291797452,"transed_lat":22.961424798604785,"cityname":"东莞市","adname":"东莞市"},{"id":"B030105JXS","name":"咸西莲花村","type":"商务住宅;住宅区;住宅小区","typecode":"120302","address":"莲峰北路88号","location":"113.808134,22.819275","transed_lng":113.80305044916456,"transed_lat":22.822137365756667,"cityname":"东莞市","adname":"东莞市"},{"id":"B03017WBQ0","name":"三阳购物中心","type":"商务住宅;住宅区;住宅小区","typecode":"120302","address":"塘厦镇宏业北路190号","location":"114.093084,22.817167","transed_lng":114.08793935557883,"transed_lat":22.819785801731193,"cityname":"东莞市","adname":"东莞市"},{"id":"B03017UO6X","name":"新世纪江畔湾","type":"商务住宅;住宅区;住宅小区","typecode":"120302","address":"麻涌镇沿江西一路","location":"113.576041,23.054209","transed_lng":113.57095049057277,"transed_lat":23.057093039207142,"cityname":"东莞市","adname":"东莞市"},{"id":"B03017U1F0","name":"中央公园Ⅰ号","type":"商务住宅;住宅区;住宅小区","typecode":"120302","address":"口岸大道1号","location":"114.000501,22.98696","transed_lng":113.99547626363584,"transed_lat":22.989693719153745,"cityname":"东莞市","adname":"东莞市"},{"id":"B03018IXJF","name":"新世纪颐龙湾","type":"商务住宅;住宅区;住宅小区","typecode":"120302","address":"高埗镇颐龙东路","location":"113.755483,23.08673","transed_lng":113.75028827248836,"transed_lat":23.089424837481832,"cityname":"东莞市","adname":"东莞市"},{"id":"B03017UASF","name":"松苑小区","type":"商务住宅;住宅区;住宅小区","typecode":"120302","address":"罗沙社区图书馆附近","location":"113.77106,23.046635","transed_lng":113.76588555874021,"transed_lat":23.04935450014208,"cityname":"东莞市","adname":"东莞市"},{"id":"B03018IJVR","name":"常丰广场","type":"风景名胜;公园广场;城市广场|商务住宅;住宅区;住宅小区","typecode":"110105|120302","address":"常平镇桥沥张屋村","location":"114.006130,22.952523","transed_lng":114.00109323712871,"transed_lat":22.955254486034445,"cityname":"东莞市","adname":"东莞市"},{"id":"B0FFFSI7DW","name":"堑头社区","type":"商务住宅;住宅区;住宅小区","typecode":"120302","address":"莞长路","location":"113.778376,22.946805","transed_lng":113.77321971476564,"transed_lat":22.94957405193833,"cityname":"东莞市","adname":"东莞市"},{"id":"B03018IJ15","name":"新生活家园","type":"商务住宅;住宅区;住宅小区","typecode":"120302","address":"长安镇厦边村银城五路","location":"113.7298,22.786964","transed_lng":113.72461803465013,"transed_lat":22.789788598704156,"cityname":"东莞市","adname":"东莞市"},{"id":"B03017UKXZ","name":"阳光假日小区","type":"商务住宅;住宅区;住宅小区","typecode":"120302","address":"东城东城东莞市东城东泰火炼树泰和商业街107国道与东骏路附近","location":"113.764374,22.998421","transed_lng":113.75919398605133,"transed_lat":23.001156956781887,"cityname":"东莞市","adname":"东莞市"},{"id":"B03017UY7T","name":"金地利广场","type":"商务住宅;楼宇;商住两用楼宇|商务住宅;住宅区;住宅小区","typecode":"120203|120302","address":"常平镇口岸大道8号","location":"114.006427,22.98051","transed_lng":114.00138765887506,"transed_lat":22.98322856581346,"cityname":"东莞市","adname":"东莞市"},{"id":"B03018I5QE","name":"南峰御鹿华庭","type":"商务住宅;住宅区;住宅小区","typecode":"120302","address":"清溪南峰御鹿华庭清溪镇新行政中心城关小学旁边","location":"114.165386,22.823179","transed_lng":114.16037561760224,"transed_lat":22.82587322548544,"cityname":"东莞市","adname":"东莞市"},{"id":"B03018I5XV","name":"星河传说旗峰天下","type":"商务住宅;住宅区;住宅小区","typecode":"120302","address":"迎宾路1号","location":"113.78713,23.018422","transed_lng":113.78198530330262,"transed_lat":23.021170273235235,"cityname":"东莞市","adname":"东莞市"},{"id":"B03017UM3G","name":"金湖花园","type":"商务住宅;住宅区;住宅小区","typecode":"120302","address":"宝塘路与横中四路交叉口西北200米","location":"113.81471,23.027695","transed_lng":113.8096297463006,"transed_lat":23.030483196161832,"cityname":"东莞市","adname":"东莞市"},{"id":"B03017WK51","name":"百年兴","type":"商务住宅;住宅区;住宅小区|商务住宅;楼宇;商住两用楼宇|住宿服务;旅馆招待所;旅馆招待所","typecode":"120302|120203|100200","address":"花园新村百年兴","location":"113.763387,23.054693","transed_lng":113.75820211297584,"transed_lat":23.057404181445328,"cityname":"东莞市","adname":"东莞市"},{"id":"B03017UYC0","name":"罗马景苑","type":"商务住宅;住宅区;住宅小区","typecode":"120302","address":"中山东路1号","location":"113.983917,23.001808","transed_lng":113.97893285319842,"transed_lat":23.004585025224532,"cityname":"东莞市","adname":"东莞市"},{"id":"B03018I4CR","name":"六甲村","type":"地名地址信息;普通地名;村庄级地名|商务住宅;住宅区;住宅小区|购物服务;服装鞋帽皮具店;服装鞋帽皮具店","typecode":"190108|120302|061100","address":"振兴东路","location":"114.021399,23.024799","transed_lng":114.01632011201605,"transed_lat":23.02745431193895,"cityname":"东莞市","adname":"东莞市"},{"id":"B0FFF9TEM3","name":"盈丰楼","type":"商务住宅;住宅区;住宅小区","typecode":"120302","address":"下庙中心花园一巷与怀雅路交叉口西北100米","location":"113.743768,22.831222","transed_lng":113.73858356649416,"transed_lat":22.834023777289755,"cityname":"东莞市","adname":"东莞市"},{"id":"B03018N3AR","name":"樟罗社区","type":"商务住宅;住宅区;住宅小区|地名地址信息;普通地名;村庄级地名","typecode":"120302|190108","address":"樟木头镇","location":"114.065958,22.909170","transed_lng":114.06081198586216,"transed_lat":22.91177534705211,"cityname":"东莞市","adname":"东莞市"},{"id":"B03017UVNE","name":"翠庭居","type":"商务住宅;住宅区;住宅小区","typecode":"120302","address":"万江石美友谊路茶叶市场旁","location":"113.719841,23.058658","transed_lng":113.71464542524268,"transed_lat":23.061381210180482,"cityname":"东莞市","adname":"东莞市"},{"id":"B03018N37I","name":"君珆花园","type":"商务住宅;住宅区;住宅小区","typecode":"120302","address":"南城区西平宏伟路7号","location":"113.752548,22.993129","transed_lng":113.7473572850657,"transed_lat":22.99586355610453,"cityname":"东莞市","adname":"东莞市"},{"id":"B03017UNKS","name":"世纪滨江","type":"商务住宅;住宅区;住宅小区","typecode":"120302","address":"石龙裕兴路与石龙北东岸大桥交汇处正南方向170米","location":"113.868041,23.10597","transed_lng":113.86309130009744,"transed_lat":23.108817433481157,"cityname":"东莞市","adname":"东莞市"},{"id":"B03017WBT3","name":"广场花园","type":"商务住宅;住宅区;住宅小区","typecode":"120302","address":"百和路广场花园(东港华府北150米)","location":"113.616064,22.912759","transed_lng":113.61100236416198,"transed_lat":22.915707108319946,"cityname":"东莞市","adname":"东莞市"},{"id":"B03017WD3N","name":"盛和花园","type":"商务住宅;住宅区;住宅小区","typecode":"120302","address":"厚街体育公园旁边体育路与振华路交汇处","location":"113.665932,22.948273","transed_lng":113.66081190615803,"transed_lat":22.951133015789686,"cityname":"东莞市","adname":"东莞市"},