[{"id":"B0301027VW","name":"东莞玉兰大剧院","type":"体育休闲服务;影剧院;剧场","typecode":"080603","address":"鸿福路","location":"113.747981,23.014084","transed_lng":113.74278619265829,"transed_lat":23.01680948052174,"cityname":"东莞市","adname":"东莞市"},{"id":"B03017ULHK","name":"天域歌剧院","type":"体育休闲服务;影剧院;剧场","typecode":"080603","address":"大朗镇新世纪长盛广场天域大酒店4层","location":"113.929961,22.932719","transed_lng":113.92507197163154,"transed_lat":22.935645909621066,"cityname":"东莞市","adname":"东莞市"},{"id":"B03017U6U8","name":"文化周末剧场","type":"体育休闲服务;影剧院;剧场","typecode":"080603","address":"莞城文化广场","location":"113.751008,23.039875","transed_lng":113.74581317469786,"transed_lat":23.042589267149218,"cityname":"东莞市","adname":"东莞市"},{"id":"B03017UMDJ","name":"帝豪梦剧院","type":"体育休闲服务;影剧院;剧场","typecode":"080603","address":"美景中路769号帝豪花园酒店","location":"113.923800,22.928293","transed_lng":113.91891428218614,"transed_lat":22.931228672032496,"cityname":"东莞市","adname":"东莞市"},{"id":"B03017WMUT","name":"常平大剧院","type":"体育休闲服务;影剧院;剧场","typecode":"080603","address":"振兴三街与振华十二街交叉口东100米","location":"113.993912,22.966889","transed_lng":113.98890529125433,"transed_lat":22.969651327547606,"cityname":"东莞市","adname":"东莞市"},{"id":"B03018IJHW","name":"塘厦演艺馆","type":"体育休闲服务;影剧院;剧场","typecode":"080603","address":"塘厦镇塘龙路塘龙广场西3号塘","location":"114.071251,22.805812","transed_lng":114.06610813336867,"transed_lat":22.808450476298813,"cityname":"东莞市","adname":"东莞市"},{"id":"B0FFGBAO1J","name":"先锋剧场","type":"体育休闲服务;影剧院;剧场","typecode":"080603","address":"莞城街道工农路88号","location":"113.734872,23.030952","transed_lng":113.72967316082182,"transed_lat":23.033674532918514,"cityname":"东莞市","adname":"东莞市"},{"id":"B0FFHBAU1A","name":"星剧场","type":"体育休闲服务;影剧院;剧场","typecode":"080603","address":"万江街道鸿福西路6号东莞市民艺术中心","location":"113.725361,23.021831","transed_lng":113.72016500302854,"transed_lat":23.02456453752491,"cityname":"东莞市","adname":"东莞市"},{"id":"B030100RYZ","name":"黎溪剧场","type":"体育休闲服务;影剧院;剧场","typecode":"080603","address":"河东路六巷1号","location":"113.611863,22.995175","transed_lng":113.60679729026258,"transed_lat":22.998090832741802,"cityname":"东莞市","adname":"东莞市"},{"id":"B03018J6C0","name":"鼎豪购物广场欢乐大舞台","type":"体育休闲服务;影剧院;剧场","typecode":"080603","address":"台城路与太沙路交叉口西南50米鼎豪购物广场","location":"113.681274,22.758175","transed_lng":113.6761425520981,"transed_lat":22.76107835205949,"cityname":"东莞市","adname":"东莞市"},{"id":"B0301052IR","name":"余屋剧院","type":"体育休闲服务;影剧院;剧场","typecode":"080603","address":"佘屋街","location":"113.831094,23.078448","transed_lng":113.82605437235475,"transed_lat":23.081245199215545,"cityname":"东莞市","adname":"东莞市"},{"id":"B0FFHS7PXO","name":"梦幻剧场","type":"体育休闲服务;影剧院;剧场","typecode":"080603","address":"元美中路2号(近玉兰大剧院)东莞市科学技术博物馆内","location":"113.746726,23.009535","transed_lng":113.74153090540787,"transed_lat":23.01226258391756,"cityname":"东莞市","adname":"东莞市"},{"id":"B0FFGIQBEX","name":"华悦演艺台","type":"体育休闲服务;影剧院;剧场","typecode":"080603","address":"寮步镇塘唇工业区华悦商贸易城","location":"113.862322,23.017598","transed_lng":113.85736567044407,"transed_lat":23.020475219288517,"cityname":"东莞市","adname":"东莞市"},{"id":"B03018JB4U","name":"童心剧场","type":"体育休闲服务;影剧院;剧场","typecode":"080603","address":"南城区元美中路3号青少年活动中心","location":"113.748131,23.008744","transed_lng":113.74293662168967,"transed_lat":23.011471778206054,"cityname":"东莞市","adname":"东莞市"},{"id":"B0FFJ0HNF6","name":"天照舞台","type":"体育休闲服务;影剧院;剧场","typecode":"080603","address":"道滘镇粤晖路1号粤晖园内","location":"113.629430,22.971618","transed_lng":113.62435594430745,"transed_lat":22.9745278424458,"cityname":"东莞市","adname":"东莞市"},{"id":"B0FFHGLXQH","name":"晋悦大舞台","type":"体育休闲服务;影剧院;剧场","typecode":"080603","address":"富新购物广场步行街与百业东二路交叉口北100米","location":"113.832296,23.009556","transed_lng":113.82726412245529,"transed_lat":23.01238502790904,"cityname":"东莞市","adname":"东莞市"},{"id":"B0FFGYRTSZ","name":"东城文化中心剧场","type":"体育休闲服务;影剧院;剧场","typecode":"080603","address":"东城支路","location":"113.781260,23.025713","transed_lng":113.77610359320107,"transed_lat":23.0284511134825,"cityname":"东莞市","adname":"东莞市"},{"id":"B0FFGK6UCL","name":"艾利发剧院","type":"体育休闲服务;影剧院;剧场","typecode":"080603","address":"体育路26号盈锋中心西9楼","location":"113.756104,23.021376","transed_lng":113.75091412450739,"transed_lat":23.024098896570635,"cityname":"东莞市","adname":"东莞市"},{"id":"B0FFGAXC5N","name":"新悦戏台","type":"体育休闲服务;影剧院;剧场","typecode":"080603","address":"园吓路与新悦路交叉口东北150米","location":"113.804118,23.099080","transed_lng":113.79900611627612,"transed_lat":23.10181923928584,"cityname":"东莞市","adname":"东莞市"},{"id":"B0FFIZQ7AL","name":"万事乐百货欢乐大舞台","type":"体育休闲服务;影剧院;剧场","typecode":"080603","address":"英才路56号附近","location":"114.101714,22.760266","transed_lng":114.09657899755312,"transed_lat":22.762903944908587,"cityname":"东莞市","adname":"东莞市"},{"id":"B0FFGBDZFL","name":"西南文化中心舞台","type":"体育休闲服务;影剧院;剧场","typecode":"080603","address":"大沙塘街与庆丰东路交叉口南150米","location":"113.820856,23.109703","transed_lng":113.81578667078485,"transed_lat":23.112467821349075,"cityname":"东莞市","adname":"东莞市"},{"id":"B0FFHEGI72","name":"雅寓剧院","type":"体育休闲服务;影剧院;剧场","typecode":"080603","address":"东路24号","location":"113.805118,22.803455","transed_lng":113.80002795924283,"transed_lat":22.806317867778688,"cityname":"东莞市","adname":"东莞市"},{"id":"B0FFHXO39R","name":"满屋世界剧场","type":"体育休闲服务;影剧院;剧场","typecode":"080603","address":"游乐场内","location":"114.194220,22.718465","transed_lng":114.18929317387608,"transed_lat":22.721246460640092,"cityname":"东莞市","adname":"东莞市"},{"id":"B0FFHWSBFP","name":"海狮表演场","type":"体育休闲服务;影剧院;剧场","typecode":"080603","address":"凤岗镇官井头嘉辉路59号龙凤山庄影视度假村内","location":"114.193544,22.714606","transed_lng":114.1886157267893,"transed_lat":22.71738736889963,"cityname":"东莞市","adname":"东莞市"},{"id":"B0FFGDUNUW","name":"涌口海月剧场","type":"体育休闲服务;影剧院;剧场","typecode":"080603","address":"海月街与湖滨街交叉口东100米","location":"113.644464,22.918455","transed_lng":113.6393769955345,"transed_lat":22.92136591495131,"cityname":"东莞市","adname":"东莞市"},{"id":"B0FFHBW34K","name":"杨涌文化舞台","type":"体育休闲服务;影剧院;剧场","typecode":"080603","address":"杨新路231号附近","location":"113.967813,22.922417","transed_lng":113.9628706707837,"transed_lat":22.92527286430265,"cityname":"东莞市","adname":"东莞市"},{"id":"B0FFH72ZMM","name":"新乐影剧院","type":"体育休闲服务;影剧院;剧场","typecode":"080603","address":"乐富山金泰新村一街5","location":"114.173747,22.715064","transed_lng":114.16876636828937,"transed_lat":22.71780904739544,"cityname":"东莞市","adname":"东莞市"},{"id":"B0FFGA1P47","name":"塘尾剧院","type":"体育休闲服务;影剧院;剧场","typecode":"080603","address":"太和路与西坑路交叉口西南150米","location":"113.927071,23.081262","transed_lng":113.92217406834084,"transed_lat":23.08412860577901,"cityname":"东莞市","adname":"东莞市"},{"id":"B030101S7V","name":"高埗影剧院","type":"体育休闲服务;影剧院;剧场","typecode":"080603","address":"高埗大道中文化广电大楼","location":"113.727235,23.085747","transed_lng":113.7220340396875,"transed_lat":23.088451579944092,"cityname":"东莞市","adname":"东莞市"},{"id":"B03017TTEP","name":"梨川剧场","type":"体育休闲服务;影剧院;剧场","typecode":"080603","address":"运河西一路梨川运河搬迁楼4号261","location":"113.757451,23.057380","transed_lng":113.75225990088789,"transed_lat":23.06008774381034,"cityname":"东莞市","adname":"东莞市"},{"id":"B03018IWOU","name":"百悦舞台","type":"体育休闲服务;影剧院;剧场","typecode":"080603","address":"百悦步行街a29号附近","location":"113.813081,23.116331","transed_lng":113.80799066796702,"transed_lat":23.119078768545673,"cityname":"东莞市","adname":"东莞市"},{"id":"B03018J6OE","name":"大宁中心舞台","type":"体育休闲服务;影剧院;剧场","typecode":"080603","address":"大宁广场路2号","location":"113.721462,22.813596","transed_lng":113.71628166853601,"transed_lat":22.81641874391531,"cityname":"东莞市","adname":"东莞市"},{"id":"B03018J2NC","name":"粤韵馆","type":"体育休闲服务;影剧院;剧场","typecode":"080603","address":"振兴东六路与桥东大街交叉口西50米","location":"113.678879,23.005224","transed_lng":113.67373500069482,"transed_lat":23.008034859244656,"cityname":"东莞市","adname":"东莞市"},{"id":"B0301027VW","name":"东莞玉兰大剧院","type":"体育休闲服务;影剧院;剧场","typecode":"080603","address":"鸿福路","location":"113.747981,23.014084","transed_lng":113.74278619265829,"transed_lat":23.01680948052174,"cityname":"东莞市","adname":"东莞市"},{"id":"B03017ULHK","name":"天域歌剧院","type":"体育休闲服务;影剧院;剧场","typecode":"080603","address":"大朗镇新世纪长盛广场天域大酒店4层","location":"113.929961,22.932719","transed_lng":113.92507197163154,"transed_lat":22.935645909621066,"cityname":"东莞市","adname":"东莞市"},{"id":"B03017U6U8","name":"文化周末剧场","type":"体育休闲服务;影剧院;剧场","typecode":"080603","address":"莞城文化广场","location":"113.751008,23.039875","transed_lng":113.74581317469786,"transed_lat":23.042589267149218,"cityname":"东莞市","adname":"东莞市"},{"id":"B03017UMDJ","name":"帝豪梦剧院","type":"体育休闲服务;影剧院;剧场","typecode":"080603","address":"美景中路769号帝豪花园酒店","location":"113.923800,22.928293","transed_lng":113.91891428218614,"transed_lat":22.931228672032496,"cityname":"东莞市","adname":"东莞市"},{"id":"B03017WMUT","name":"常平大剧院","type":"体育休闲服务;影剧院;剧场","typecode":"080603","address":"振兴三街与振华十二街交叉口东100米","location":"113.993912,22.966889","transed_lng":113.98890529125433,"transed_lat":22.969651327547606,"cityname":"东莞市","adname":"东莞市"},{"id":"B03018IJHW","name":"塘厦演艺馆","type":"体育休闲服务;影剧院;剧场","typecode":"080603","address":"塘厦镇塘龙路塘龙广场西3号塘","location":"114.071251,22.805812","transed_lng":114.06610813336867,"transed_lat":22.808450476298813,"cityname":"东莞市","adname":"东莞市"},{"id":"B0FFGBAO1J","name":"先锋剧场","type":"体育休闲服务;影剧院;剧场","typecode":"080603","address":"莞城街道工农路88号","location":"113.734872,23.030952","transed_lng":113.72967316082182,"transed_lat":23.033674532918514,"cityname":"东莞市","adname":"东莞市"},{"id":"B0FFHBAU1A","name":"星剧场","type":"体育休闲服务;影剧院;剧场","typecode":"080603","address":"万江街道鸿福西路6号东莞市民艺术中心","location":"113.725361,23.021831","transed_lng":113.72016500302854,"transed_lat":23.02456453752491,"cityname":"东莞市","adname":"东莞市"},{"id":"B030100RYZ","name":"黎溪剧场","type":"体育休闲服务;影剧院;剧场","typecode":"080603","address":"河东路六巷1号","location":"113.611863,22.995175","transed_lng":113.60679729026258,"transed_lat":22.998090832741802,"cityname":"东莞市","adname":"东莞市"},{"id":"B03018J6C0","name":"鼎豪购物广场欢乐大舞台","type":"体育休闲服务;影剧院;剧场","typecode":"080603","address":"台城路与太沙路交叉口西南50米鼎豪购物广场","location":"113.681274,22.758175","transed_lng":113.6761425520981,"transed_lat":22.76107835205949,"cityname":"东莞市","adname":"东莞市"},{"id":"B0301052IR","name":"余屋剧院","type":"体育休闲服务;影剧院;剧场","typecode":"080603","address":"佘屋街","location":"113.831094,23.078448","transed_lng":113.82605437235475,"transed_lat":23.081245199215545,"cityname":"东莞市","adname":"东莞市"},{"id":"B0FFHS7PXO","name":"梦幻剧场","type":"体育休闲服务;影剧院;剧场","typecode":"080603","address":"元美中路2号(近玉兰大剧院)东莞市科学技术博物馆内","location":"113.746726,23.009535","transed_lng":113.74153090540787,"transed_lat":23.01226258391756,"cityname":"东莞市","adname":"东莞市"},{"id":"B0FFGIQBEX","name":"华悦演艺台","type":"体育休闲服务;影剧院;剧场","typecode":"080603","address":"寮步镇塘唇工业区华悦商贸易城","location":"113.862322,23.017598","transed_lng":113.85736567044407,"transed_lat":23.020475219288517,"cityname":"东莞市","adname":"东莞市"},{"id":"B03018JB4U","name":"童心剧场","type":"体育休闲服务;影剧院;剧场","typecode":"080603","address":"南城区元美中路3号青少年活动中心","location":"113.748131,23.008744","transed_lng":113.74293662168967,"transed_lat":23.011471778206054,"cityname":"东莞市","adname":"东莞市"},{"id":"B0FFJ0HNF6","name":"天照舞台","type":"体育休闲服务;影剧院;剧场","typecode":"080603","address":"道滘镇粤晖路1号粤晖园内","location":"113.629430,22.971618","transed_lng":113.62435594430745,"transed_lat":22.9745278424458,"cityname":"东莞市","adname":"东莞市"},{"id":"B0FFHGLXQH","name":"晋悦大舞台","type":"体育休闲服务;影剧院;剧场","typecode":"080603","address":"富新购物广场步行街与百业东二路交叉口北100米","location":"113.832296,23.009556","transed_lng":113.82726412245529,"transed_lat":23.01238502790904,"cityname":"东莞市","adname":"东莞市"},{"id":"B0FFGYRTSZ","name":"东城文化中心剧场","type":"体育休闲服务;影剧院;剧场","typecode":"080603","address":"东城支路","location":"113.781260,23.025713","transed_lng":113.77610359320107,"transed_lat":23.0284511134825,"cityname":"东莞市","adname":"东莞市"},{"id":"B0FFGK6UCL","name":"艾利发剧院","type":"体育休闲服务;影剧院;剧场","typecode":"080603","address":"体育路26号盈锋中心西9楼","location":"113.756104,23.021376","transed_lng":113.75091412450739,"transed_lat":23.024098896570635,"cityname":"东莞市","adname":"东莞市"},{"id":"B0FFGAXC5N","name":"新悦戏台","type":"体育休闲服务;影剧院;剧场","typecode":"080603","address":"园吓路与新悦路交叉口东北150米","location":"113.804118,23.099080","transed_lng":113.79900611627612,"transed_lat":23.10181923928584,"cityname":"东莞市","adname":"东莞市"},{"id":"B0FFIZQ7AL","name":"万事乐百货欢乐大舞台","type":"体育休闲服务;影剧院;剧场","typecode":"080603","address":"英才路56号附近","location":"114.101714,22.760266","transed_lng":114.09657899755312,"transed_lat":22.762903944908587,"cityname":"东莞市","adname":"东莞市"},{"id":"B0FFGBDZFL","name":"西南文化中心舞台","type":"体育休闲服务;影剧院;剧场","typecode":"080603","address":"大沙塘街与庆丰东路交叉口南150米","location":"113.820856,23.109703","transed_lng":113.81578667078485,"transed_lat":23.112467821349075,"cityname":"东莞市","adname":"东莞市"},{"id":"B0FFHEGI72","name":"雅寓剧院","type":"体育休闲服务;影剧院;剧场","typecode":"080603","address":"东路24号","location":"113.805118,22.803455","transed_lng":113.80002795924283,"transed_lat":22.806317867778688,"cityname":"东莞市","adname":"东莞市"},{"id":"B0FFHXO39R","name":"满屋世界剧场","type":"体育休闲服务;影剧院;剧场","typecode":"080603","address":"游乐场内","location":"114.194220,22.718465","transed_lng":114.18929317387608,"transed_lat":22.721246460640092,"cityname":"东莞市","adname":"东莞市"},{"id":"B0FFHWSBFP","name":"海狮表演场","type":"体育休闲服务;影剧院;剧场","typecode":"080603","address":"凤岗镇官井头嘉辉路59号龙凤山庄影视度假村内","location":"114.193544,22.714606","transed_lng":114.1886157267893,"transed_lat":22.71738736889963,"cityname":"东莞市","adname":"东莞市"},{"id":"B0FFGDUNUW","name":"涌口海月剧场","type":"体育休闲服务;影剧院;剧场","typecode":"080603","address":"海月街与湖滨街交叉口东100米","location":"113.644464,22.918455","transed_lng":113.6393769955345,"transed_lat":22.92136591495131,"cityname":"东莞市","adname":"东莞市"}]
