[{"id":"B00140BAT6","name":"广州市番禺区图书馆","type":"科教文化服务;图书馆;图书馆","typecode":"140500","address":"清河西路56号","location":"113.363663,22.933566","transed_lng":113.35818016187415,"transed_lat":22.93617273873962,"cityname":"广州市","adname":"番禺区"},{"id":"B00140MA1K","name":"广东省立中山图书馆(棠下分馆)","type":"科教文化服务;图书馆;图书馆","typecode":"140500","address":"棠下涌东路自编302号","location":"113.377327,23.131254","transed_lng":113.3718135717259,"transed_lat":23.13376018596045,"cityname":"广州市","adname":"天河区"},{"id":"B00140K1WY","name":"广州图书馆(石牌分馆)","type":"科教文化服务;图书馆;图书馆","typecode":"140500","address":"石牌东路127、131北2层","location":"113.343206,23.131291","transed_lng":113.33774524253788,"transed_lat":23.133847484583118,"cityname":"广州市","adname":"天河区"},{"id":"B00140URKS","name":"广州医科大学-曾宪梓图书馆","type":"科教文化服务;图书馆;图书馆","typecode":"140500","address":"人民北路620号","location":"113.255634,23.134700","transed_lng":113.25030840017253,"transed_lat":23.137377794430314,"cityname":"广州市","adname":"越秀区"},{"id":"B00140TANF","name":"立中山图书馆(桂花分馆)","type":"科教文化服务;图书馆;图书馆","typecode":"140500","address":"桂花岗东1号","location":"113.265951,23.148520","transed_lng":113.26061902167136,"transed_lat":23.151188048332873,"cityname":"广州市","adname":"越秀区"},{"id":"B00140HWW6","name":"战士文化之家沙面图书馆","type":"科教文化服务;图书馆;图书馆","typecode":"140500","address":"沙面北街61号","location":"113.244601,23.107971","transed_lng":113.23927836458465,"transed_lat":23.11065977480792,"cityname":"广州市","adname":"荔湾区"},{"id":"B00140USZO","name":"广东省外语艺术职业学院燕岭校区图书馆","type":"科教文化服务;图书馆;图书馆","typecode":"140500","address":"外语艺术职业学院燕岭校区内","location":"113.338028,23.171408","transed_lng":113.33257473018445,"transed_lat":23.17395837923694,"cityname":"广州市","adname":"天河区"},{"id":"B00140US8T","name":"中山大学北校区图书馆","type":"科教文化服务;图书馆;图书馆","typecode":"140500","address":"中山二路74号中山大学北校区","location":"113.289642,23.127641","transed_lng":113.28428433918579,"transed_lat":23.130293608879423,"cityname":"广州市","adname":"越秀区"},{"id":"B0FFHKF60T","name":"荔湾区图书馆(芳村馆)","type":"科教文化服务;图书馆;图书馆","typecode":"140500","address":"芳村大道西芳雅苑15号荔湾文化艺术中心","location":"113.217724,23.108431","transed_lng":113.21238455912682,"transed_lat":23.111101209347236,"cityname":"广州市","adname":"荔湾区"},{"id":"B00140BTEF","name":"昌岗街科普图书馆","type":"科教文化服务;图书馆;图书馆","typecode":"140500","address":"晓园南15号","location":"113.281287,23.087252","transed_lng":113.27594372207068,"transed_lat":23.089931638994166,"cityname":"广州市","adname":"海珠区"},{"id":"B00141JO2J","name":"华南师范大学石牌校区图书馆","type":"科教文化服务;图书馆;图书馆","typecode":"140500","address":"中山大道西55号华南师范大学石牌校区","location":"113.348025,23.139206","transed_lng":113.34255453032884,"transed_lat":23.14175070665697,"cityname":"广州市","adname":"天河区"},{"id":"B0FFFVOWGZ","name":"荔湾区图书馆(周门馆)","type":"科教文化服务;图书馆;图书馆","typecode":"140500","address":"中山八路周门南路29号","location":"113.238072,23.129008","transed_lng":113.23274637210504,"transed_lat":23.131686121774145,"cityname":"广州市","adname":"荔湾区"},{"id":"B0FFFPALTY","name":"广州少年儿童图书馆","type":"科教文化服务;图书馆;图书馆","typecode":"140500","address":"中山四路42号","location":"113.275834,23.128018","transed_lng":113.27049440920977,"transed_lat":23.130686511603628,"cityname":"广州市","adname":"越秀区"},{"id":"B00140U3KS","name":"广东财经大学海珠校区图书馆(苏沙路)","type":"科教文化服务;图书馆;图书馆","typecode":"140500","address":"仑头路21号广东财经大学","location":"113.354206,23.094324","transed_lng":113.34872746166816,"transed_lat":23.096876493252285,"cityname":"广州市","adname":"海珠区"},{"id":"B00140V8K1","name":"黄埔图书馆(柳塘大街)","type":"科教文化服务;图书馆;图书馆","typecode":"140500","address":"柳塘大街与泰来里大街交叉口东北50米","location":"113.394438,23.092281","transed_lng":113.38891622079574,"transed_lat":23.094791585703515,"cityname":"广州市","adname":"海珠区"},{"id":"B00140URXP","name":"广东工业大学图书馆(环市东路)","type":"科教文化服务;图书馆;图书馆","typecode":"140500","address":"环市东路462号(近农林下路)","location":"113.299539,23.133858","transed_lng":113.29416463210646,"transed_lat":23.136493398525214,"cityname":"广州市","adname":"越秀区"},{"id":"B00141QW61","name":"广州大佛寺图书馆","type":"科教文化服务;图书馆;图书馆","typecode":"140500","address":"惠新中街21号大佛寺内","location":"113.268298,23.121913","transed_lng":113.26296599710497,"transed_lat":23.124590153730615,"cityname":"广州市","adname":"越秀区"},{"id":"B00140SCCQ","name":"海珠区少年儿童图书馆","type":"科教文化服务;图书馆;图书馆","typecode":"140500","address":"樱花街18号","location":"113.311651,23.101918","transed_lng":113.30625609739421,"transed_lat":23.104545688496987,"cityname":"广州市","adname":"海珠区"},{"id":"B00141IL49","name":"广东岭南职业技术学院图书馆","type":"科教文化服务;图书馆;图书馆","typecode":"140500","address":"大观中路492号广东岭南职业技术学院","location":"113.419314,23.166858","transed_lng":113.41379566869162,"transed_lat":23.169343870324905,"cityname":"广州市","adname":"天河区"},{"id":"B00141KG10","name":"中山大学东校区图书馆","type":"科教文化服务;图书馆;图书馆","typecode":"140500","address":"新造镇广州大学城外环东路132号","location":"113.391904,23.066446","transed_lng":113.38638480576859,"transed_lat":23.068968456809117,"cityname":"广州市","adname":"番禺区"},{"id":"B0FFFPKGET","name":"逢源街道图书、电子阅览室","type":"科教文化服务;图书馆;图书馆","typecode":"140500","address":"文昌北路何家祠道逢源街8号","location":"113.243473,23.120576","transed_lng":113.23814936667324,"transed_lat":23.123259373190972,"cityname":"广州市","adname":"荔湾区"},{"id":"B0FFGFTX44","name":"广东省人民医院图书馆","type":"科教文化服务;图书馆;图书馆","typecode":"140500","address":"中山二路106号","location":"113.288282,23.123477","transed_lng":113.28292665922709,"transed_lat":23.126133120520752,"cityname":"广州市","adname":"越秀区"},{"id":"B0014244RO","name":"广州市南沙图书馆","type":"科教文化服务;图书馆;图书馆","typecode":"140500","address":"金蕉大道","location":"113.537938,22.787558","transed_lng":113.53277968833271,"transed_lat":22.79048352509052,"cityname":"广州市","adname":"南沙区"},{"id":"B0FFGJ956S","name":"广东省委党校图书馆","type":"科教文化服务;图书馆;图书馆","typecode":"140500","address":"建设大马路3号","location":"113.280058,23.132503","transed_lng":113.27471321609849,"transed_lat":23.135165417540502,"cityname":"广州市","adname":"越秀区"},{"id":"B0FFHGG6WU","name":"何氏书室","type":"科教文化服务;图书馆;图书馆","typecode":"140500","address":"旧仓巷与福容里街交叉口西南50米","location":"113.270765,23.128199","transed_lng":113.26543045116402,"transed_lat":23.130871807589475,"cityname":"广州市","adname":"越秀区"},{"id":"B00141JBH0","name":"小楼图书馆","type":"科教文化服务;图书馆;图书馆","typecode":"140500","address":"泰安路1号","location":"113.832936,23.378791","transed_lng":113.82788160812774,"transed_lat":23.381493625809426,"cityname":"广州市","adname":"增城区"},{"id":"B0FFISG3CR","name":"广州少儿儿童图书馆","type":"科教文化服务;图书馆;图书馆","typecode":"140500","address":"长堤大马路与靖海路交叉口西南50米","location":"113.261806,23.111729","transed_lng":113.25647917732425,"transed_lat":23.114414015356097,"cityname":"广州市","adname":"越秀区"},{"id":"B0FFG7J9BE","name":"广州大学-图书馆","type":"科教文化服务;图书馆;图书馆","typecode":"140500","address":"外环西路230号","location":"113.370382,23.040254","transed_lng":113.36488267891819,"transed_lat":23.042805990780398,"cityname":"广州市","adname":"番禺区"},{"id":"B0FFHYH6GK","name":"海珠湖自助图书馆","type":"科教文化服务;图书馆;图书馆","typecode":"140500","address":"新滘中路168号海珠湖","location":"113.326082,23.070777","transed_lng":113.32065995428728,"transed_lat":23.073390768209165,"cityname":"广州市","adname":"海珠区"},{"id":"B0FFGIOAO0","name":"广东流动图书馆妇联分馆","type":"科教文化服务;图书馆;图书馆","typecode":"140500","address":"明月一路20明月阁","location":"113.312911,23.114791","transed_lng":113.30751273977451,"transed_lat":23.11741110848588,"cityname":"广州市","adname":"越秀区"},{"id":"B0FFGY5Q6S","name":"越秀区图书馆黄花岗分馆","type":"科教文化服务;图书馆;图书馆","typecode":"140500","address":"先烈中路区庄村47号","location":"113.295964,23.135950","transed_lng":113.29059564947181,"transed_lat":23.138590145275863,"cityname":"广州市","adname":"越秀区"},{"id":"B0FFFTY8AD","name":"童梦园(购书中心店)","type":"科教文化服务;图书馆;图书馆","typecode":"140500","address":"天河路123号购书中心四楼","location":"113.320949,23.134026","transed_lng":113.31553321329581,"transed_lat":23.13662338872001,"cityname":"广州市","adname":"天河区"},{"id":"B0FFF3UUIZ","name":"广州少年儿童图书馆六榕分馆","type":"科教文化服务;图书馆;图书馆","typecode":"140500","address":"解放北路周家巷13号","location":"113.260463,23.132779","transed_lng":113.25513549394113,"transed_lat":23.135456054982846,"cityname":"广州市","adname":"越秀区"},{"id":"B00140USAW","name":"广东第二师范学院图书馆(碧海商业大厦东北)","type":"科教文化服务;图书馆;图书馆","typecode":"140500","address":"新港中路351号","location":"113.316981,23.099044","transed_lng":113.31157565591089,"transed_lat":23.10166310233961,"cityname":"广州市","adname":"海珠区"},{"id":"B00140MYWB","name":"广州市黄埔区图书馆西区馆","type":"科教文化服务;图书馆;图书馆","typecode":"140500","address":"东园七街5号","location":"113.530241,23.063982","transed_lng":113.52504096739902,"transed_lat":23.06677530818349,"cityname":"广州市","adname":"黄埔区"},{"id":"B0FFHMP3Y0","name":"艺术托管公益图书馆","type":"科教文化服务;图书馆;图书馆","typecode":"140500","address":"盈力街与盈溪路交叉口西南150米","location":"113.418782,23.113489","transed_lng":113.41326682684448,"transed_lat":23.115995628785598,"cityname":"广州市","adname":"天河区"},{"id":"B0FFF3UY02","name":"朗声图书武侠馆","type":"科教文化服务;图书馆;图书馆","typecode":"140500","address":"晓港公园文化创意园2号馆","location":"113.280310,23.095073","transed_lng":113.27496742039541,"transed_lat":23.097750452792628,"cityname":"广州市","adname":"海珠区"},{"id":"B00140NP8A","name":"小云雀图书馆","type":"科教文化服务;图书馆;图书馆","typecode":"140500","address":"恤孤院路31号","location":"113.296194,23.120632","transed_lng":113.29082629475896,"transed_lat":23.123277963271242,"cityname":"广州市","adname":"越秀区"},{"id":"B0FFFOQEYH","name":"广东金融学院-图书馆","type":"科教文化服务;图书馆;图书馆","typecode":"140500","address":"龙洞迎福路512号","location":"113.379398,23.199749","transed_lng":113.37387787233318,"transed_lat":23.202227037035705,"cityname":"广州市","adname":"天河区"},{"id":"B0FFFPALTX","name":"广州少年儿童图书馆期刊外借处","type":"科教文化服务;图书馆;图书馆","typecode":"140500","address":"德政北路444号","location":"113.275416,23.128126","transed_lng":113.27007685300647,"transed_lat":23.130794861186814,"cityname":"广州市","adname":"越秀区"},{"id":"B00141R9EM","name":"广州市广播电视大学-图书馆","type":"科教文化服务;图书馆;图书馆","typecode":"140500","address":"麓景西路41号广州广播电视大学教学楼6号楼","location":"113.276127,23.147321","transed_lng":113.27078579203965,"transed_lat":23.149981549228492,"cityname":"广州市","adname":"越秀区"},{"id":"B00141NEWM","name":"南方医科大学图书馆","type":"科教文化服务;图书馆;图书馆","typecode":"140500","address":"广州大道北1838号南方医科大学","location":"113.334250,23.186189","transed_lng":113.32880335578156,"transed_lat":23.188740966159262,"cityname":"广州市","adname":"白云区"},{"id":"B00141ICC9","name":"农家书屋","type":"科教文化服务;图书馆;图书馆","typecode":"140500","address":"286县道光辉村文化室附近","location":"113.562986,23.618293","transed_lng":113.5578355937449,"transed_lat":23.62104376768638,"cityname":"广州市","adname":"从化区"},{"id":"B0FFGZH8XR","name":"广州大学桂花岗校区图书馆","type":"科教文化服务;图书馆;图书馆","typecode":"140500","address":"桂花岗东1号","location":"113.265972,23.148661","transed_lng":113.26063999691635,"transed_lat":23.151328980324617,"cityname":"广州市","adname":"越秀区"},{"id":"B0FFHTMVY7","name":"海珠区公益图书馆","type":"科教文化服务;图书馆;图书馆","typecode":"140500","address":"泰沙路9号亚洲行窗帘批发中心二楼A202","location":"113.286296,23.087783","transed_lng":113.28094594268492,"transed_lat":23.090456418580022,"cityname":"广州市","adname":"海珠区"},{"id":"B0FFH11ESC","name":"广州医科大学附属第三医院-图书馆","type":"科教文化服务;图书馆;图书馆","typecode":"140500","address":"涌边一马路与荔枝湾路交叉口东北150米","location":"113.234068,23.118317","transed_lng":113.22874129728179,"transed_lat":23.12099738717988,"cityname":"广州市","adname":"荔湾区"},{"id":"B00140NNYB","name":"广州图书馆图书流动站","type":"科教文化服务;图书馆;图书馆","typecode":"140500","address":"南岸路61号","location":"113.229991,23.133850","transed_lng":113.22466080713318,"transed_lat":23.136521421703552,"cityname":"广州市","adname":"荔湾区"},{"id":"B0FFHFJ0QG","name":"东海社区文化图书室","type":"科教文化服务;图书馆;图书馆","typecode":"140500","address":"石牌西横街与石牌西直街交叉口东南50米","location":"113.336987,23.131935","transed_lng":113.33153850988653,"transed_lat":23.134502741502168,"cityname":"广州市","adname":"天河区"},{"id":"B0FFH76N67","name":"科达图书","type":"科教文化服务;图书馆;图书馆","typecode":"140500","address":"建中路16号2层","location":"113.371721,23.126138","transed_lng":113.36621414838423,"transed_lat":23.12865237102821,"cityname":"广州市","adname":"天河区"},{"id":"B0FFH5SBE1","name":"素社家园图书馆","type":"科教文化服务;图书馆;图书馆","typecode":"140500","address":"基立下道54号","location":"113.275666,23.104161","transed_lng":113.2703281932596,"transed_lat":23.106839407739127,"cityname":"广州市","adname":"海珠区"},{"id":"B0FFH91SW4","name":"市桥图书馆","type":"科教文化服务;图书馆;图书馆","typecode":"140500","address":"市桥街道清河西路56号","location":"113.363680,22.933384","transed_lng":113.35819714910554,"transed_lat":22.935990791365356,"cityname":"广州市","adname":"番禺区"},{"id":"B0FFFAISI0","name":"从化希贤小学图书馆","type":"科教文化服务;图书馆;图书馆","typecode":"140500","address":"横江路268号从化希贤小学附近","location":"113.573070,23.587138","transed_lng":113.56793978793714,"transed_lat":23.589899104614005,"cityname":"广州市","adname":"从化区"},{"id":"B0FFH11967","name":"新水坑村图书室","type":"科教文化服务;图书馆;图书馆","typecode":"140500","address":"大龙街道环村东路新水坑文化中心","location":"113.392820,22.975250","transed_lng":113.38730671261071,"transed_lat":22.9778113273411,"cityname":"广州市","adname":"番禺区"},{"id":"B0FFFAKIGP","name":"中田村法制图书阅览室","type":"科教文化服务;图书馆;图书馆","typecode":"140500","address":"桃园镇","location":"113.712549,23.620021","transed_lng":113.70732117692275,"transed_lat":23.622638165798143,"cityname":"广州市","adname":"从化区"},{"id":"B0FFHGG2XM","name":"越秀区图书馆大东分馆数字图书馆","type":"科教文化服务;图书馆;图书馆","typecode":"140500","address":"东华西路与堑边街交叉口北100米","location":"113.280943,23.122789","transed_lng":113.27559776918474,"transed_lat":23.125454361084383,"cityname":"广州市","adname":"越秀区"},{"id":"B0FFGO1J6C","name":"远望谷自助图书馆","type":"科教文化服务;图书馆;图书馆","typecode":"140500","address":"迎宾路730号附近","location":"113.368782,22.979500","transed_lng":113.363288881517,"transed_lat":22.982080215313513,"cityname":"广州市","adname":"番禺区"},{"id":"B0FFGXUJIN","name":"番禺区图书馆(分馆)","type":"科教文化服务;图书馆;图书馆","typecode":"140500","address":"沙头街道大罗村银建路50号","location":"113.344696,22.958760","transed_lng":113.33924409015007,"transed_lat":22.961386994172248,"cityname":"广州市","adname":"番禺区"},{"id":"B0FFF3UMDJ","name":"沙东街社区书屋","type":"科教文化服务;图书馆;图书馆","typecode":"140500","address":"范屋149号","location":"113.314647,23.162467","transed_lng":113.30924205496655,"transed_lat":23.165064991463723,"cityname":"广州市","adname":"天河区"},{"id":"B00141W4GZ","name":"天河区图书馆(华港分馆)","type":"科教文化服务;图书馆;图书馆","typecode":"140500","address":"华港南街18号华港商务广场3层","location":"113.357782,23.131994","transed_lng":113.35229484204888,"transed_lat":23.134525333123463,"cityname":"广州市","adname":"天河区"},{"id":"B00141S9NK","name":"广东工业大学图书馆(大学城中环西路)","type":"科教文化服务;图书馆;图书馆","typecode":"140500","address":"广州大学城广东工业大学内","location":"113.395626,23.037613","transed_lng":113.39010768705899,"transed_lat":23.04014644453687,"cityname":"广州市","adname":"番禺区"},{"id":"B0FFF3V1S8","name":"南富社区法制阅览室","type":"科教文化服务;图书馆;图书馆","typecode":"140500","address":"怡景大街81号","location":"113.354703,23.116551","transed_lng":113.34922208571024,"transed_lat":23.11909350846011,"cityname":"广州市","adname":"天河区"},{"id":"B0FFFA06TM","name":"广州少年儿童图书馆(元岗分馆)","type":"科教文化服务;图书馆;图书馆","typecode":"140500","address":"上元岗大街与下元岗大街交叉口东100米","location":"113.343411,23.176397","transed_lng":113.33794676788995,"transed_lat":23.178935560195583,"cityname":"广州市","adname":"天河区"},{"id":"B0FFGL1EPS","name":"番禺图书馆(福田坊大街)","type":"科教文化服务;图书馆;图书馆","typecode":"140500","address":"三径坊大街与北街坊大街交叉口西南200米","location":"113.380034,22.963669","transed_lng":113.37452945778129,"transed_lat":22.966243708871808,"cityname":"广州市","adname":"番禺区"},{"id":"B0FFGJ7Y9Y","name":"广州市红十字会医院图书馆","type":"科教文化服务;图书馆;图书馆","typecode":"140500","address":"同福中路396号","location":"113.261719,23.103719","transed_lng":113.25639276354194,"transed_lat":23.106407352252592,"cityname":"广州市","adname":"海珠区"},{"id":"B0FFGJ9352","name":"中山大学南校区-玉书之家","type":"科教文化服务;图书馆;图书馆","typecode":"140500","address":"新港西路135号中山大学西门蒲园区612栋105","location":"113.293637,23.094314","transed_lng":113.28827530119479,"transed_lat":23.09697462602285,"cityname":"广州市","adname":"海珠区"},{"id":"B0FFGZGYON","name":"广东技术师范学院北校区图书电教楼","type":"科教文化服务;图书馆;图书馆","typecode":"140500","address":"广园西路183号广东技术师范学院(北校区)","location":"113.253970,23.157479","transed_lng":113.24864335938378,"transed_lat":23.160148145223143,"cityname":"广州市","adname":"越秀区"},{"id":"B0FFFW74PT","name":"广州图书馆24小时自助图书馆","type":"科教文化服务;图书馆;图书馆","typecode":"140500","address":"沿沙东路与新虹路交叉口西北50米","location":"113.303282,23.032026","transed_lng":113.29790775617212,"transed_lat":23.03469791319148,"cityname":"广州市","adname":"番禺区"},{"id":"B0FFHJFEM2","name":"暨南大学番禺校区图书馆","type":"科教文化服务;图书馆;图书馆","typecode":"140500","address":"新造镇兴业大道中855号","location":"113.413869,23.017382","transed_lng":113.40835640577289,"transed_lat":23.019926249498287,"cityname":"广州市","adname":"番禺区"},{"id":"B0FFFDW9P3","name":"华南农业大学-电子阅览室","type":"科教文化服务;图书馆;图书馆","typecode":"140500","address":"金慧街88号","location":"113.353238,23.157234","transed_lng":113.34775685481021,"transed_lat":23.159762718427448,"cityname":"广州市","adname":"天河区"},{"id":"B0FFHMTWX2","name":"猎德街凯旋新世界电子阅览室","type":"科教文化服务;图书馆;图书馆","typecode":"140500","address":"珠江新城海明路清风北街2号之一(春田幼儿园旁边)","location":"113.338941,23.116285","transed_lng":113.3334896600626,"transed_lat":23.11885541859614,"cityname":"广州市","adname":"天河区"},{"id":"B0FFFDLCB1","name":"广东农工商职业技术学院图书馆","type":"科教文化服务;图书馆;图书馆","typecode":"140500","address":"粤垦路198号","location":"113.332000,23.158050","transed_lng":113.32655986568754,"transed_lat":23.16061688566126,"cityname":"广州市","adname":"天河区"},{"id":"B0FFGL1CJT","name":"番禺区图书馆洛浦街分馆","type":"科教文化服务;图书馆;图书馆","typecode":"140500","address":"新浦南路西50米","location":"113.300407,23.028300","transed_lng":113.29503820401897,"transed_lat":23.03097825294206,"cityname":"广州市","adname":"番禺区"},{"id":"B0FFFDZZMT","name":"广东外语外贸大学大学城校区图书馆","type":"科教文化服务;图书馆;图书馆","typecode":"140500","address":"大学城中环东路","location":"113.397062,23.065446","transed_lng":113.39154153378736,"transed_lat":23.06796716648098,"cityname":"广州市","adname":"番禺区"},{"id":"B00141R5MI","name":"市桥街西片社区综合图书室","type":"科教文化服务;图书馆;图书馆","typecode":"140500","address":"北桥路三街与西丽路交叉口西北150米","location":"113.353231,22.938040","transed_lng":113.3477647897798,"transed_lat":22.94066099405609,"cityname":"广州市","adname":"番禺区"},{"id":"B00141SBEE","name":"市桥街东片社区综合图书室","type":"科教文化服务;图书馆;图书馆","typecode":"140500","address":"清河东路11号","location":"113.371969,22.935098","transed_lng":113.3664748888069,"transed_lat":22.937693276577047,"cityname":"广州市","adname":"番禺区"},{"id":"B0FFH5SBE1","name":"素社家园图书馆","type":"科教文化服务;图书馆;图书馆","typecode":"140500","address":"基立下道54号","location":"113.275666,23.104161","transed_lng":113.2703281932596,"transed_lat":23.106839407739127,"cityname":"广州市","adname":"海珠区"},{"id":"B0FFHLU4DK","name":"沥滘图书馆","type":"科教文化服务;图书馆;图书馆","typecode":"140500","address":"沥滘东街与沥滘北村东大街交叉口南50米","location":"113.315400,23.059673","transed_lng":113.31000050037073,"transed_lat":23.062311619225298,"cityname":"广州市","adname":"海珠区"},{"id":"B00141KZD7","name":"越秀区图书馆人民分馆","type":"科教文化服务;图书馆;图书馆","typecode":"140500","address":"太平沙84号","location":"113.268124,23.116493","transed_lng":113.26279250209545,"transed_lat":23.119172478220218,"cityname":"广州市","adname":"越秀区"},{"id":"B0FFH6MR0D","name":"青凤社区文化室","type":"科教文化服务;图书馆;图书馆","typecode":"140500","address":"青凤大街4-2号附近","location":"113.271542,23.094519","transed_lng":113.26620899612557,"transed_lat":23.09720500576514,"cityname":"广州市","adname":"海珠区"},{"id":"B0FFHEK688","name":"少年儿童图书馆(长兴分馆)","type":"科教文化服务;图书馆;图书馆","typecode":"140500","address":"长湴村长湴大街长兴街2号","location":"113.352569,23.169848","transed_lng":113.347088172595,"transed_lat":23.172372994434042,"cityname":"广州市","adname":"天河区"},{"id":"B0FFHXOIN9","name":"海珠区自助图书馆","type":"科教文化服务;图书馆;图书馆","typecode":"140500","address":"樱花街30号附近","location":"113.311479,23.102002","transed_lng":113.3060844297719,"transed_lat":23.10462996388242,"cityname":"广州市","adname":"海珠区"},{"id":"B0FFH6G9M8","name":"赤岗街绘本图书馆","type":"科教文化服务;图书馆;图书馆","typecode":"140500","address":"艺洲路853号附近","location":"113.329473,23.101924","transed_lng":113.3240418647062,"transed_lat":23.104518236183747,"cityname":"广州市","adname":"海珠区"},{"id":"B00140HWW4","name":"沙面社区电子阅览室","type":"科教文化服务;图书馆;图书馆","typecode":"140500","address":"沙面北街61号","location":"113.244653,23.107955","transed_lng":113.23933037150843,"transed_lat":23.110643791599884,"cityname":"广州市","adname":"荔湾区"},{"id":"B0FFGC3HMA","name":"南洲街道社区图书室","type":"科教文化服务;图书馆;图书馆","typecode":"140500","address":"罗马家中盛路12号","location":"113.319619,23.060359","transed_lng":113.31421091688101,"transed_lat":23.06298945879569,"cityname":"广州市","adname":"海珠区"},{"id":"B00140U2AI","name":"中山大学广州南校区伍舜德图书馆","type":"科教文化服务;图书馆;图书馆","typecode":"140500","address":"新港西路135号中山大学西北区576","location":"113.298636,23.100321","transed_lng":113.29326547570165,"transed_lat":23.10297150657893,"cityname":"广州市","adname":"海珠区"},{"id":"B00141R6PH","name":"康乐社区书屋","type":"科教文化服务;图书馆;图书馆","typecode":"140500","address":"康乐园九街与康乐园八街交叉口西南200米","location":"113.359132,22.945888","transed_lng":113.35365532377227,"transed_lat":22.94849622080001,"cityname":"广州市","adname":"番禺区"},{"id":"B00141R15U","name":"农家书屋(隆基大街)","type":"科教文化服务;图书馆;图书馆","typecode":"140500","address":"隆基大街","location":"113.371292,22.940092","transed_lng":113.36579837197668,"transed_lat":22.942685968089734,"cityname":"广州市","adname":"番禺区"},{"id":"B0FFFFYO46","name":"广东金融学院-图书馆综合馆","type":"科教文化服务;图书馆;图书馆","typecode":"140500","address":"迎福路527号","location":"113.381524,23.198511","transed_lng":113.37600208852626,"transed_lat":23.200987599290272,"cityname":"广州市","adname":"天河区"},{"id":"B0FFGFSFZT","name":"河滨小学图书馆","type":"科教文化服务;图书馆;图书馆","typecode":"140500","address":"城中路2","location":"113.589251,23.540011","transed_lng":113.58414309897951,"transed_lat":23.54278191258118,"cityname":"广州市","adname":"从化区"},{"id":"B0FFG1NV0H","name":"广州图书馆24小时自助图书馆文化公园服务点","type":"科教文化服务;图书馆;图书馆","typecode":"140500","address":"人民高架路与内环路入口交叉口北150米","location":"113.250462,23.109483","transed_lng":113.2451392449352,"transed_lat":23.112171657772823,"cityname":"广州市","adname":"荔湾区"},{"id":"B0FFGL0WV4","name":"金版教育图书","type":"科教文化服务;图书馆;图书馆","typecode":"140500","address":"向阳街与镇北路交叉口南50米","location":"113.593949,23.554000","transed_lng":113.58884340615685,"transed_lat":23.556772569338396,"cityname":"广州市","adname":"从化区"},{"id":"B0FFF368RL","name":"简haus","type":"科教文化服务;图书馆;图书馆","typecode":"140500","address":"小洲村西园三巷6号","location":"113.357427,23.060158","transed_lng":113.35194533212824,"transed_lat":23.062719726903506,"cityname":"广州市","adname":"海珠区"},{"id":"B0FFG8EHQS","name":"广州少年图书馆校园智慧图书馆(总馆)","type":"科教文化服务;图书馆;图书馆","typecode":"140500","address":"中山四路42号农讲所地铁站c出口","location":"113.275558,23.126926","transed_lng":113.27021878107391,"transed_lat":23.129595211999355,"cityname":"广州市","adname":"越秀区"},{"id":"B00141PQOA","name":"广东南华工商职业学院图书馆","type":"科教文化服务;图书馆;图书馆","typecode":"140500","address":"长江路28号附近","location":"113.415016,23.071385","transed_lng":113.4095005359974,"transed_lat":23.07390671633377,"cityname":"广州市","adname":"黄埔区"},{"id":"B0FFFDCZMA","name":"华南师范大学大学城校区图书馆","type":"科教文化服务;图书馆;图书馆","typecode":"140500","address":"大学城外环西路378号华南师范大学大学城校区","location":"113.380592,23.051021","transed_lng":113.37508100109449,"transed_lat":23.053557562394705,"cityname":"广州市","adname":"番禺区"},{"id":"B0FFF3URHY","name":"广州中医药大学三元里校区图书馆","type":"科教文化服务;图书馆;图书馆","typecode":"140500","address":"机场路12号大院-5","location":"113.265546,23.154886","transed_lng":113.26021388560015,"transed_lat":23.157551803661722,"cityname":"广州市","adname":"白云区"},{"id":"B0FFGFT206","name":"私立华联大学图书阅览厅","type":"科教文化服务;图书馆;图书馆","typecode":"140500","address":"合景路99号","location":"113.405331,23.157177","transed_lng":113.39980474758387,"transed_lat":23.159660280292904,"cityname":"广州市","adname":"天河区"},{"id":"B0FFF0EZL7","name":"广州图书馆车陂广氮分馆","type":"科教文化服务;图书馆;图书馆","typecode":"140500","address":"车陂路广氮新村","location":"113.398500,23.126528","transed_lng":113.39297519456024,"transed_lat":23.129023501746218,"cityname":"广州市","adname":"天河区"},{"id":"B0FFH04ZDB","name":"华南理工大学图书馆(五山校区)","type":"科教文化服务;图书馆;图书馆","typecode":"140500","address":"中山东路与中山路交叉口东南150米","location":"113.348254,23.150534","transed_lng":113.34278233090996,"transed_lat":23.15307383817777,"cityname":"广州市","adname":"天河区"},{"id":"B0FFFAGYPE","name":"从化市图书馆2期","type":"科教文化服务;图书馆;图书馆","typecode":"140500","address":"从化大道与河滨北路交叉口西南100米","location":"113.606974,23.555946","transed_lng":113.601871908119,"transed_lat":23.55871713312497,"cityname":"广州市","adname":"从化区"},{"id":"B00141JGVW","name":"广州图书馆","type":"科教文化服务;图书馆;图书馆","typecode":"140500","address":"珠江东路4号","location":"113.326073,23.116225","transed_lng":113.3206478922697,"transed_lat":23.118819846723888,"cityname":"广州市","adname":"天河区"},{"id":"B001402577","name":"广东省立中山图书馆","type":"科教文化服务;图书馆;图书馆","typecode":"140500","address":"文明路213号","location":"113.276427,23.124169","transed_lng":113.2710870175621,"transed_lat":23.12683849807754,"cityname":"广州市","adname":"越秀区"},{"id":"B00140DW4D","name":"海珠区图书馆","type":"科教文化服务;图书馆;图书馆","typecode":"140500","address":"宝岗大道39号","location":"113.26207,23.101016","transed_lng":113.2567437440062,"transed_lat":23.10370531076362,"cityname":"广州市","adname":"海珠区"},{"id":"B0FFF9ZH4Y","name":"广州市白云区图书馆","type":"科教文化服务;图书馆;图书馆","typecode":"140500","address":"机场路1035号","location":"113.259828,23.187838","transed_lng":113.25449711617196,"transed_lat":23.19049409623896,"cityname":"广州市","adname":"白云区"},{"id":"B00140UERT","name":"花都图书馆","type":"科教文化服务;图书馆;图书馆","typecode":"140500","address":"宝华路38号","location":"113.216596,23.389769","transed_lng":113.21123631922909,"transed_lat":23.39235056593022,"cityname":"广州市","adname":"花都区"},{"id":"B001401C11","name":"天河区图书馆(龙口西馆)","type":"科教文化服务;图书馆;图书馆","typecode":"140500","address":"龙口西路80号(岗顶太平洋电脑城对面)","location":"113.337187,23.136145","transed_lng":113.33173782091269,"transed_lat":23.138710682096225,"cityname":"广州市","adname":"天河区"},{"id":"B00140U2N9","name":"中山大学南校区图书馆","type":"科教文化服务;图书馆;图书馆","typecode":"140500","address":"新港西路135号中山大学南校区","location":"113.299708,23.097531","transed_lng":113.2943357836061,"transed_lat":23.10018095752628,"cityname":"广州市","adname":"海珠区"},{"id":"B00140HPYW","name":"荔湾图书馆","type":"科教文化服务;图书馆;图书馆","typecode":"140500","address":"周门南路29号","location":"113.238094,23.129016","transed_lng":113.23276837970553,"transed_lat":23.131694128262886,"cityname":"广州市","adname":"荔湾区"},{"id":"B00140US6R","name":"暨南大学图书馆广场","type":"科教文化服务;图书馆;图书馆","typecode":"140500","address":"黄埔大道西601号暨南大学","location":"113.347686,23.128654","transed_lng":113.34221688279453,"transed_lat":23.131203522931163,"cityname":"广州市","adname":"天河区"},{"id":"B00140UD7P","name":"暨南大学图书馆","type":"科教文化服务;图书馆;图书馆","typecode":"140500","address":"黄埔大道西601号暨南大学","location":"113.347681,23.129572","transed_lng":113.34221182951478,"transed_lat":23.132121162342585,"cityname":"广州市","adname":"天河区"},{"id":"B00141JB6K","name":"从化图书馆","type":"科教文化服务;图书馆;图书馆","typecode":"140500","address":"河滨北路616号","location":"113.606576,23.554758","transed_lng":113.60147398942765,"transed_lat":23.557529242810062,"cityname":"广州市","adname":"从化区"},{"id":"B00140USLN","name":"华南农业大学图书馆","type":"科教文化服务;图书馆;图书馆","typecode":"140500","address":"五山街五山路483号华南农业大学内(近第三教学楼)","location":"113.353689,23.157631","transed_lng":113.34820703760818,"transed_lat":23.160158816989558,"cityname":"广州市","adname":"天河区"},{"id":"B0FFGLWMRE","name":"黄埔区图书馆总馆(香雪馆)","type":"科教文化服务;图书馆;图书馆","typecode":"140500","address":"开萝大道4号","location":"113.501232,23.175472","transed_lng":113.49592584798955,"transed_lat":23.178136399241627,"cityname":"广州市","adname":"黄埔区"},{"id":"B00141IJXR","name":"广东外语外贸大学北校区-图书馆","type":"科教文化服务;图书馆;图书馆","typecode":"140500","address":"白云大道北2号","location":"113.290621,23.198905","transed_lng":113.28525703327148,"transed_lat":23.20152895819787,"cityname":"广州市","adname":"白云区"},{"id":"B00140UDDP","name":"黄埔图书馆(大沙北路)","type":"科教文化服务;图书馆;图书馆","typecode":"140500","address":"大沙北路301号","location":"113.460496,23.109642","transed_lng":113.45506111922946,"transed_lat":23.112217824435103,"cityname":"广州市","adname":"黄埔区"},{"id":"B00140BMNN","name":"广东省科技图书馆","type":"科教文化服务;图书馆;图书馆","typecode":"140500","address":"先烈中路100号大院9号","location":"113.299411,23.140058","transed_lng":113.29403643909188,"transed_lat":23.142691132669366,"cityname":"广州市","adname":"越秀区"},{"id":"B00141ICCA","name":"廉政书屋","type":"科教文化服务;图书馆;图书馆","typecode":"140500","address":"286县道光辉村文化室附近","location":"113.562986,23.618291","transed_lng":113.55783559387905,"transed_lat":23.621041767453594,"cityname":"广州市","adname":"从化区"},{"id":"B00140V16R","name":"增城图书馆(荔景大道辅路)","type":"科教文化服务;图书馆;图书馆","typecode":"140500","address":"荔景大道100号(近府前路)","location":"113.816505,23.284200","transed_lng":113.81141257189446,"transed_lat":23.28689426860135,"cityname":"广州市","adname":"增城区"},{"id":"B00140UTCH","name":"广州美术学院图书馆","type":"科教文化服务;图书馆;图书馆","typecode":"140500","address":"美术学院内","location":"113.279211,23.093166","transed_lng":113.27386988740942,"transed_lat":23.095845428277347,"cityname":"广州市","adname":"海珠区"},{"id":"B00140UD7T","name":"广东技术师范大学图书馆","type":"科教文化服务;图书馆;图书馆","typecode":"140500","address":"中山大道西293号技术师范学院(近中山路)","location":"113.371557,23.131768","transed_lng":113.36604996219778,"transed_lat":23.134280299847497,"cityname":"广州市","adname":"天河区"},{"id":"B00140USXU","name":"广州体育学院图书馆","type":"科教文化服务;图书馆;图书馆","typecode":"140500","address":"广州大道中1268号(近体育中心)","location":"113.317150,23.143571","transed_lng":113.31174129932401,"transed_lat":23.146171724267198,"cityname":"广州市","adname":"天河区"},{"id":"B00140U05W","name":"市立中山图书馆旧址","type":"科教文化服务;图书馆;图书馆","typecode":"140500","address":"文德北路81号","location":"113.270793,23.124261","transed_lng":113.26545869016275,"transed_lat":23.12693537559303,"cityname":"广州市","adname":"越秀区"},{"id":"B00141K5GS","name":"新塘图书馆","type":"科教文化服务;图书馆;图书馆","typecode":"140500","address":"府前路32号","location":"113.620124,23.116324","transed_lng":113.61504715771332,"transed_lat":23.11918210498606,"cityname":"广州市","adname":"增城区"},{"id":"B00140NSKW","name":"广州市越秀区图书馆(署前路)","type":"科教文化服务;图书馆;图书馆","typecode":"140500","address":"署前路8号1-6楼","location":"113.295432,23.122891","transed_lng":113.29006542104538,"transed_lat":23.125537203339732,"cityname":"广州市","adname":"越秀区"},{"id":"B00140W605","name":"中国国际音像博览会","type":"科教文化服务;展览馆;展览馆|科教文化服务;图书馆;图书馆","typecode":"140200|140500","address":"机场路124号音像城","location":"113.262411,23.163194","transed_lng":113.25708037244826,"transed_lat":23.16585826259742,"cityname":"广州市","adname":"白云区"},{"id":"B00141JGVW","name":"广州图书馆","type":"科教文化服务;图书馆;图书馆","typecode":"140500","address":"珠江东路4号","location":"113.326073,23.116225","transed_lng":113.3206478922697,"transed_lat":23.118819846723888,"cityname":"广州市","adname":"天河区"},{"id":"B001402577","name":"广东省立中山图书馆","type":"科教文化服务;图书馆;图书馆","typecode":"140500","address":"文明路213号","location":"113.276427,23.124169","transed_lng":113.2710870175621,"transed_lat":23.12683849807754,"cityname":"广州市","adname":"越秀区"},{"id":"B00140DW4D","name":"海珠区图书馆","type":"科教文化服务;图书馆;图书馆","typecode":"140500","address":"宝岗大道39号","location":"113.26207,23.101016","transed_lng":113.2567437440062,"transed_lat":23.10370531076362,"cityname":"广州市","adname":"海珠区"},{"id":"B0FFF9ZH4Y","name":"广州市白云区图书馆","type":"科教文化服务;图书馆;图书馆","typecode":"140500","address":"机场路1035号","location":"113.259828,23.187838","transed_lng":113.25449711617196,"transed_lat":23.19049409623896,"cityname":"广州市","adname":"白云区"},{"id":"B00140UERT","name":"花都图书馆","type":"科教文化服务;图书馆;图书馆","typecode":"140500","address":"宝华路38号","location":"113.216596,23.389769","transed_lng":113.21123631922909,"transed_lat":23.39235056593022,"cityname":"广州市","adname":"花都区"},{"id":"B001401C11","name":"天河区图书馆(龙口西馆)","type":"科教文化服务;图书馆;图书馆","typecode":"140500","address":"龙口西路80号(岗顶太平洋电脑城对面)","location":"113.337187,23.136145","transed_lng":113.33173782091269,"transed_lat":23.138710682096225,"cityname":"广州市","adname":"天河区"},{"id":"B00140U2N9","name":"中山大学南校区图书馆","type":"科教文化服务;图书馆;图书馆","typecode":"140500","address":"新港西路135号中山大学南校区","location":"113.299708,23.097531","transed_lng":113.2943357836061,"transed_lat":23.10018095752628,"cityname":"广州市","adname":"海珠区"},{"id":"B00140HPYW","name":"荔湾图书馆","type":"科教文化服务;图书馆;图书馆","typecode":"140500","address":"周门南路29号","location":"113.238094,23.129016","transed_lng":113.23276837970553,"transed_lat":23.131694128262886,"cityname":"广州市","adname":"荔湾区"},{"id":"B00140US6R","name":"暨南大学图书馆广场","type":"科教文化服务;图书馆;图书馆","typecode":"140500","address":"黄埔大道西601号暨南大学","location":"113.347686,23.128654","transed_lng":113.34221688279453,"transed_lat":23.131203522931163,"cityname":"广州市","adname":"天河区"},{"id":"B00140UD7P","name":"暨南大学图书馆","type":"科教文化服务;图书馆;图书馆","typecode":"140500","address":"黄埔大道西601号暨南大学","location":"113.347681,23.129572","transed_lng":113.34221182951478,"transed_lat":23.132121162342585,"cityname":"广州市","adname":"天河区"},{"id":"B00141JB6K","name":"从化图书馆","type":"科教文化服务;图书馆;图书馆","typecode":"140500","address":"河滨北路616号","location":"113.606576,23.554758","transed_lng":113.60147398942765,"transed_lat":23.557529242810062,"cityname":"广州市","adname":"从化区"},{"id":"B00140USLN","name":"华南农业大学图书馆","type":"科教文化服务;图书馆;图书馆","typecode":"140500","address":"五山街五山路483号华南农业大学内(近第三教学楼)","location":"113.353689,23.157631","transed_lng":113.34820703760818,"transed_lat":23.160158816989558,"cityname":"广州市","adname":"天河区"},{"id":"B0FFGLWMRE","name":"黄埔区图书馆总馆(香雪馆)","type":"科教文化服务;图书馆;图书馆","typecode":"140500","address":"开萝大道4号","location":"113.501232,23.175472","transed_lng":113.49592584798955,"transed_lat":23.178136399241627,"cityname":"广州市","adname":"黄埔区"},{"id":"B00141IJXR","name":"广东外语外贸大学北校区-图书馆","type":"科教文化服务;图书馆;图书馆","typecode":"140500","address":"白云大道北2号","location":"113.290621,23.198905","transed_lng":113.28525703327148,"transed_lat":23.20152895819787,"cityname":"广州市","adname":"白云区"},{"id":"B00140UDDP","name":"黄埔图书馆(大沙北路)","type":"科教文化服务;图书馆;图书馆","typecode":"140500","address":"大沙北路301号","location":"113.460496,23.109642","transed_lng":113.45506111922946,"transed_lat":23.112217824435103,"cityname":"广州市","adname":"黄埔区"},{"id":"B00140BMNN","name":"广东省科技图书馆","type":"科教文化服务;图书馆;图书馆","typecode":"140500","address":"先烈中路100号大院9号","location":"113.299411,23.140058","transed_lng":113.29403643909188,"transed_lat":23.142691132669366,"cityname":"广州市","adname":"越秀区"},{"id":"B00141ICCA","name":"廉政书屋","type":"科教文化服务;图书馆;图书馆","typecode":"140500","address":"286县道光辉村文化室附近","location":"113.562986,23.618291","transed_lng":113.55783559387905,"transed_lat":23.621041767453594,"cityname":"广州市","adname":"从化区"},{"id":"B00140V16R","name":"增城图书馆(荔景大道辅路)","type":"科教文化服务;图书馆;图书馆","typecode":"140500","address":"荔景大道100号(近府前路)","location":"113.816505,23.284200","transed_lng":113.81141257189446,"transed_lat":23.28689426860135,"cityname":"广州市","adname":"增城区"},{"id":"B00140UTCH","name":"广州美术学院图书馆","type":"科教文化服务;图书馆;图书馆","typecode":"140500","address":"美术学院内","location":"113.279211,23.093166","transed_lng":113.27386988740942,"transed_lat":23.095845428277347,"cityname":"广州市","adname":"海珠区"},{"id":"B00140UD7T","name":"广东技术师范大学图书馆","type":"科教文化服务;图书馆;图书馆","typecode":"140500","address":"中山大道西293号技术师范学院(近中山路)","location":"113.371557,23.131768","transed_lng":113.36604996219778,"transed_lat":23.134280299847497,"cityname":"广州市","adname":"天河区"},{"id":"B00140USXU","name":"广州体育学院图书馆","type":"科教文化服务;图书馆;图书馆","typecode":"140500","address":"广州大道中1268号(近体育中心)","location":"113.317150,23.143571","transed_lng":113.31174129932401,"transed_lat":23.146171724267198,"cityname":"广州市","adname":"天河区"},{"id":"B00140U05W","name":"市立中山图书馆旧址","type":"科教文化服务;图书馆;图书馆","typecode":"140500","address":"文德北路81号","location":"113.270793,23.124261","transed_lng":113.26545869016275,"transed_lat":23.12693537559303,"cityname":"广州市","adname":"越秀区"},{"id":"B00141K5GS","name":"新塘图书馆","type":"科教文化服务;图书馆;图书馆","typecode":"140500","address":"府前路32号","location":"113.620124,23.116324","transed_lng":113.61504715771332,"transed_lat":23.11918210498606,"cityname":"广州市","adname":"增城区"},{"id":"B00140NSKW","name":"广州市越秀区图书馆(署前路)","type":"科教文化服务;图书馆;图书馆","typecode":"140500","address":"署前路8号1-6楼","location":"113.295432,23.122891","transed_lng":113.29006542104538,"transed_lat":23.125537203339732,"cityname":"广州市","adname":"越秀区"},{"id":"B00140W605","name":"中国国际音像博览会","type":"科教文化服务;展览馆;展览馆|科教文化服务;图书馆;图书馆","typecode":"140200|140500","address":"机场路124号音像城","location":"113.262411,23.163194","transed_lng":113.25708037244826,"transed_lat":23.16585826259742,"cityname":"广州市","adname":"白云区"},{"id":"B00140TE8Q","name":"五山街文化站图书馆","type":"科教文化服务;图书馆;图书馆","typecode":"140500","address":"岳洲路39号五山街道办事处综合楼7-9层","location":"113.353518,23.152548","transed_lng":113.3480366841517,"transed_lat":23.155078075826445,"cityname":"广州市","adname":"天河区"},{"id":"B0FFHN2FM8","name":"广州市番禺区洛浦街图书室","type":"科教文化服务;图书馆;图书馆","typecode":"140500","address":"东乡二街与民乐路交叉口东150米","location":"113.281235,23.041540","transed_lng":113.27589485387841,"transed_lat":23.04423912783938,"cityname":"广州市","adname":"番禺区"},{"id":"B0FFH8DD4X","name":"图书馆(第一教学楼东南)","type":"科教文化服务;图书馆;图书馆","typecode":"140500","address":"环岛路与长江一路交叉口西北150米","location":"113.607628,23.528124","transed_lng":113.6025277421616,"transed_lat":23.530894314224724,"cityname":"广州市","adname":"从化区"},{"id":"B0FFHFCCZK","name":"华南理工大学自然科学图书馆","type":"科教文化服务;图书馆;图书馆","typecode":"140500","address":"五山路381号华南理工大学北区","location":"113.344397,23.165673","transed_lng":113.3389315958103,"transed_lat":23.16821383990351,"cityname":"广州市","adname":"天河区"},{"id":"B0FFHA22RR","name":"广东生态工程职业学院图书馆","type":"科教文化服务;图书馆;图书馆","typecode":"140500","address":"天源路与广汕一路交叉口北150米","location":"113.375514,23.192572","transed_lng":113.36999824649965,"transed_lat":23.195056493848213,"cityname":"广州市","adname":"天河区"},{"id":"B0FFG9IORM","name":"中山大学南方学院-图书馆","type":"科教文化服务;图书馆;图书馆","typecode":"140500","address":"温泉大道882号中山大学南方学院内","location":"113.679177,23.632762","transed_lng":113.67399069815491,"transed_lat":23.63543612580585,"cityname":"广州市","adname":"从化区"},{"id":"B00140AJH2","name":"云鹤社区阅览室","type":"科教文化服务;图书馆;图书馆","typecode":"140500","address":"云鹤南街23号","location":"113.305197,23.137337","transed_lng":113.2998121065575,"transed_lat":23.139961640263117,"cityname":"广州市","adname":"越秀区"},{"id":"B0FFIR4YOR","name":"广东省立中山图书馆-台港澳文献阅览室","type":"科教文化服务;图书馆;图书馆","typecode":"140500","address":"文明路213-215号附近","location":"113.276902,23.124458","transed_lng":113.27156146860295,"transed_lat":23.127126918171026,"cityname":"广州市","adname":"越秀区"},{"id":"B0FFFDN45J","name":"番禺区图书馆(沙湾镇分馆)","type":"科教文化服务;图书馆;图书馆","typecode":"140500","address":"沙湾南汇源直街","location":"113.337984,22.902787","transed_lng":113.33254903721912,"transed_lat":22.905449873915252,"cityname":"广州市","adname":"番禺区"},{"id":"B0FFHDS5BK","name":"广东体育职业技术学院图书馆","type":"科教文化服务;图书馆;图书馆","typecode":"140500","address":"长兴路东338","location":"113.361839,23.167226","transed_lng":113.35634297240321,"transed_lat":23.169737375944152,"cityname":"广州市","adname":"天河区"},{"id":"B0FFGO9ZKP","name":"广东省轻工业技师学院图书馆","type":"科教文化服务;图书馆;图书馆","typecode":"140500","address":"石榴岗路七星岗1号","location":"113.343217,23.091860","transed_lng":113.33775890655865,"transed_lat":23.09443262951033,"cityname":"广州市","adname":"海珠区"},{"id":"B0FFHGVW5K","name":"广州图书馆万科社区营地分馆","type":"科教文化服务;图书馆;图书馆","typecode":"140500","address":"天和北路","location":"113.328836,23.140516","transed_lng":113.32340355411328,"transed_lat":23.1430957917175,"cityname":"广州市","adname":"天河区"},{"id":"B00141SXU3","name":"广东邮电职业技术学院图书馆","type":"科教文化服务;图书馆;图书馆","typecode":"140500","address":"中山大道西191号","location":"113.364800,23.135178","transed_lng":113.35930175218046,"transed_lat":23.137697666318083,"cityname":"广州市","adname":"天河区"},{"id":"B0FFHK2FNM","name":"中国数字图书馆(广州军区广州总医院分馆)","type":"科教文化服务;图书馆;图书馆","typecode":"140500","address":"流花路107号附近","location":"113.253492,23.142245","transed_lng":113.24816650147201,"transed_lat":23.14492018160033,"cityname":"广州市","adname":"越秀区"},{"id":"B0FFFAIUPE","name":"番禺区新造镇北约村文化阅览室","type":"科教文化服务;图书馆;图书馆","typecode":"140500","address":"北约大道三巷1","location":"113.427190,23.034942","transed_lng":113.42168985549331,"transed_lat":23.037489610070768,"cityname":"广州市","adname":"番禺区"},{"id":"B00141KDVO","name":"沙湾镇南村图书阅览室","type":"科教文化服务;图书馆;图书馆","typecode":"140500","address":"汇源直街9号附近","location":"113.338606,22.902662","transed_lng":113.33316980359406,"transed_lat":22.905323763114648,"cityname":"广州市","adname":"番禺区"},{"id":"B0FFFAEL61","name":"广州图书馆洛浦街分馆电子阅览室(海龙湾西)","type":"科教文化服务;图书馆;图书馆","typecode":"140500","address":"新浦南路西50米","location":"113.300399,23.028305","transed_lng":113.29503021791388,"transed_lat":23.030983263730278,"cityname":"广州市","adname":"番禺区"},{"id":"B0FFFDCZL9","name":"星海音乐学院大学城校区图书馆","type":"科教文化服务;图书馆;图书馆","typecode":"140500","address":"外环西路398号星海音乐学院大学城校区","location":"113.381571,23.057445","transed_lng":113.37605872692212,"transed_lat":23.059977970236137,"cityname":"广州市","adname":"番禺区"},{"id":"B0FFHJTCYV","name":"广东工贸职业技术学院东区图书馆","type":"科教文化服务;图书馆;图书馆","typecode":"140500","address":"广州大道北664号附近","location":"113.321045,23.172685","transed_lng":113.31562639345424,"transed_lat":23.17526715114132,"cityname":"广州市","adname":"天河区"},{"id":"B0FFGBBD2L","name":"广州大学华软软件学院图书馆","type":"科教文化服务;图书馆;图书馆","typecode":"140500","address":"广州大学华软软件学院内","location":"113.496525,23.450492","transed_lng":113.49118366068356,"transed_lat":23.45307308330369,"cityname":"广州市","adname":"从化区"},{"id":"B00141R62V","name":"仲恺农业工程学院海珠校区图书馆","type":"科教文化服务;图书馆;图书馆","typecode":"140500","address":"仲恺路501号","location":"113.282458,23.106678","transed_lng":113.2771119106162,"transed_lat":23.109348228070964,"cityname":"广州市","adname":"海珠区"},{"id":"B00141QZFG","name":"中山大学图书馆生物学科图书分馆","type":"科教文化服务;图书馆;图书馆","typecode":"140500","address":"中大西南区415号","location":"113.296704,23.092775","transed_lng":113.2913373080398,"transed_lat":23.09543165912242,"cityname":"广州市","adname":"海珠区"},{"id":"B0FFG58B1O","name":"广州医科大学图书馆(番禺校区)","type":"科教文化服务;学校;高等院校|科教文化服务;图书馆;图书馆","typecode":"141201|140500","address":"景秀路44号","location":"113.426821,23.044299","transed_lng":113.42131971912312,"transed_lat":23.04684217652436,"cityname":"广州市","adname":"番禺区"},{"id":"B0FFGC3WPI","name":"兴仁书院同济·满天星公益图书馆","type":"科教文化服务;图书馆;图书馆","typecode":"140500","address":"龙潭村东约书院横街1号","location":"113.335009,23.080289","transed_lng":113.32956801768655,"transed_lat":23.082881746673333,"cityname":"广州市","adname":"海珠区"},{"id":"B0FFFDZWVX","name":"广州中医药大学大学城校区图书馆","type":"科教文化服务;图书馆;图书馆","typecode":"140500","address":"大学城外环东路232号","location":"113.406529,23.058677","transed_lng":113.40100985926809,"transed_lat":23.06120088237028,"cityname":"广州市","adname":"番禺区"},{"id":"B00141KFBF","name":"广东工业大学图书馆(龙腾路)","type":"科教文化服务;图书馆;图书馆","typecode":"140500","address":"迎龙路161号","location":"113.361587,23.195923","transed_lng":113.35608939307318,"transed_lat":23.198424065584422,"cityname":"广州市","adname":"天河区"},{"id":"B0FFHA247I","name":"广东省对外贸易职业技术学校图书馆","type":"科教文化服务;图书馆;图书馆","typecode":"140500","address":"龙洞东路297号附近","location":"113.370544,23.198839","transed_lng":113.36503361461476,"transed_lat":23.2013268975533,"cityname":"广州市","adname":"天河区"},{"id":"B00141RAU5","name":"番禺区图书馆市桥街东片社区分馆","type":"科教文化服务;图书馆;图书馆","typecode":"140500","address":"清河东路11号","location":"113.371968,22.935098","transed_lng":113.36647389001017,"transed_lat":22.937693277753652,"cityname":"广州市","adname":"番禺区"},{"id":"B0FFH9ARVQ","name":"广东省食品药品职业技术学校图书馆","type":"科教文化服务;图书馆;图书馆","typecode":"140500","address":"大观街北150米","location":"113.424200,23.156915","transed_lng":113.4186876655194,"transed_lat":23.159408978790044,"cityname":"广州市","adname":"天河区"},{"id":"B0FFFGTN2G","name":"华南农业大学图书馆启林区分馆","type":"科教文化服务;图书馆;图书馆","typecode":"140500","address":"五山街五山路483号华南农业大学外国语学院","location":"113.365620,23.160320","transed_lng":113.36011885472914,"transed_lat":23.162828661673778,"cityname":"广州市","adname":"天河区"},{"id":"B0FFF3UWTD","name":"花都图书馆展览厅","type":"科教文化服务;图书馆;图书馆","typecode":"140500","address":"公益路1-35号","location":"113.216564,23.389252","transed_lng":113.21120431790156,"transed_lat":23.391833617524945,"cityname":"广州市","adname":"花都区"},{"id":"B00141KB7Z","name":"广东金融学院图书馆自科馆","type":"科教文化服务;图书馆;图书馆","typecode":"140500","address":"迎福路512号附近","location":"113.379428,23.199702","transed_lng":113.373907847914,"transed_lat":23.202180026222365,"cityname":"广州市","adname":"天河区"},{"id":"B00141ICPN","name":"东华村星光老年之家图书室","type":"科教文化服务;图书馆;图书馆","typecode":"140500","address":"东祥路50号","location":"113.297760,23.346529","transed_lng":113.29237432766855,"transed_lat":23.349098704673274,"cityname":"广州市","adname":"白云区"},{"id":"B0FFGKVDDF","name":"广州市番禺区洛浦街电子阅览室","type":"科教文化服务;图书馆;图书馆","typecode":"140500","address":"东乡二街346号附近","location":"113.281238,23.041539","transed_lng":113.27589785014793,"transed_lat":23.0442381249079,"cityname":"广州市","adname":"番禺区"},{"id":"B00141SYHV","name":"广东药科大学大学城校区图书馆","type":"科教文化服务;图书馆;图书馆","typecode":"140500","address":"大学城外环东路280号广东药科大学大学城校区国际会议中心","location":"113.411207,23.055853","transed_lng":113.40569011235154,"transed_lat":23.05837947257781,"cityname":"广州市","adname":"番禺区"},{"id":"B0FFHMUNK4","name":"商南社区图书馆","type":"科教文化服务;图书馆;图书馆","typecode":"140500","address":"光明巷与新华路交叉口北50米","location":"113.213361,23.375390","transed_lng":113.20799845575708,"transed_lat":23.377970219909194,"cityname":"广州市","adname":"花都区"},{"id":"B0FFGPE14G","name":"知儒书院国学馆","type":"科教文化服务;图书馆;图书馆","typecode":"140500","address":"东山口启明一马路5号楼","location":"113.293045,23.120456","transed_lng":113.28768249834067,"transed_lat":23.12310672542413,"cityname":"广州市","adname":"越秀区"},{"id":"B0FFHC65WW","name":"广州工商学院图书馆","type":"科教文化服务;图书馆;图书馆","typecode":"140500","address":"工商学院","location":"113.182756,23.439376","transed_lng":113.1773404204191,"transed_lat":23.44189739392471,"cityname":"广州市","adname":"花都区"},{"id":"B0FFHK0A1L","name":"桂花社区书屋","type":"科教文化服务;图书馆;图书馆","typecode":"140500","address":"凤凰北路与紫薇路交叉口西100米","location":"113.233377,23.404705","transed_lng":113.22803062214086,"transed_lat":23.407299237452182,"cityname":"广州市","adname":"花都区"},{"id":"B0FFHG8OWF","name":"广州体育职业技术学院新校区-图书馆","type":"科教文化服务;图书馆;图书馆","typecode":"140500","address":"长兴路338号","location":"113.361821,23.167114","transed_lng":113.35632500771678,"transed_lat":23.169625445112025,"cityname":"广州市","adname":"天河区"},{"id":"B0FFGKH176","name":"中国科学院广州地球化学研究所图书馆","type":"科教文化服务;图书馆;图书馆","typecode":"140500","address":"科华街511号","location":"113.364227,23.146198","transed_lng":113.35872883119168,"transed_lat":23.148714096842152,"cityname":"广州市","adname":"天河区"},{"id":"B00141WNXD","name":"暨南大学华文学院图书馆","type":"科教文化服务;图书馆;图书馆","typecode":"140500","address":"瘦狗岭路355号暨南大学华文学院","location":"113.331839,23.151054","transed_lng":113.32639967135417,"transed_lat":23.15362391364033,"cityname":"广州市","adname":"天河区"},{"id":"B00141KFOW","name":"广东第二师范学院图书馆","type":"科教文化服务;图书馆;图书馆","typecode":"140500","address":"新华街道282县道","location":"113.185056,23.405280","transed_lng":113.17964694643267,"transed_lat":23.40781013189495,"cityname":"广州市","adname":"花都区"},{"id":"B00140W3L8","name":"联和图书馆","type":"科教文化服务;图书馆;图书馆","typecode":"140500","address":"永胜路与106国道交叉口西50米","location":"113.304112,23.282343","transed_lng":113.29871930349334,"transed_lat":23.28491882443325,"cityname":"广州市","adname":"白云区"},{"id":"B0FFGL1BU1","name":"广州市番禺区沙湾镇沙坑村图书室","type":"科教文化服务;图书馆;图书馆","typecode":"140500","address":"永安大街11号","location":"113.345116,22.909787","transed_lng":113.33966660029805,"transed_lat":22.91243388802225,"cityname":"广州市","adname":"番禺区"},{"id":"B0FFGQ6P0I","name":"广东水利电力职业技术学院-图书馆","type":"科教文化服务;图书馆;图书馆","typecode":"140500","address":"灌村路与环市东路交叉口西北200米","location":"113.617362,23.561306","transed_lng":113.61225711970998,"transed_lat":23.56407108351813,"cityname":"广州市","adname":"从化区"},{"id":"B0FFFR2W6Q","name":"广东交通职业技术学院南校区-图书馆","type":"科教文化服务;图书馆;图书馆","typecode":"140500","address":"广东交通职业技术学院南校区内","location":"113.351687,23.184164","transed_lng":113.34620676456939,"transed_lat":23.18668510649081,"cityname":"广州市","adname":"天河区"},{"id":"B0FFGP1V8K","name":"花都图书馆狮岭第二分馆","type":"科教文化服务;图书馆;图书馆","typecode":"140500","address":"体育路与新华庄新小区一街交叉口东200米","location":"113.157901,23.470896","transed_lng":113.15243725150827,"transed_lat":23.473367973431156,"cityname":"广州市","adname":"花都区"},{"id":"B0FFHRYFZC","name":"番禺图书馆东环街康园工疗站流通点","type":"科教文化服务;图书馆;图书馆","typecode":"140500","address":"螺山路北12号附近","location":"113.379940,22.963594","transed_lng":113.37443554718355,"transed_lat":22.966168825917325,"cityname":"广州市","adname":"番禺区"},{"id":"B0FFG2924I","name":"广东水利电力职业技术学院天河校区科学图书馆","type":"科教文化服务;图书馆;图书馆","typecode":"140500","address":"天寿路122号","location":"113.334394,23.145175","transed_lng":113.32894985619279,"transed_lat":23.147742368644153,"cityname":"广州市","adname":"天河区"},{"id":"B00141RBTH","name":"江埔街科普图书馆","type":"科教文化服务;图书馆;图书馆","typecode":"140500","address":"七星路10","location":"113.598294,23.539934","transed_lng":113.59319141726178,"transed_lat":23.542706517824904,"cityname":"广州市","adname":"从化区"},{"id":"B0FFH8DE6C","name":"青年社区电子阅览室","type":"科教文化服务;图书馆;图书馆","typecode":"140500","address":"东园二街与东园五街交叉口东北50米","location":"113.527450,23.064201","transed_lng":113.5222410392015,"transed_lat":23.066986739649135,"cityname":"广州市","adname":"黄埔区"},{"id":"B00141KDYD","name":"广州城建职业学院-图书馆(第一教学楼东南)","type":"科教文化服务;图书馆;图书馆","typecode":"140500","address":[],"location":"113.607637,23.528102","transed_lng":113.60253674324066,"transed_lat":23.530872310389167,"cityname":"广州市","adname":"从化区"},{"id":"B0FFF3UXJ7","name":"番禺图书馆24小时城市街区自助图书馆(康裕北苑服务点)","type":"科教文化服务;图书馆;图书馆","typecode":"140500","address":"丹桂园大街一巷与西丽路交叉口北100米","location":"113.354399,22.946584","transed_lng":113.3489301772156,"transed_lat":22.949199441855328,"cityname":"广州市","adname":"番禺区"},{"id":"B00141JHC9","name":"海珠区图书馆南河街道沥滘分馆","type":"科教文化服务;图书馆;图书馆","typecode":"140500","address":"沥滘东街4-1附近","location":"113.315448,23.059680","transed_lng":113.31004840358416,"transed_lat":23.062318527602493,"cityname":"广州市","adname":"海珠区"},{"id":"B0FFFDL2RB","name":"黄边图书馆(福门街)","type":"科教文化服务;图书馆;图书馆","typecode":"140500","address":"黄边福门街6号","location":"113.274198,23.224432","transed_lng":113.26885365155626,"transed_lat":23.227065915327046,"cityname":"广州市","adname":"白云区"},{"id":"B0FFGL0RVL","name":"番禺区图书馆诗仁宝青少年活动中心分馆","type":"科教文化服务;图书馆;图书馆","typecode":"140500","address":"汇源横街与汇源直街交叉口东南50米","location":"113.337958,22.902770","transed_lng":113.33252309036877,"transed_lat":22.905432929552077,"cityname":"广州市","adname":"番禺区"},{"id":"B0FFH70OZP","name":"夏埔村图书馆","type":"科教文化服务;图书馆;图书馆","typecode":"140500","address":"水南大道与水南大道东交叉口北150米","location":"113.566267,23.106445","transed_lng":113.56115696127438,"transed_lat":23.109295412632893,"cityname":"广州市","adname":"增城区"},{"id":"B0FFGP1S8N","name":"瓜岭书屋","type":"科教文化服务;图书馆;图书馆","typecode":"140500","address":"大园路5号","location":"113.663736,23.146139","transed_lng":113.65860629438514,"transed_lat":23.14891951659486,"cityname":"广州市","adname":"增城区"},{"id":"B0FFGFWYME","name":"广州医科大学卫生职业技术学院从化学院图书馆","type":"科教文化服务;图书馆;图书馆","typecode":"140500","address":"环市东路369号附近","location":"113.606151,23.543950","transed_lng":113.60104970394211,"transed_lat":23.546721083208375,"cityname":"广州市","adname":"从化区"},{"id":"B0FFHJTB28","name":"夏街村农家书屋","type":"科教文化服务;图书馆;图书馆","typecode":"140500","address":"前进路与夏西二路交叉口东北50米","location":"113.835114,23.284247","transed_lng":113.8300717322341,"transed_lat":23.286976251390985,"cityname":"广州市","adname":"增城区"},{"id":"B0FFGP1V8Q","name":"花都少年儿童图书馆狮岭分馆","type":"科教文化服务;图书馆;图书馆","typecode":"140500","address":"体育路与新华庄新小区一街交叉口东200米","location":"113.157901,23.470896","transed_lng":113.15243725150827,"transed_lat":23.473367973431156,"cityname":"广州市","adname":"花都区"},{"id":"B0FFF9SAKE","name":"图书馆","type":"科教文化服务;图书馆;图书馆","typecode":"140500","address":"龙口西路","location":"113.347696,23.129677","transed_lng":113.34222679432197,"transed_lat":23.132226093737454,"cityname":"广州市","adname":"天河区"},{"id":"B0FFH9IEGX","name":"黄埔区图书馆(开萝大道)","type":"科教文化服务;图书馆;图书馆","typecode":"140500","address":"开萝大道4号","location":"113.500897,23.175392","transed_lng":113.49558967350897,"transed_lat":23.1780554184525,"cityname":"广州市","adname":"黄埔区"},{"id":"B0FFHK76XC","name":"长岗村文化室","type":"科教文化服务;图书馆;图书馆","typecode":"140500","address":"长岗新村街与长岗新村街东六巷交叉口西南50米","location":"113.602118,23.140595","transed_lng":113.5970429073072,"transed_lat":23.143453376243194,"cityname":"广州市","adname":"增城区"},{"id":"B001423TAO","name":"华南农业大学-华南农学院-图书馆","type":"科教文化服务;图书馆;图书馆","typecode":"140500","address":"华南农业大学办公楼第16号楼","location":"113.351762,23.157165","transed_lng":113.34628347669891,"transed_lat":23.159696219354444,"cityname":"广州市","adname":"天河区"},{"id":"B00141KZ56","name":"华南理工大学大学城校区图书馆","type":"科教文化服务;图书馆;图书馆","typecode":"140500","address":"外环东路382号华南理工大学大学城校区","location":"113.405326,23.046646","transed_lng":113.399807329719,"transed_lat":23.049174833076595,"cityname":"广州市","adname":"番禺区"},{"id":"B0FFGBZL9F","name":"番禺图书馆电子阅览室","type":"科教文化服务;图书馆;图书馆","typecode":"140500","address":"清河西路56号番禺图书馆1楼","location":"113.363672,22.933505","transed_lng":113.35818915271237,"transed_lat":22.936111751687864,"cityname":"广州市","adname":"番禺区"},{"id":"B0FFG21HJU","name":"罗浮山酥醪院道同图书馆","type":"科教文化服务;图书馆;图书馆","typecode":"140500","address":"城北路13号106","location":"113.834803,23.297148","transed_lng":113.82975904365769,"transed_lat":23.299873035890982,"cityname":"广州市","adname":"增城区"},{"id":"B0FFIK6CHY","name":"仓库(黄埔图书馆)","type":"科教文化服务;图书馆;图书馆","typecode":"140500","address":"大沙北路301号黄埔图书馆F2层","location":"113.460260,23.109734","transed_lng":113.45482445649037,"transed_lat":23.112309222379665,"cityname":"广州市","adname":"黄埔区"},{"id":"B0FFIK6CHK","name":"档案室(黄埔图书馆)","type":"科教文化服务;图书馆;图书馆","typecode":"140500","address":"大沙北路301号黄埔图书馆F4层","location":"113.460268,23.109770","transed_lng":113.45483247626343,"transed_lat":23.112345226680798,"cityname":"广州市","adname":"黄埔区"},{"id":"B0FFIK6CHG","name":"采编部(黄埔图书馆)","type":"科教文化服务;图书馆;图书馆","typecode":"140500","address":"大沙北路301号黄埔图书馆F2层","location":"113.460196,23.109734","transed_lng":113.45476027879035,"transed_lat":23.11230906965706,"cityname":"广州市","adname":"黄埔区"},{"id":"B0FFIK6CHT","name":"中华书库(黄埔图书馆)","type":"科教文化服务;图书馆;图书馆","typecode":"140500","address":"大沙北路301号黄埔图书馆F4层","location":"113.460528,23.109789","transed_lng":113.4550931983895,"transed_lat":23.112364840644112,"cityname":"广州市","adname":"黄埔区"},{"id":"B0FFIK6CHP","name":"中文书库(黄埔图书馆)","type":"科教文化服务;图书馆;图书馆","typecode":"140500","address":"大沙北路301号黄埔图书馆F3层","location":"113.460378,23.109736","transed_lng":113.45494278435645,"transed_lat":23.11231150346513,"cityname":"广州市","adname":"黄埔区"},{"id":"B0FFIK6CHL","name":"工具书库(黄埔图书馆)","type":"科教文化服务;图书馆;图书馆","typecode":"140500","address":"大沙北路301号黄埔图书馆F4层","location":"113.460421,23.109679","transed_lng":113.45498590787889,"transed_lat":23.11225462972995,"cityname":"广州市","adname":"黄埔区"},{"id":"B00141JJAP","name":"石井街滘心社区图书室","type":"科教文化服务;图书馆;图书馆","typecode":"140500","address":"石井滘心村太平里街4","location":"113.225456,23.235934","transed_lng":113.22011550272933,"transed_lat":23.238564119751707,"cityname":"广州市","adname":"白云区"},{"id":"B00141K4KT","name":"岗尾村图书阅览室","type":"科教文化服务;图书馆;图书馆","typecode":"140500","address":"岗尾街楼亭园巷11","location":"113.665704,23.161472","transed_lng":113.66057022426885,"transed_lat":23.164242823040436,"cityname":"广州市","adname":"增城区"},{"id":"B00141SXZ0","name":"广东白云学院-图书馆","type":"科教文化服务;图书馆;图书馆","typecode":"140500","address":"学苑路1号广东白云学院","location":"113.207154,23.272665","transed_lng":113.20179019793468,"transed_lat":23.275262074423445,"cityname":"广州市","adname":"白云区"},{"id":"B00141KC9A","name":"广州市萝岗区图书馆(九龙分馆)","type":"科教文化服务;图书馆;图书馆","typecode":"140500","address":"九龙镇九佛建设新街1号","location":"113.522067,23.354211","transed_lng":113.51682099178747,"transed_lat":23.35688275242445,"cityname":"广州市","adname":"黄埔区"},{"id":"B00141ICHI","name":"广州图书馆钟落潭分馆竹二村图书室","type":"科教文化服务;图书馆;图书馆","typecode":"140500","address":"钟落潭镇竹二中路5号","location":"113.348405,23.361105","transed_lng":113.34291861207645,"transed_lat":23.3635795419349,"cityname":"广州市","adname":"白云区"},{"id":"B00141J4A7","name":"长岗村图书阅览室","type":"科教文化服务;图书馆;图书馆","typecode":"140500","address":"高屋南路16","location":"113.602288,23.147899","transed_lng":113.59721246195218,"transed_lat":23.150754458678563,"cityname":"广州市","adname":"增城区"},{"id":"B00141KBL5","name":"广州少年儿童图书馆九龙联合馆","type":"科教文化服务;图书馆;图书馆","typecode":"140500","address":"萝区九龙镇(九佛)建设新街1号","location":"113.522067,23.354211","transed_lng":113.51682099178747,"transed_lat":23.35688275242445,"cityname":"广州市","adname":"黄埔区"},{"id":"B00141JABB","name":"萝岗区图书馆(九龙镇蟹庄分馆)","type":"科教文化服务;图书馆;图书馆","typecode":"140500","address":"蟹庄龙马路388号","location":"113.484836,23.371208","transed_lng":113.47945951910783,"transed_lat":23.373765897259148,"cityname":"广州市","adname":"黄埔区"},{"id":"B00141K98B","name":"广州少年儿童图书馆(花东分馆)","type":"科教文化服务;图书馆;图书馆","typecode":"140500","address":"朝阳路4号","location":"113.328649,23.437070","transed_lng":113.32319667117807,"transed_lat":23.43956897485092,"cityname":"广州市","adname":"花都区"},{"id":"B0FFGE4WAV","name":"广州图书馆(东门)","type":"科教文化服务;图书馆;图书馆","typecode":"140500","address":"兴安路3号附近","location":"113.327006,23.115891","transed_lng":113.32157899355846,"transed_lat":23.118484202489462,"cityname":"广州市","adname":"天河区"},{"id":"B00141JBDL","name":"花都少年儿童图书馆","type":"科教文化服务;图书馆;图书馆","typecode":"140500","address":"宝华路38号","location":"113.216525,23.389739","transed_lng":113.21116524046423,"transed_lat":23.392320487887336,"cityname":"广州市","adname":"花都区"},{"id":"B00140SFOW","name":"广州少年儿童图书馆教育参考资料借阅处","type":"科教文化服务;图书馆;图书馆","typecode":"140500","address":"长堤大马路与靖海路交叉口西南50米","location":"113.261767,23.111691","transed_lng":113.25644020200878,"transed_lat":23.11437604855636,"cityname":"广州市","adname":"越秀区"},{"id":"B00140LCCV","name":"广州市南沙区南沙街图书馆","type":"科教文化服务;图书馆;图书馆","typecode":"140500","address":"珠江中路29号","location":"113.577165,22.746639","transed_lng":113.57209607774209,"transed_lat":22.749645775129338,"cityname":"广州市","adname":"南沙区"},{"id":"B0FFI7VNKS","name":"挂堂书室","type":"科教文化服务;图书馆;图书馆","typecode":"140500","address":"岗头园街36号附近","location":"113.498538,23.148620","transed_lng":113.49322417076027,"transed_lat":23.151286598804163,"cityname":"广州市","adname":"黄埔区"},{"id":"B0FFGEGDRD","name":"横沙社区书屋","type":"科教文化服务;图书馆;图书馆","typecode":"140500","address":"横沙大街19号","location":"113.450504,23.107941","transed_lng":113.44504320940646,"transed_lat":23.11049520387083,"cityname":"广州市","adname":"黄埔区"},{"id":"B0FFIWQOBT","name":"金坑图书馆","type":"科教文化服务;图书馆;图书馆","typecode":"140500","address":"九龙镇镇龙片区金坑村日托","location":"113.574188,23.277287","transed_lng":113.56908010146388,"transed_lat":23.280085402041088,"cityname":"广州市","adname":"黄埔区"},{"id":"B0FFIZADVH","name":"金坑村图书馆","type":"科教文化服务;图书馆;图书馆","typecode":"140500","address":"广汕公路123号附近","location":"113.526232,23.255877","transed_lng":113.52100632751959,"transed_lat":23.258586462214822,"cityname":"广州市","adname":"黄埔区"},{"id":"B0FFHW89ZI","name":"新塘镇文化站指定图书馆","type":"科教文化服务;图书馆;图书馆","typecode":"140500","address":"大塘美街与简边塘堂街交叉口北100米","location":"113.609399,23.112078","transed_lng":113.60432606910847,"transed_lat":23.114945399350653,"cityname":"广州市","adname":"增城区"},{"id":"B0FFGDOBR6","name":"广东省财政学校图书馆","type":"科教文化服务;图书馆;图书馆","typecode":"140500","address":"南岭西路9号财政职业技术学校内","location":"113.294787,23.271439","transed_lng":113.28941145351871,"transed_lat":23.274032920016502,"cityname":"广州市","adname":"白云区"},{"id":"B0FFIYU8EU","name":"钟艳娴图书馆","type":"科教文化服务;图书馆;图书馆","typecode":"140500","address":"九龙镇九龙大道","location":"113.568439,23.302221","transed_lng":113.56332000630712,"transed_lat":23.305005561986494,"cityname":"广州市","adname":"黄埔区"},{"id":"B0FFGL1HQ6","name":"海事与港航学院-新街村农家书屋","type":"科教文化服务;图书馆;图书馆","typecode":"140500","address":"新华镇工业大道东4号","location":"113.202698,23.370140","transed_lng":113.19732107148954,"transed_lat":23.372706235083534,"cityname":"广州市","adname":"花都区"},{"id":"B00140QT3N","name":"广州少年儿童图书馆启智学校流通点","type":"科教文化服务;图书馆;图书馆","typecode":"140500","address":"义利街4","location":"113.282436,23.119204","transed_lng":113.2770890974559,"transed_lat":23.121869123328565,"cityname":"广州市","adname":"越秀区"},{"id":"B0FFH16CR4","name":"广州航海学院-图书馆","type":"科教文化服务;图书馆;图书馆","typecode":"140500","address":"红山三路101号","location":"113.477485,23.100736","transed_lng":113.47210238398885,"transed_lat":23.103359990514544,"cityname":"广州市","adname":"黄埔区"},{"id":"B0FFGRP2DQ","name":"增江街桥东居委社区图书室","type":"科教文化服务;图书馆;图书馆","typecode":"140500","address":"增江大道北66号附近","location":"113.845215,23.292459","transed_lng":113.84019901641064,"transed_lat":23.295204439734484,"cityname":"广州市","adname":"增城区"},{"id":"B0FFFA1OG4","name":"太和镇退离休教师活动中心图书阅览室","type":"科教文化服务;图书馆;图书馆","typecode":"140500","address":"珊景路38号","location":"113.359325,23.293969","transed_lng":113.35382422072169,"transed_lat":23.296441847042303,"cityname":"广州市","adname":"白云区"},{"id":"B0FFG9IVZV","name":"雅昌图书馆","type":"科教文化服务;图书馆;图书馆","typecode":"140500","address":"二沙岛烟雨路38号广东美术馆内","location":"113.306827,23.107844","transed_lng":113.30144102599056,"transed_lat":23.110477785980375,"cityname":"广州市","adname":"越秀区"},{"id":"B0FFHCMEMZ","name":"广东交通职业技术学院南校区图书馆","type":"科教文化服务;图书馆;图书馆","typecode":"140500","address":"工业大道11号附近","location":"113.203659,23.367163","transed_lng":113.19828372145747,"transed_lat":23.369731286961617,"cityname":"广州市","adname":"花都区"},{"id":"B00141K3UN","name":"广州图书馆24小时自助图书馆(大沙地东)","type":"科教文化服务;图书馆;图书馆","typecode":"140500","address":"石化路131号附近","location":"113.468433,23.104214","transed_lng":113.46302161410397,"transed_lat":23.106811962552467,"cityname":"广州市","adname":"黄埔区"},{"id":"B0FFGL1F7M","name":"太和图书馆","type":"科教文化服务;图书馆;图书馆","typecode":"140500","address":"太和镇珊景商业步行街太和文化体育中心内","location":"113.360151,23.294138","transed_lng":113.35464889058996,"transed_lat":23.296609544115146,"cityname":"广州市","adname":"白云区"},{"id":"B0FFIK6CHU","name":"电子阅读区(黄埔图书馆)","type":"科教文化服务;图书馆;图书馆","typecode":"140500","address":"大沙北路301号黄埔图书馆F2层","location":"113.460446,23.109785","transed_lng":113.45501097025725,"transed_lat":23.11236064597013,"cityname":"广州市","adname":"黄埔区"},{"id":"B0FFIK6CHR","name":"图书加工室(黄埔图书馆)","type":"科教文化服务;图书馆;图书馆","typecode":"140500","address":"大沙北路301号黄埔图书馆F2层","location":"113.460260,23.109806","transed_lng":113.45482445159176,"transed_lat":23.112381192784344,"cityname":"广州市","adname":"黄埔区"},{"id":"B0FFIK6CHE","name":"盲人阅读区(黄埔图书馆)","type":"科教文化服务;图书馆;图书馆","typecode":"140500","address":"大沙北路301号黄埔图书馆F2层","location":"113.460446,23.109694","transed_lng":113.45501097644822,"transed_lat":23.11226968337648,"cityname":"广州市","adname":"黄埔区"},{"id":"B0FFIK6CHD","name":"港澳台书室(黄埔图书馆)","type":"科教文化服务;图书馆;图书馆","typecode":"140500","address":"大沙北路301号黄埔图书馆F4层","location":"113.460268,23.109821","transed_lng":113.45483247279358,"transed_lat":23.112396205717975,"cityname":"广州市","adname":"黄埔区"},{"id":"B0FFF3J1DX","name":"广州科技职业技术学院图书馆","type":"科教文化服务;图书馆;图书馆","typecode":"140500","address":"广从九路1038号广州科技职业技术学院","location":"113.464978,23.404148","transed_lng":113.45953581251517,"transed_lat":23.406645593858578,"cityname":"广州市","adname":"白云区"},{"id":"B00141OJVO","name":"华南理工大学北区-自然科学图书馆","type":"科教文化服务;图书馆;图书馆","typecode":"140500","address":"五山路381号华南理工大学北区1号楼","location":"113.344508,23.165614","transed_lng":113.33904238638834,"transed_lat":23.168154662186808,"cityname":"广州市","adname":"天河区"},{"id":"B0FFF3J2AA","name":"华南理工大学广州学院-图书馆","type":"科教文化服务;图书馆;图书馆","typecode":"140500","address":"新华镇学府路1号","location":"113.170896,23.431780","transed_lng":113.16545882574657,"transed_lat":23.434279981809837,"cityname":"广州市","adname":"花都区"},{"id":"B00141SBM1","name":"广东外语艺术职业学院五山校区图书馆","type":"科教文化服务;图书馆;图书馆","typecode":"140500","address":"瘦狗岭路463号","location":"113.338194,23.149011","transed_lng":113.33274192414696,"transed_lat":23.151569706277368,"cityname":"广州市","adname":"天河区"},{"id":"B0FFIK6CHJ","name":"地方文献书室(黄埔图书馆)","type":"科教文化服务;图书馆;图书馆","typecode":"140500","address":"大沙北路301号黄埔图书馆F4层","location":"113.460511,23.109679","transed_lng":113.45507615850198,"transed_lat":23.11225484514406,"cityname":"广州市","adname":"黄埔区"},{"id":"B00141KFB8","name":"夏良村图书室","type":"科教文化服务;图书馆;图书馆","typecode":"140500","address":"市头大街12号","location":"113.306008,23.287732","transed_lng":113.30061138941677,"transed_lat":23.29030304560194,"cityname":"广州市","adname":"白云区"},{"id":"B0FFFZQSEU","name":"夏港街文化站图书阅览室","type":"科教文化服务;图书馆;图书馆","typecode":"140500","address":"东园三街与东园五街交叉口西北50米","location":"113.528311,23.063863","transed_lng":113.52310483070359,"transed_lat":23.066651208603098,"cityname":"广州市","adname":"黄埔区"},{"id":"B0FFHK2I3C","name":"广州市儿童公园图书馆","type":"科教文化服务;图书馆;图书馆","typecode":"140500","address":"齐心路61号","location":"113.270798,23.182566","transed_lng":113.26545976701854,"transed_lat":23.18521768468293,"cityname":"广州市","adname":"白云区"},{"id":"B0FFFGZZUH","name":"东区街东区社区图书阅览室","type":"科教文化服务;图书馆;图书馆","typecode":"140500","address":"春晖三街与春晖二街交叉口东50米","location":"113.544300,23.108648","transed_lng":113.53913869909509,"transed_lat":23.11145709272313,"cityname":"广州市","adname":"黄埔区"},{"id":"B0FFHUACPS","name":"亲青书馆","type":"科教文化服务;图书馆;图书馆","typecode":"140500","address":"石潭西路2号国大童装世界三楼","location":"113.227260,23.196023","transed_lng":113.22192364728552,"transed_lat":23.198668524200446,"cityname":"广州市","adname":"白云区"},{"id":"B0FFHDK33L","name":"绿地·玩具图书馆","type":"科教文化服务;图书馆;图书馆","typecode":"140500","address":"黄园路123号绿地时代云都汇商业街","location":"113.267076,23.206242","transed_lng":113.26173929788182,"transed_lat":23.20888772677293,"cityname":"广州市","adname":"白云区"},{"id":"B0FFFTETW9","name":"广州图书馆24小时自助图书馆","type":"科教文化服务;图书馆;图书馆","typecode":"140500","address":"中山大道东81号附近","location":"113.428024,23.112832","transed_lng":113.42251967433225,"transed_lat":23.11534767611677,"cityname":"广州市","adname":"黄埔区"},{"id":"B0FFH6U02D","name":"黄埔区图书馆沙步小学分馆","type":"科教文化服务;图书馆;图书馆","typecode":"140500","address":"沙步校前路2","location":"113.534204,23.083511","transed_lng":113.5290150002922,"transed_lat":23.086306332382915,"cityname":"广州市","adname":"黄埔区"},{"id":"B0FFGIYFAD","name":"石井街新庄社区图书室","type":"科教文化服务;图书馆;图书馆","typecode":"140500","address":"新庄上街四巷1","location":"113.235272,23.208234","transed_lng":113.22993986339836,"transed_lat":23.21088066320397,"cityname":"广州市","adname":"白云区"},{"id":"B0FFHC7DR0","name":"北村图书室","type":"科教文化服务;图书馆;图书馆","typecode":"140500","address":"北村西街16号附近","location":"113.300149,23.296830","transed_lng":113.29476251976708,"transed_lat":23.2994082839512,"cityname":"广州市","adname":"白云区"},{"id":"B0FFI78OEV","name":"白云区职工图书馆","type":"科教文化服务;图书馆;图书馆","typecode":"140500","address":"机场路与S41机场高速交叉口西北50米","location":"113.260365,23.187414","transed_lng":113.25503387500832,"transed_lat":23.190070043427472,"cityname":"广州市","adname":"白云区"},{"id":"B0FFGL0XL7","name":"太和镇南村村农家书屋","type":"科教文化服务;图书馆;图书馆","typecode":"140500","address":"蟠龙西街27号附近","location":"113.294187,23.281338","transed_lng":113.28881177115976,"transed_lat":23.283929892208874,"cityname":"广州市","adname":"白云区"},{"id":"B0FFGL25WR","name":"太和镇龙归图书馆","type":"科教文化服务;图书馆;图书馆","typecode":"140500","address":"龙归城公路南23号2层","location":"113.303990,23.282634","transed_lng":113.29859750983834,"transed_lat":23.28520994625342,"cityname":"广州市","adname":"白云区"},{"id":"B0FFFEARAK","name":"广东财经大学华商学院中央图书馆","type":"科教文化服务;图书馆;图书馆","typecode":"140500","address":"广东财经大学华商学院","location":"113.778370,23.257486","transed_lng":113.77319309400933,"transed_lat":23.260131014620168,"cityname":"广州市","adname":"增城区"},{"id":"B0FFH12H52","name":"少年儿童图书馆","type":"科教文化服务;图书馆;图书馆","typecode":"140500","address":"太和镇珊景步行街广场","location":"113.360123,23.294111","transed_lng":113.35462093683522,"transed_lat":23.296582593918423,"cityname":"广州市","adname":"白云区"},{"id":"B0FFF9S3CD","name":"同和街科普图书室","type":"科教文化服务;图书馆;图书馆","typecode":"140500","address":"同和街白山东路22-24号","location":"113.329982,23.200608","transed_lng":113.32454310843809,"transed_lat":23.20316283565212,"cityname":"广州市","adname":"白云区"},{"id":"B0FFFCVG0W","name":"人和镇人和社区青少年之家","type":"科教文化服务;图书馆;图书馆","typecode":"140500","address":"人和西街24号","location":"113.300202,23.332543","transed_lng":113.2948129982925,"transed_lat":23.335112039650724,"cityname":"广州市","adname":"白云区"},{"id":"B0FFI6DP9D","name":"钟落潭文化中心图书馆","type":"科教文化服务;图书馆;图书馆","typecode":"140500","address":"钟落潭福龙路90号","location":"113.406273,23.384839","transed_lng":113.40073129496217,"transed_lat":23.387255420475032,"cityname":"广州市","adname":"白云区"},{"id":"B0FFI1CI2W","name":"颜乐天纪念中学-图书馆","type":"科教文化服务;图书馆;图书馆","typecode":"140500","address":"环岗二路11号","location":"113.280670,23.249303","transed_lng":113.27531658625819,"transed_lat":23.251922230413317,"cityname":"广州市","adname":"白云区"},{"id":"B0FFHK0NZ9","name":"东区街东区社区民族团结阅览室","type":"科教文化服务;图书馆;图书馆","typecode":"140500","address":"春晖三街与春晖二街交叉口西50米","location":"113.543943,23.108620","transed_lng":113.53878071818195,"transed_lat":23.111428301466944,"cityname":"广州市","adname":"黄埔区"},{"id":"B0FFGESAXE","name":"白云区图书馆松洲街分馆","type":"科教文化服务;图书馆;图书馆","typecode":"140500","address":"螺涌村涌边东街17号","location":"113.228898,23.146350","transed_lng":113.2235662071257,"transed_lat":23.149015639611708,"cityname":"广州市","adname":"白云区"},{"id":"B00140T1P3","name":"少年儿童图书馆(沙东分馆)","type":"科教文化服务;图书馆;图书馆","typecode":"140500","address":"范屋149号","location":"113.314647,23.162472","transed_lng":113.30924205462765,"transed_lat":23.165069989541887,"cityname":"广州市","adname":"天河区"},{"id":"B0FFFS5LBH","name":"长腰岭村图书室","type":"科教文化服务;图书馆;图书馆","typecode":"140500","address":"广从八路与G4京港澳高速出口交叉口北100米","location":"113.425373,23.385183","transed_lng":113.41984637409062,"transed_lat":23.387610989465436,"cityname":"广州市","adname":"白云区"},{"id":"B0FFG7MP5E","name":"农家书屋","type":"科教文化服务;图书馆;图书馆","typecode":"140500","address":"村前大街21号附近","location":"113.301632,23.296299","transed_lng":113.29624289734201,"transed_lat":23.298875015731745,"cityname":"广州市","adname":"白云区"},{"id":"B0FFHCH4YN","name":"启明星·阅览室","type":"科教文化服务;图书馆;图书馆","typecode":"140500","address":"春晖六街251号宏康培训城一楼左侧","location":"113.547611,23.107001","transed_lng":113.5424587110383,"transed_lat":23.10981801274671,"cityname":"广州市","adname":"黄埔区"},{"id":"B0FFH6MLMO","name":"松洲街桥西社区图书阅览室","type":"科教文化服务;图书馆;图书馆","typecode":"140500","address":"潮南街与螺涌高桥大街交叉口东南150米","location":"113.230027,23.143228","transed_lng":113.22469620224807,"transed_lat":23.14589571939936,"cityname":"广州市","adname":"白云区"},{"id":"B00141R6H1","name":"广州民航职业技术学院图书馆","type":"科教文化服务;图书馆;图书馆","typecode":"140500","address":"机场路向云西街10号","location":"113.256741,23.165271","transed_lng":113.25141296298973,"transed_lat":23.16793656113467,"cityname":"广州市","adname":"白云区"},{"id":"B0FFFV96YU","name":"广州图书馆24小时自助图书馆","type":"科教文化服务;图书馆;图书馆","typecode":"140500","address":"云城东路509号","location":"113.267582,23.173520","transed_lng":113.26224710488991,"transed_lat":23.1761773875691,"cityname":"广州市","adname":"白云区"},{"id":"B0FFFGZSJ0","name":"广州少年儿童图书馆(荔联分馆)","type":"科教文化服务;图书馆;图书馆","typecode":"140500","address":"印象·黄埔2层","location":"113.544529,23.113139","transed_lng":113.53936803040664,"transed_lat":23.11594676105207,"cityname":"广州市","adname":"黄埔区"},{"id":"B0FFGLED7T","name":"广州市萝岗区图书馆少儿阅览室","type":"科教文化服务;图书馆;图书馆","typecode":"140500","address":"东园七街与东园六街交叉口东北50米广州市萝岗区博物馆","location":"113.530253,23.063807","transed_lng":113.52505301692112,"transed_lat":23.066600414439435,"cityname":"广州市","adname":"黄埔区"},{"id":"B0FFIK5NGS","name":"白云区图书馆(三元里分馆)","type":"科教文化服务;图书馆;图书馆","typecode":"140500","address":"广园中路36号(三元里历史文化展览馆旁)","location":"113.260398,23.160565","transed_lng":113.25506866225243,"transed_lat":23.163231154790754,"cityname":"广州市","adname":"白云区"},{"id":"B0FFFEA2BT","name":"广州少年儿童图书馆(南岗分馆)","type":"科教文化服务;图书馆;图书馆","typecode":"140500","address":"鹿步南宁坊大街与鹿步大街交叉口西北50米","location":"113.537590,23.081695","transed_lng":113.53241131399155,"transed_lat":23.084499557353325,"cityname":"广州市","adname":"黄埔区"},{"id":"B00141KAT5","name":"石井街唐阁社区图书室","type":"科教文化服务;图书馆;图书馆","typecode":"140500","address":"唐阁街","location":"113.240812,23.258808","transed_lng":113.23547851622438,"transed_lat":23.261440276012845,"cityname":"广州市","adname":"白云区"},{"id":"B0FFG83SCD","name":"芦湾村农家书屋","type":"科教文化服务;图书馆;图书馆","typecode":"140500","address":"石路上街与石路下街交叉口东北150米","location":"113.586198,22.789413","transed_lng":113.58113673511951,"transed_lat":22.792412453031247,"cityname":"广州市","adname":"南沙区"},{"id":"B0FFFW77ZJ","name":"广东青年职业学院图书馆","type":"科教文化服务;图书馆;图书馆","typecode":"140500","address":"钟落潭障岗村广东青年职业学院(障岗村)","location":"113.429003,23.367710","transed_lng":113.42348251610083,"transed_lat":23.370145329866386,"cityname":"广州市","adname":"白云区"},{"id":"B0FFGQ4LUJ","name":"广东学新文化广播有限公司","type":"科教文化服务;图书馆;图书馆","typecode":"140500","address":"塘贝南路53号","location":"113.238540,23.299853","transed_lng":113.23320304856747,"transed_lat":23.302472426034768,"cityname":"广州市","adname":"白云区"},{"id":"B0FFH11BB4","name":"白云区图书馆(人和镇分馆)","type":"科教文化服务;图书馆;图书馆","typecode":"140500","address":"人和镇人和西街24号","location":"113.300227,23.332119","transed_lng":113.29483798264793,"transed_lat":23.334688100083255,"cityname":"广州市","adname":"白云区"},{"id":"B0FFGEFYER","name":"白云区图书馆恒福服务社分点","type":"科教文化服务;图书馆;图书馆","typecode":"140500","address":"尹边联兴路2号附近","location":"113.274881,23.233277","transed_lng":113.26953534331174,"transed_lat":23.23590731575602,"cityname":"广州市","adname":"白云区"},{"id":"B0FFI6EBYC","name":"白云区图书馆(均禾街分馆)","type":"科教文化服务;图书馆;图书馆","typecode":"140500","address":"新石路168号","location":"113.273988,23.256086","transed_lng":113.26864173162943,"transed_lat":23.25870973541305,"cityname":"广州市","adname":"白云区"},{"id":"B0FFIQYD4P","name":"广东省立中山图书馆-古籍&地方文献阅览室","type":"科教文化服务;图书馆;图书馆","typecode":"140500","address":"文明路213号","location":"113.276681,23.125487","transed_lng":113.27134064680803,"transed_lat":23.12815571849701,"cityname":"广州市","adname":"越秀区"},{"id":"B00140SZ4K","name":"广东机电职业技术学院图书馆","type":"科教文化服务;图书馆;图书馆","typecode":"140500","address":"同和街蟾蜍石东路2号","location":"113.336021,23.193447","transed_lng":113.33057026782622,"transed_lat":23.195992957405224,"cityname":"广州市","adname":"白云区"},{"id":"B0FFG70LHN","name":"萝岗区东区街东区社区电子阅览室","type":"科教文化服务;图书馆;图书馆","typecode":"140500","address":"春晖三街与春晖二街交叉口东南50米","location":"113.544146,23.108609","transed_lng":113.53898427826853,"transed_lat":23.1114177629928,"cityname":"广州市","adname":"黄埔区"},{"id":"B00140I86F","name":"永和镇电子阅览室","type":"科教文化服务;图书馆;图书馆","typecode":"140500","address":"永康三街中段","location":"113.589857,23.177051","transed_lng":113.58477358576279,"transed_lat":23.17989429862519,"cityname":"广州市","adname":"增城区"},{"id":"B00140SL2P","name":"石牌街党员网络阅览室","type":"科教文化服务;图书馆;图书馆","typecode":"140500","address":"石牌东路127、131北2层","location":"113.343206,23.131296","transed_lng":113.3377452421971,"transed_lat":23.133852482576504,"cityname":"广州市","adname":"天河区"},{"id":"B00140MV0L","name":"广州高新技术产业开发区图书馆","type":"科教文化服务;图书馆;图书馆","typecode":"140500","address":"经济技术开发区西区青年路","location":"113.530256,23.063896","transed_lng":113.52505602050438,"transed_lat":23.066689384482483,"cityname":"广州市","adname":"黄埔区"},{"id":"B0FFIPGIDC","name":"清湖中央图书馆Central Library","type":"科教文化服务;图书馆;图书馆","typecode":"140500","address":"清湖新村北一巷","location":"113.268152,23.258612","transed_lng":113.26281091783248,"transed_lat":23.261239528501115,"cityname":"广州市","adname":"白云区"},{"id":"B00141JI4C","name":"官洲街科普图书馆","type":"科教文化服务;图书馆;图书馆","typecode":"140500","address":"环村北路22号","location":"113.373789,23.078298","transed_lng":113.36828299075468,"transed_lat":23.080829774722826,"cityname":"广州市","adname":"海珠区"},{"id":"B0FFH0WMYU","name":"广东外语外贸大学公开学院图书馆","type":"科教文化服务;图书馆;图书馆","typecode":"140500","address":"夏花一路","location":"113.254293,23.228403","transed_lng":113.24896150556698,"transed_lat":23.23104629176893,"cityname":"广州市","adname":"白云区"},{"id":"B0FFFZQSEZ","name":"广州市萝岗区图书馆易博士移动数学图书馆","type":"科教文化服务;图书馆;图书馆","typecode":"140500","address":"东园七街与东园九街交叉口东南50米广州市萝岗区文化馆","location":"113.530136,23.063980","transed_lng":113.52493563553197,"transed_lat":23.06677303109186,"cityname":"广州市","adname":"黄埔区"},{"id":"B0FFFGTK7M","name":"华南师范大学教学图书服务中心","type":"科教文化服务;图书馆;图书馆","typecode":"140500","address":"中山大道西55号华南师范大学石牌校区中山立交桥广东省高等学校教学考试管理中心附近","location":"113.354481,23.136685","transed_lng":113.34899909339042,"transed_lat":23.139219747332266,"cityname":"广州市","adname":"天河区"},{"id":"B0FFF5LLV2","name":"广东工业学院华立学院图书馆","type":"科教文化服务;图书馆;图书馆","typecode":"140500","address":"华立路7号广州华立科技园","location":"113.866370,23.240998","transed_lng":113.86140801030744,"transed_lat":23.243792550985766,"cityname":"广州市","adname":"增城区"},{"id":"B00140U8A8","name":"农林街文化站阅览室","type":"科教文化服务;图书馆;图书馆","typecode":"140500","address":"竹丝岗四马路11","location":"113.294154,23.126457","transed_lng":113.28878929355871,"transed_lat":23.129103670376214,"cityname":"广州市","adname":"越秀区"},{"id":"B0FFFFK1TS","name":"广州开发区图书馆夏港街普晖社区联合图书分馆","type":"科教文化服务;图书馆;图书馆","typecode":"140500","address":"普晖十一街106号附近","location":"113.526627,23.055586","transed_lng":113.52141594838454,"transed_lat":23.058373177397172,"cityname":"广州市","adname":"黄埔区"},{"id":"B00140W8RV","name":"广州航海学院西区图书馆","type":"科教文化服务;图书馆;图书馆","typecode":"140500","address":"新港东路夏阳大街1号广州航海学院西区","location":"113.396464,23.088885","transed_lng":113.39094201858707,"transed_lat":23.091396413750555,"cityname":"广州市","adname":"海珠区"},{"id":"B0FFGZI9UM","name":"广州中医药大学三元里校区图书馆综教楼分部","type":"科教文化服务;图书馆;图书馆","typecode":"140500","address":"机场路12号大院","location":"113.265572,23.155757","transed_lng":113.26023980855989,"transed_lat":23.158422449921847,"cityname":"广州市","adname":"白云区"},{"id":"B00141K8NU","name":"派潭镇图书馆","type":"科教文化服务;图书馆;图书馆","typecode":"140500","address":"派潭镇","location":"113.783547,23.489676","transed_lng":113.77836389879984,"transed_lat":23.492283073231825,"cityname":"广州市","adname":"增城区"},{"id":"B00140I0RR","name":"广州图书馆(江高分馆)","type":"科教文化服务;图书馆;图书馆","typecode":"140500","address":"爱国东路80-1号附近","location":"113.231649,23.272234","transed_lng":113.22631057051082,"transed_lat":23.27485751965211,"cityname":"广州市","adname":"白云区"},{"id":"B0FFFS062I","name":"绘本儿童图画书借阅馆(广州金沙洲馆)","type":"科教文化服务;图书馆;图书馆","typecode":"140500","address":"白云区,环洲三路中海金沙馨园10号114铺","location":"113.205641,23.148293","transed_lng":113.20028342888179,"transed_lat":23.15093135253577,"cityname":"广州市","adname":"白云区"},{"id":"B00141IMK1","name":"广州市萝岗区图书馆","type":"科教文化服务;图书馆;图书馆","typecode":"140500","address":"青年路东园七街广州市萝岗区文化馆","location":"113.530291,23.063517","transed_lng":113.52509115621221,"transed_lat":23.066310638437923,"cityname":"广州市","adname":"黄埔区"},{"id":"B0FFFXJ4CZ","name":"均禾街平沙南社区广州少年儿童图书馆一分馆","type":"科教文化服务;图书馆;图书馆","typecode":"140500","address":"松园中七巷1附近","location":"113.258218,23.245548","transed_lng":113.25288397307806,"transed_lat":23.248184666494307,"cityname":"广州市","adname":"白云区"},{"id":"B00140HZLZ","name":"塘坑图书阅览室","type":"科教文化服务;图书馆;图书馆","typecode":"140500","address":"塘坑东街与塘坑中街交叉口西50米","location":"113.571727,22.755161","transed_lng":113.56664940724133,"transed_lat":22.758159457290585,"cityname":"广州市","adname":"南沙区"},{"id":"B00141K69B","name":"石井街潭村社区图书室","type":"科教文化服务;图书馆;图书馆","typecode":"140500","address":"南新大街与石潭路交叉口西南100米","location":"113.234956,23.189765","transed_lng":113.22962495211037,"transed_lat":23.192418139784643,"cityname":"广州市","adname":"白云区"},{"id":"B00140W8TP","name":"斯文井社区居委会图书室","type":"科教文化服务;图书馆;图书馆","typecode":"140500","address":"南湖东路与同和中路交叉口西北50米","location":"113.329889,23.215072","transed_lng":113.32444931394038,"transed_lat":23.217621897827215,"cityname":"广州市","adname":"白云区"},{"id":"B00140T7L2","name":"新村社区法制阅览室","type":"科教文化服务;图书馆;图书馆","typecode":"140500","address":"员村二横路9号-f12","location":"113.362214,23.120382","transed_lng":113.35672060542142,"transed_lat":23.122911313126,"cityname":"广州市","adname":"天河区"},{"id":"B00141K4TB","name":"白云区图书馆(京溪街联合分馆)","type":"科教文化服务;图书馆;图书馆","typecode":"140500","address":"京溪东街1号","location":"113.329911,23.180832","transed_lng":113.32447360119396,"transed_lat":23.183394209637097,"cityname":"广州市","adname":"白云区"},{"id":"B00140U9K2","name":"农林街文化站图书室","type":"科教文化服务;图书馆;图书馆","typecode":"140500","address":"竹丝岗三马路与竹丝岗四马路交叉口南50米","location":"113.294154,23.126457","transed_lng":113.28878929355871,"transed_lat":23.129103670376214,"cityname":"广州市","adname":"越秀区"},{"id":"B00141IMKG","name":"广州市黄埔区图书馆(夏港街分馆)","type":"科教文化服务;图书馆;图书馆","typecode":"140500","address":"东园三街与东园五街交叉口西北50米","location":"113.528311,23.063863","transed_lng":113.52310483070359,"transed_lat":23.066651208603098,"cityname":"广州市","adname":"黄埔区"},{"id":"B0FFFRWC3T","name":"南沙区黄阁镇24小时城市街区自助图书馆","type":"科教文化服务;图书馆;图书馆","typecode":"140500","address":"黄梅路84号附近","location":"113.507720,22.825207","transed_lng":113.50246000769502,"transed_lat":22.82803530757415,"cityname":"广州市","adname":"南沙区"},{"id":"B00141J51M","name":"增江街文化活动中心图书室","type":"科教文化服务;图书馆;图书馆","typecode":"140500","address":"增江大道北66号附近","location":"113.845187,23.292476","transed_lng":113.84017094248267,"transed_lat":23.29522138516527,"cityname":"广州市","adname":"增城区"},{"id":"B00141SXZO","name":"少年儿童图书馆(南沙街分馆)","type":"科教文化服务;图书馆;图书馆","typecode":"140500","address":"珠江中路29号","location":"113.577249,22.746706","transed_lng":113.57218018803016,"transed_lat":22.74971283228947,"cityname":"广州市","adname":"南沙区"},{"id":"B00141JBZS","name":"钟落潭镇长沙布村图书室","type":"科教文化服务;图书馆;图书馆","typecode":"140500","address":"长钟西路209号","location":"113.409610,23.391181","transed_lng":113.40406917188031,"transed_lat":23.39359716312173,"cityname":"广州市","adname":"白云区"},{"id":"B00140SL2O","name":"石牌街党员图书室","type":"科教文化服务;图书馆;图书馆","typecode":"140500","address":"石牌东路127、131北2层","location":"113.343206,23.131296","transed_lng":113.3377452421971,"transed_lat":23.133852482576504,"cityname":"广州市","adname":"天河区"}]
