[{"id":"B00140WBZI","name":"荔湾区普洱茶文化协会博物馆","type":"科教文化服务;博物馆;博物馆","typecode":"140100","address":"龙津西路88号附近","location":"113.236693,23.120529","transed_lng":113.2313673930757,"transed_lat":23.12320990596129,"cityname":"广州市","adname":"荔湾区"},{"id":"B0FFGLFYHK","name":"南沙博物馆","type":"科教文化服务;博物馆;博物馆","typecode":"140100","address":"天后路86号","location":"113.618599,22.759039","transed_lng":113.61354621061624,"transed_lat":22.762042330581476,"cityname":"广州市","adname":"南沙区"},{"id":"B00141J4K1","name":"协同和机器厂博物馆","type":"科教文化服务;博物馆;博物馆","typecode":"140100","address":"冲口街方清大道东146号","location":"113.246096,23.089131","transed_lng":113.24077475152116,"transed_lat":23.0918278485385,"cityname":"广州市","adname":"荔湾区"},{"id":"B0FFF3UTDQ","name":"中国(广州)民间金融博物馆","type":"科教文化服务;博物馆;博物馆","typecode":"140100","address":"长堤大马路268号","location":"113.260316,23.111563","transed_lng":113.25498999218313,"transed_lat":23.114248716424203,"cityname":"广州市","adname":"越秀区"},{"id":"B00141SB2Y","name":"登峰街城中村历史微博馆","type":"科教文化服务;博物馆;博物馆","typecode":"140100","address":"麓景路124号附近","location":"113.278541,23.145433","transed_lng":113.27319717247292,"transed_lat":23.1480918866482,"cityname":"广州市","adname":"越秀区"},{"id":"B0FFG9J8RG","name":"恒源博物馆","type":"科教文化服务;博物馆;博物馆","typecode":"140100","address":"应元路32号恒源大厦","location":"113.267492,23.135918","transed_lng":113.26215970215948,"transed_lat":23.1385900614183,"cityname":"广州市","adname":"越秀区"},{"id":"B00140SGI0","name":"天河区博物馆(装修中)","type":"科教文化服务;博物馆;博物馆","typecode":"140100","address":"广州大道中大洲地2号","location":"113.314421,23.149557","transed_lng":113.30901738165483,"transed_lat":23.15216041761111,"cityname":"广州市","adname":"天河区"},{"id":"B0FFGRUZX6","name":"广州近代史博物馆","type":"科教文化服务;博物馆;博物馆","typecode":"140100","address":"陵园西路2号大院2号楼(烈士陵园内)","location":"113.283317,23.129225","transed_lng":113.27796826177101,"transed_lat":23.131885037413724,"cityname":"广州市","adname":"越秀区"},{"id":"B0FFFSCFCY","name":"新河浦历史文化博物馆","type":"科教文化服务;博物馆;博物馆","typecode":"140100","address":"山河后街77号(东山天主堂对面)","location":"113.299669,23.118478","transed_lng":113.29429544036545,"transed_lat":23.1211193992623,"cityname":"广州市","adname":"越秀区"},{"id":"B001407377","name":"海军黄埔军事博览中心","type":"科教文化服务;博物馆;博物馆","typecode":"140100","address":"海虹路63号","location":"113.428696,23.082787","transed_lng":113.42319468172307,"transed_lat":23.085315944558396,"cityname":"广州市","adname":"黄埔区"},{"id":"B0FFF3UP30","name":"中山大学北校区医学博物馆","type":"科教文化服务;博物馆;博物馆","typecode":"140100","address":"中山二路74号中山大学北校区","location":"113.290130,23.127088","transed_lng":113.28477163195332,"transed_lat":23.129740163282293,"cityname":"广州市","adname":"越秀区"},{"id":"B00141JHO7","name":"陈李济中药博物馆","type":"科教文化服务;博物馆;博物馆","typecode":"140100","address":"广州大道南1688号","location":"113.307526,23.068055","transed_lng":113.30214137998125,"transed_lat":23.07070422599246,"cityname":"广州市","adname":"海珠区"},{"id":"B0FFFDCY9A","name":"南汉二陵博物馆","type":"科教文化服务;博物馆;博物馆","typecode":"140100","address":"大学城中环西路","location":"113.383825,23.048237","transed_lng":113.37831158653105,"transed_lat":23.050772099845723,"cityname":"广州市","adname":"番禺区"},{"id":"B0FFHLMJJ7","name":"沉香文化博物馆","type":"科教文化服务;博物馆;博物馆","typecode":"140100","address":"迎宾路188号","location":"113.316518,23.035477","transed_lng":113.31111788508058,"transed_lat":23.03812392130878,"cityname":"广州市","adname":"番禺区"},{"id":"B00141JG3K","name":"广州货币金融博物馆","type":"科教文化服务;博物馆;博物馆","typecode":"140100","address":"金融学院图书馆5-6楼","location":"113.379109,23.199604","transed_lng":113.37358915054094,"transed_lat":23.202082357887868,"cityname":"广州市","adname":"天河区"},{"id":"B0FFGLLSJW","name":"祝福博物馆","type":"科教文化服务;博物馆;博物馆","typecode":"140100","address":"新港中路354号珠影星光城创墟Y06","location":"113.322023,23.094421","transed_lng":113.31660769693741,"transed_lat":23.097032548313376,"cityname":"广州市","adname":"海珠区"},{"id":"B00140UUIA","name":"蔡冠深博物馆","type":"科教文化服务;博物馆;博物馆","typecode":"140100","address":"黄埔大道西601号暨南大学","location":"113.346023,23.128074","transed_lng":113.34055705416252,"transed_lat":23.13062670197492,"cityname":"广州市","adname":"天河区"},{"id":"B0FFFT4QCO","name":"岭南中药博物馆","type":"科教文化服务;博物馆;博物馆","typecode":"140100","address":"渔兴路","location":"113.376519,23.204550","transed_lng":113.37100136238323,"transed_lat":23.207029127124272,"cityname":"广州市","adname":"天河区"},{"id":"B0FFH2DUXO","name":"中山大学北校区医学博物馆11","type":"科教文化服务;博物馆;博物馆","typecode":"140100","address":"岭南路与杏林路交叉口北100米","location":"113.290061,23.127403","transed_lng":113.28470271640279,"transed_lat":23.130055131179265,"cityname":"广州市","adname":"越秀区"},{"id":"B00140W7G2","name":"广州东方博物馆","type":"科教文化服务;博物馆;博物馆","typecode":"140100","address":"石楼镇浮莲路118号亚运文化村内","location":"113.496908,22.950245","transed_lng":113.4916017407364,"transed_lat":22.952990434364658,"cityname":"广州市","adname":"番禺区"},{"id":"B0FFFE2RZ5","name":"共和村社区铁路文化博物馆","type":"科教文化服务;博物馆;博物馆","typecode":"140100","address":"共和西路15号","location":"113.303162,23.125271","transed_lng":113.29778169305425,"transed_lat":23.127903921551074,"cityname":"广州市","adname":"越秀区"},{"id":"B00140SOEX","name":"中山大学人类学博物馆","type":"科教文化服务;博物馆;博物馆","typecode":"140100","address":"中山大学东北区334号","location":"113.298939,23.097104","transed_lng":113.29356816356093,"transed_lat":23.099755362127155,"cityname":"广州市","adname":"海珠区"},{"id":"B0FFFDAUQN","name":"广州乞巧文化博物馆","type":"科教文化服务;博物馆;博物馆","typecode":"140100","address":"珠村祠前横路自编11","location":"113.421903,23.122714","transed_lng":113.41639036673452,"transed_lat":23.125219407584297,"cityname":"广州市","adname":"天河区"},{"id":"B00141HXIZ","name":"老殿典藏馆","type":"科教文化服务;博物馆;博物馆","typecode":"140100","address":"沙面岛沙面南街58号","location":"113.242516,23.106508","transed_lng":113.23719313962617,"transed_lat":23.109196884059738,"cityname":"广州市","adname":"荔湾区"},{"id":"B00141OJUY","name":"农民工博物馆","type":"科教文化服务;博物馆;博物馆","typecode":"140100","address":"黄园路33号","location":"113.265140,23.206017","transed_lng":113.25980473354039,"transed_lat":23.20866398712006,"cityname":"广州市","adname":"白云区"},{"id":"B00141PQ06","name":"广东民族服装服饰艺术博物馆","type":"科教文化服务;博物馆;博物馆","typecode":"140100","address":"五山路483号华南农业大学三角市工商银行旁边","location":"113.352401,23.159749","transed_lng":113.3469211611634,"transed_lat":23.162278143754563,"cityname":"广州市","adname":"天河区"},{"id":"B0FFGER41V","name":"广州十三行博物馆","type":"科教文化服务;博物馆;博物馆","typecode":"140100","address":"西堤二马路37号文化公园管理处","location":"113.251093,23.108941","transed_lng":113.24577019754726,"transed_lat":23.111629857115325,"cityname":"广州市","adname":"荔湾区"},{"id":"B00141K0IY","name":"广州广播博物馆","type":"科教文化服务;博物馆;博物馆","typecode":"140100","address":"环市中路231号广播大厦","location":"113.267844,23.144981","transed_lng":113.2625108147756,"transed_lat":23.147649232271,"cityname":"广州市","adname":"越秀区"},{"id":"B0FFHA2300","name":"广东省对外贸易职业技术学校财经商贸博物馆","type":"科教文化服务;博物馆;博物馆","typecode":"140100","address":"龙洞东路297号附近","location":"113.370544,23.198839","transed_lng":113.36503361461476,"transed_lat":23.2013268975533,"cityname":"广州市","adname":"天河区"},{"id":"B00141PT60","name":"广东中医药博物馆","type":"科教文化服务;博物馆;博物馆","typecode":"140100","address":"广州大学城外环东路232号","location":"113.405548,23.058658","transed_lng":113.40002856699157,"transed_lat":23.06118172446565,"cityname":"广州市","adname":"番禺区"},{"id":"B00141KFSY","name":"白云区民俗文化博物馆","type":"科教文化服务;博物馆;博物馆","typecode":"140100","address":"均禾街均和墟均禾一街1号","location":"113.262170,23.255400","transed_lng":113.25683330864881,"transed_lat":23.258031974600595,"cityname":"广州市","adname":"白云区"},{"id":"B0FFH8JRG2","name":"西关美食文化博物馆","type":"科教文化服务;博物馆;博物馆","typecode":"140100","address":"龙津西路165号对过","location":"113.237052,23.122028","transed_lng":113.23172644219001,"transed_lat":23.124708471896728,"cityname":"广州市","adname":"荔湾区"},{"id":"B0FFH8347Q","name":"中药文化博物馆","type":"科教文化服务;博物馆;博物馆","typecode":"140100","address":"塞坝路12号","location":"113.217692,23.109379","transed_lng":113.21235246033729,"transed_lat":23.112048783138516,"cityname":"广州市","adname":"荔湾区"},{"id":"B0FFHPQYUI","name":"国玉艺术博物馆","type":"科教文化服务;博物馆;博物馆","typecode":"140100","address":"康王中路291号附近","location":"113.247341,23.116545","transed_lng":113.24201795202966,"transed_lat":23.119230659235193,"cityname":"广州市","adname":"荔湾区"},{"id":"B0FFF3UUR7","name":"中国民间文化艺术博览馆","type":"科教文化服务;博物馆;博物馆","typecode":"140100","address":"龙津西路94号广州市文津古玩城首层","location":"113.237184,23.120906","transed_lng":113.23185857114743,"transed_lat":23.123586990198966,"cityname":"广州市","adname":"荔湾区"},{"id":"B0FFI8EI46","name":"叶福欢玉雕艺术博物馆","type":"科教文化服务;博物馆;博物馆","typecode":"140100","address":"宝华大街79号附近","location":"113.247584,23.115753","transed_lng":113.24226100501939,"transed_lat":23.118439004106918,"cityname":"广州市","adname":"荔湾区"},{"id":"B00141WLCR","name":"广府状元微型博物馆","type":"科教文化服务;博物馆;博物馆","typecode":"140100","address":"中山六路225号","location":"113.256960,23.125008","transed_lng":113.251634582933,"transed_lat":23.127689363244773,"cityname":"广州市","adname":"越秀区"},{"id":"B0FFFPKE6B","name":"广州私立博物馆紫彦堂铜艺馆","type":"科教文化服务;博物馆;博物馆","typecode":"140100","address":"古玩城D105","location":"113.237443,23.121201","transed_lng":113.23211765488475,"transed_lat":23.123881992057566,"cityname":"广州市","adname":"荔湾区"},{"id":"B00141NO2H","name":"广东外事博物馆","type":"科教文化服务;博物馆;博物馆","typecode":"140100","address":"沙面岛沙面南街20号","location":"113.248219,23.106162","transed_lng":113.24289663624651,"transed_lat":23.10885198575755,"cityname":"广州市","adname":"荔湾区"},{"id":"B0FFGLG356","name":"广州市黄埔区博物馆","type":"科教文化服务;博物馆;博物馆","typecode":"140100","address":"庙头村南","location":"113.498826,23.080600","transed_lng":113.49351775190857,"transed_lat":23.08329524446781,"cityname":"广州市","adname":"黄埔区"},{"id":"B00140UV8H","name":"滨江水上居民民俗博物馆","type":"科教文化服务;博物馆;博物馆","typecode":"140100","address":"怡安路179号","location":"113.275273,23.108787","transed_lng":113.26993530462128,"transed_lat":23.111463868405618,"cityname":"广州市","adname":"海珠区"},{"id":"B00141JIJ3","name":"广州市东平典当博物馆","type":"科教文化服务;博物馆;博物馆","typecode":"140100","address":"中山四路1号","location":"113.278440,23.126642","transed_lng":113.27309755464634,"transed_lat":23.129308486306012,"cityname":"广州市","adname":"越秀区"},{"id":"B00141JO4Q","name":"广州亚运会亚残运会博物馆","type":"科教文化服务;博物馆;博物馆","typecode":"140100","address":"体育西路42号广州亚运会","location":"113.322011,23.138614","transed_lng":113.31659272627523,"transed_lat":23.141207549513314,"cityname":"广州市","adname":"天河区"},{"id":"B0FFG8IVTN","name":"银博物馆","type":"科教文化服务;博物馆;博物馆","typecode":"140100","address":"大观园路与金石路交叉口西北150米","location":"113.158439,23.401785","transed_lng":113.15298095389772,"transed_lat":23.4042658833165,"cityname":"广州市","adname":"花都区"},{"id":"B0FFFAINAL","name":"中国皮具箱包博物馆","type":"科教文化服务;博物馆;博物馆","typecode":"140100","address":"阳光南路阳光6号中国皮具文化园内","location":"113.165773,23.463863","transed_lng":113.16032406866285,"transed_lat":23.466350084783844,"cityname":"广州市","adname":"花都区"},{"id":"B00140M136","name":"中华图腾博物馆","type":"科教文化服务;博物馆;博物馆","typecode":"140100","address":"启明坊外街5号","location":"113.377356,23.075594","transed_lng":113.37184635558731,"transed_lat":23.078123143377358,"cityname":"广州市","adname":"海珠区"},{"id":"B0FFIB5M1C","name":"广州体育文化博物馆","type":"科教文化服务;博物馆;博物馆","typecode":"140100","address":"体育西路与天河北路交叉口东南100米","location":"113.322127,23.138507","transed_lng":113.31670849558535,"transed_lat":23.141100372231723,"cityname":"广州市","adname":"天河区"},{"id":"B0FFF4VZIR","name":"广州普公汉代陶瓷博物馆","type":"科教文化服务;博物馆;博物馆","typecode":"140100","address":"珠光街德政南路51-55号","location":"113.275621,23.117280","transed_lng":113.27028236106356,"transed_lat":23.119953065035943,"cityname":"广州市","adname":"越秀区"},{"id":"B0FFI9QTTH","name":"迪士普音响博物馆","type":"科教文化服务;博物馆;博物馆","typecode":"140100","address":"夏荷路1号","location":"113.212157,23.265471","transed_lng":113.20680038697384,"transed_lat":23.268077080271595,"cityname":"广州市","adname":"白云区"},{"id":"B0FFHOJGQ4","name":"好普艺术博物馆","type":"科教文化服务;博物馆;博物馆","typecode":"140100","address":"观虹路12号兴普大厦A栋4层","location":"113.457348,23.168268","transed_lng":113.4519005256326,"transed_lat":23.170813160992846,"cityname":"广州市","adname":"黄埔区"},{"id":"B0FFGOF2EV","name":"粤海关博物馆","type":"科教文化服务;博物馆;博物馆","typecode":"140100","address":"岭南街道沿江西路29号","location":"113.251127,23.107188","transed_lng":113.24580431002532,"transed_lat":23.10987757688377,"cityname":"广州市","adname":"荔湾区"},{"id":"B0FFH7OWN7","name":"润和养生文化及心脏健康博物馆","type":"科教文化服务;博物馆;博物馆","typecode":"140100","address":"106国道东50米","location":"113.261092,23.404755","transed_lng":113.25574581679882,"transed_lat":23.40735188681898,"cityname":"广州市","adname":"花都区"},{"id":"B00141VX2M","name":"神农草堂中医药博物馆","type":"科教文化服务;博物馆;博物馆","typecode":"140100","address":"沙太北路389号","location":"113.337898,23.196283","transed_lng":113.33244329396553,"transed_lat":23.198824401332278,"cityname":"广州市","adname":"白云区"},{"id":"B00140NYFS","name":"番禺博物馆","type":"科教文化服务;博物馆;博物馆","typecode":"140100","address":"沙头街银平路121号","location":"113.344544,22.951355","transed_lng":113.33909288294396,"transed_lat":22.953985430647894,"cityname":"广州市","adname":"番禺区"},{"id":"B00140T14E","name":"广州博物馆","type":"科教文化服务;博物馆;博物馆","typecode":"140100","address":"镇海路镇海楼","location":"113.265568,23.137701","transed_lng":113.26023702395717,"transed_lat":23.140373553169272,"cityname":"广州市","adname":"越秀区"},{"id":"B0014021B3","name":"西汉南越王博物馆","type":"科教文化服务;博物馆;博物馆","typecode":"140100","address":"解放北路867号","location":"113.261067,23.137864","transed_lng":113.25573883382268,"transed_lat":23.14053877472538,"cityname":"广州市","adname":"越秀区"},{"id":"B00140L657","name":"开放博物馆","type":"科教文化服务;博物馆;博物馆","typecode":"140100","address":"广州大学城外环西路岭南印象园","location":"113.404997,23.036442","transed_lng":113.3994789440006,"transed_lat":23.038975175413928,"cityname":"广州市","adname":"番禺区"},{"id":"B00140U6L3","name":"广东省博物馆","type":"科教文化服务;博物馆;博物馆","typecode":"140100","address":"珠江东路2号","location":"113.326497,23.11474","transed_lng":113.32107111985817,"transed_lat":23.11733464435476,"cityname":"广州市","adname":"天河区"},{"id":"B0014080C5","name":"广州市从化区博物馆","type":"科教文化服务;博物馆;博物馆","typecode":"140100","address":"河滨北路74号","location":"113.592645,23.548622","transed_lng":113.58753896976432,"transed_lat":23.551394139601864,"cityname":"广州市","adname":"从化区"},{"id":"B00140USN8","name":"东平大押","type":"科教文化服务;博物馆;博物馆","typecode":"140100","address":"中山四路1号(近大东门)","location":"113.278508,23.126629","transed_lng":113.2731654755471,"transed_lat":23.12929542127938,"cityname":"广州市","adname":"越秀区"},{"id":"B0FFGZAY3S","name":"广州地铁博物馆","type":"科教文化服务;博物馆;博物馆","typecode":"140100","address":"新港东路1228号万胜广场C塔","location":"113.382806,23.095477","transed_lng":113.37729012631713,"transed_lat":23.097992899112423,"cityname":"广州市","adname":"海珠区"},{"id":"B00140SEAZ","name":"越秀区博物馆","type":"科教文化服务;博物馆;博物馆","typecode":"140100","address":"惠福西路233号","location":"113.25983,23.120458","transed_lng":113.25450363927317,"transed_lat":23.123140273597507,"cityname":"广州市","adname":"越秀区"},{"id":"B00140CHC8","name":"广东革命历史博物馆","type":"科教文化服务;博物馆;博物馆","typecode":"140100","address":"陵园西路2号大院2号","location":"113.283389,23.128447","transed_lng":113.278040218073,"transed_lat":23.131107265221893,"cityname":"广州市","adname":"越秀区"},{"id":"B00140CDZU","name":"海珠博物馆","type":"科教文化服务;博物馆;博物馆","typecode":"140100","address":"宝岗大道龙涎里2号邓世昌纪念馆","location":"113.260402,23.10104","transed_lng":113.25507665340123,"transed_lat":23.103730020235105,"cityname":"广州市","adname":"海珠区"},{"id":"B00140AI11","name":"广州艺术博物院","type":"科教文化服务;博物馆;博物馆","typecode":"140100","address":"麓湖路13号","location":"113.280653,23.142829","transed_lng":113.2753067848573,"transed_lat":23.145486656534757,"cityname":"广州市","adname":"越秀区"},{"id":"B00140USZS","name":"南越王宫博物馆","type":"科教文化服务;博物馆;博物馆","typecode":"140100","address":"中山四路316","location":"113.270436,23.126156","transed_lng":113.26510188450563,"transed_lat":23.128829884497957,"cityname":"广州市","adname":"越秀区"},{"id":"B0FFF2FCXB","name":"粤剧艺术博物馆","type":"科教文化服务;博物馆;博物馆","typecode":"140100","address":"恩宁路与蓬莱路交叉口东北50米","location":"113.238229,23.114475","transed_lng":113.23290440386346,"transed_lat":23.117159086563458,"cityname":"广州市","adname":"荔湾区"},{"id":"B00140WCET","name":"东濠涌博物馆","type":"科教文化服务;博物馆;博物馆","typecode":"140100","address":"越秀北路78号(近东濠涌)","location":"113.278754,23.128624","transed_lng":113.27341105085782,"transed_lat":23.131289361762583,"cityname":"广州市","adname":"越秀区"},{"id":"B00140UVVU","name":"珠江英博国际啤酒博物馆","type":"科教文化服务;博物馆;博物馆","typecode":"140100","address":"阅江西路磨碟沙大街118号(磨碟沙隧道东出口右侧)","location":"113.342886,23.106313","transed_lng":113.33742756575728,"transed_lat":23.108880233960292,"cityname":"广州市","adname":"海珠区"},{"id":"B00140AK0R","name":"荔湾博物馆","type":"科教文化服务;博物馆;博物馆","typecode":"140100","address":"龙津西路逢源北街84号","location":"113.235991,23.11972","transed_lng":113.2306651404471,"transed_lat":23.12240088003962,"cityname":"广州市","adname":"荔湾区"},{"id":"B00140B59N","name":"广东民间工艺博物馆","type":"科教文化服务;博物馆;博物馆","typecode":"140100","address":"中山七路恩龙里34号","location":"113.245443,23.127128","transed_lng":113.24011916239705,"transed_lat":23.12980912038826,"cityname":"广州市","adname":"荔湾区"},{"id":"B00140US2Z","name":"广东华侨博物馆","type":"科教文化服务;博物馆;博物馆","typecode":"140100","address":"二沙岛烟雨路32号","location":"113.30588,23.108565","transed_lng":113.30049576762121,"transed_lat":23.11120012520104,"cityname":"广州市","adname":"越秀区"},{"id":"B00141IBJE","name":"广州民俗博物馆","type":"科教文化服务;博物馆;博物馆","typecode":"140100","address":"新华街三华村107国道旁资政大夫祠","location":"113.191801,23.387166","transed_lng":113.18640514901203,"transed_lat":23.389711155402225,"cityname":"广州市","adname":"花都区"},{"id":"B00141KHRT","name":"广东省凉茶养生博物馆","type":"科教文化服务;博物馆;博物馆","typecode":"140100","address":"科学城金峰园路2号","location":"113.450237,23.179609","transed_lng":113.44477067081588,"transed_lat":23.182134396563278,"cityname":"广州市","adname":"黄埔区"},{"id":"B00140U7YZ","name":"中山大学广州南校区生物博物馆","type":"科教文化服务;博物馆;博物馆","typecode":"140100","address":"中大西南区475号","location":"113.296248,23.093418","transed_lng":113.29088203682002,"transed_lat":23.09607509003673,"cityname":"广州市","adname":"海珠区"},{"id":"B0FFF3B6TQ","name":"普公古陶瓷博物馆","type":"科教文化服务;博物馆;博物馆","typecode":"140100","address":"德政南路53-55号","location":"113.275627,23.117493","transed_lng":113.27028834028593,"transed_lat":23.120165972556517,"cityname":"广州市","adname":"越秀区"},{"id":"B0FFGIO5ZF","name":"广府本草博物馆","type":"科教文化服务;博物馆;博物馆","typecode":"140100","address":"大沙头路17-4号附近","location":"113.283602,23.114971","transed_lng":113.27825383924998,"transed_lat":23.117636479807267,"cityname":"广州市","adname":"越秀区"},{"id":"B0FFIBUS54","name":"八旗博物馆","type":"科教文化服务;博物馆;博物馆","typecode":"140100","address":"德政南路51-55号5楼","location":"113.275569,23.117672","transed_lng":113.27023039079187,"transed_lat":23.120344954086928,"cityname":"广州市","adname":"越秀区"},{"id":"B00140NYFS","name":"番禺博物馆","type":"科教文化服务;博物馆;博物馆","typecode":"140100","address":"沙头街银平路121号","location":"113.344544,22.951355","transed_lng":113.33909288294396,"transed_lat":22.953985430647894,"cityname":"广州市","adname":"番禺区"},{"id":"B00140T14E","name":"广州博物馆","type":"科教文化服务;博物馆;博物馆","typecode":"140100","address":"镇海路镇海楼","location":"113.265568,23.137701","transed_lng":113.26023702395717,"transed_lat":23.140373553169272,"cityname":"广州市","adname":"越秀区"},{"id":"B0014021B3","name":"西汉南越王博物馆","type":"科教文化服务;博物馆;博物馆","typecode":"140100","address":"解放北路867号","location":"113.261067,23.137864","transed_lng":113.25573883382268,"transed_lat":23.14053877472538,"cityname":"广州市","adname":"越秀区"},{"id":"B00140L657","name":"开放博物馆","type":"科教文化服务;博物馆;博物馆","typecode":"140100","address":"广州大学城外环西路岭南印象园","location":"113.404997,23.036442","transed_lng":113.3994789440006,"transed_lat":23.038975175413928,"cityname":"广州市","adname":"番禺区"},{"id":"B00140U6L3","name":"广东省博物馆","type":"科教文化服务;博物馆;博物馆","typecode":"140100","address":"珠江东路2号","location":"113.326497,23.11474","transed_lng":113.32107111985817,"transed_lat":23.11733464435476,"cityname":"广州市","adname":"天河区"},{"id":"B0014080C5","name":"广州市从化区博物馆","type":"科教文化服务;博物馆;博物馆","typecode":"140100","address":"河滨北路74号","location":"113.592645,23.548622","transed_lng":113.58753896976432,"transed_lat":23.551394139601864,"cityname":"广州市","adname":"从化区"},{"id":"B00140USN8","name":"东平大押","type":"科教文化服务;博物馆;博物馆","typecode":"140100","address":"中山四路1号(近大东门)","location":"113.278508,23.126629","transed_lng":113.2731654755471,"transed_lat":23.12929542127938,"cityname":"广州市","adname":"越秀区"},{"id":"B0FFGZAY3S","name":"广州地铁博物馆","type":"科教文化服务;博物馆;博物馆","typecode":"140100","address":"新港东路1228号万胜广场C塔","location":"113.382806,23.095477","transed_lng":113.37729012631713,"transed_lat":23.097992899112423,"cityname":"广州市","adname":"海珠区"},{"id":"B00140SEAZ","name":"越秀区博物馆","type":"科教文化服务;博物馆;博物馆","typecode":"140100","address":"惠福西路233号","location":"113.25983,23.120458","transed_lng":113.25450363927317,"transed_lat":23.123140273597507,"cityname":"广州市","adname":"越秀区"},{"id":"B00140CHC8","name":"广东革命历史博物馆","type":"科教文化服务;博物馆;博物馆","typecode":"140100","address":"陵园西路2号大院2号","location":"113.283389,23.128447","transed_lng":113.278040218073,"transed_lat":23.131107265221893,"cityname":"广州市","adname":"越秀区"},{"id":"B00140CDZU","name":"海珠博物馆","type":"科教文化服务;博物馆;博物馆","typecode":"140100","address":"宝岗大道龙涎里2号邓世昌纪念馆","location":"113.260402,23.10104","transed_lng":113.25507665340123,"transed_lat":23.103730020235105,"cityname":"广州市","adname":"海珠区"},{"id":"B00140AI11","name":"广州艺术博物院","type":"科教文化服务;博物馆;博物馆","typecode":"140100","address":"麓湖路13号","location":"113.280653,23.142829","transed_lng":113.2753067848573,"transed_lat":23.145486656534757,"cityname":"广州市","adname":"越秀区"},{"id":"B00140USZS","name":"南越王宫博物馆","type":"科教文化服务;博物馆;博物馆","typecode":"140100","address":"中山四路316","location":"113.270436,23.126156","transed_lng":113.26510188450563,"transed_lat":23.128829884497957,"cityname":"广州市","adname":"越秀区"},{"id":"B0FFF2FCXB","name":"粤剧艺术博物馆","type":"科教文化服务;博物馆;博物馆","typecode":"140100","address":"恩宁路与蓬莱路交叉口东北50米","location":"113.238229,23.114475","transed_lng":113.23290440386346,"transed_lat":23.117159086563458,"cityname":"广州市","adname":"荔湾区"},{"id":"B00140WCET","name":"东濠涌博物馆","type":"科教文化服务;博物馆;博物馆","typecode":"140100","address":"越秀北路78号(近东濠涌)","location":"113.278754,23.128624","transed_lng":113.27341105085782,"transed_lat":23.131289361762583,"cityname":"广州市","adname":"越秀区"},{"id":"B00140UVVU","name":"珠江英博国际啤酒博物馆","type":"科教文化服务;博物馆;博物馆","typecode":"140100","address":"阅江西路磨碟沙大街118号(磨碟沙隧道东出口右侧)","location":"113.342886,23.106313","transed_lng":113.33742756575728,"transed_lat":23.108880233960292,"cityname":"广州市","adname":"海珠区"},{"id":"B00140AK0R","name":"荔湾博物馆","type":"科教文化服务;博物馆;博物馆","typecode":"140100","address":"龙津西路逢源北街84号","location":"113.235991,23.11972","transed_lng":113.2306651404471,"transed_lat":23.12240088003962,"cityname":"广州市","adname":"荔湾区"},{"id":"B00140B59N","name":"广东民间工艺博物馆","type":"科教文化服务;博物馆;博物馆","typecode":"140100","address":"中山七路恩龙里34号","location":"113.245443,23.127128","transed_lng":113.24011916239705,"transed_lat":23.12980912038826,"cityname":"广州市","adname":"荔湾区"},{"id":"B00140US2Z","name":"广东华侨博物馆","type":"科教文化服务;博物馆;博物馆","typecode":"140100","address":"二沙岛烟雨路32号","location":"113.30588,23.108565","transed_lng":113.30049576762121,"transed_lat":23.11120012520104,"cityname":"广州市","adname":"越秀区"},{"id":"B00141IBJE","name":"广州民俗博物馆","type":"科教文化服务;博物馆;博物馆","typecode":"140100","address":"新华街三华村107国道旁资政大夫祠","location":"113.191801,23.387166","transed_lng":113.18640514901203,"transed_lat":23.389711155402225,"cityname":"广州市","adname":"花都区"},{"id":"B00141KHRT","name":"广东省凉茶养生博物馆","type":"科教文化服务;博物馆;博物馆","typecode":"140100","address":"科学城金峰园路2号","location":"113.450237,23.179609","transed_lng":113.44477067081588,"transed_lat":23.182134396563278,"cityname":"广州市","adname":"黄埔区"},{"id":"B00140U7YZ","name":"中山大学广州南校区生物博物馆","type":"科教文化服务;博物馆;博物馆","typecode":"140100","address":"中大西南区475号","location":"113.296248,23.093418","transed_lng":113.29088203682002,"transed_lat":23.09607509003673,"cityname":"广州市","adname":"海珠区"},{"id":"B0FFF3B6TQ","name":"普公古陶瓷博物馆","type":"科教文化服务;博物馆;博物馆","typecode":"140100","address":"德政南路53-55号","location":"113.275627,23.117493","transed_lng":113.27028834028593,"transed_lat":23.120165972556517,"cityname":"广州市","adname":"越秀区"},{"id":"B0FFGIO5ZF","name":"广府本草博物馆","type":"科教文化服务;博物馆;博物馆","typecode":"140100","address":"大沙头路17-4号附近","location":"113.283602,23.114971","transed_lng":113.27825383924998,"transed_lat":23.117636479807267,"cityname":"广州市","adname":"越秀区"},{"id":"B0FFIBUS54","name":"八旗博物馆","type":"科教文化服务;博物馆;博物馆","typecode":"140100","address":"德政南路51-55号5楼","location":"113.275569,23.117672","transed_lng":113.27023039079187,"transed_lat":23.120344954086928,"cityname":"广州市","adname":"越秀区"}]
