[{"id":"B00140W577","name":"锦绣半岛","type":"商务住宅;住宅区;住宅小区","typecode":"120302","address":"洛浦街南浦环岛西路121号","location":"113.257702,23.041644","transed_lng":113.25238187226958,"transed_lat":23.044360095982807,"cityname":"广州市","adname":"番禺区"},{"id":"B00140LC99","name":"南沙碧桂园","type":"商务住宅;住宅区;住宅小区","typecode":"120302","address":"进港大道130-180号","location":"113.554947,22.798099","transed_lng":113.54983322822095,"transed_lat":22.801057709978547,"cityname":"广州市","adname":"南沙区"},{"id":"B00140NYSH","name":"嘉诚国际公寓","type":"住宿服务;住宿服务相关;住宿服务相关|商务住宅;住宅区;住宅小区","typecode":"100000|120302","address":"广州大道中611号","location":"113.314431,23.138212","transed_lng":113.30902813004634,"transed_lat":23.140819878993366,"cityname":"广州市","adname":"越秀区"},{"id":"B00140W5T2","name":"恒大绿洲","type":"商务住宅;住宅区;住宅小区","typecode":"120302","address":"金沙洲岛御洲三街","location":"113.21035,23.145628","transed_lng":113.20499912312552,"transed_lat":23.14827403681796,"cityname":"广州市","adname":"白云区"},{"id":"B00140290D","name":"珠江广场","type":"商务住宅;住宅区;住宅小区","typecode":"120302","address":"滨江东路835号","location":"113.309458,23.103311","transed_lng":113.3040672848706,"transed_lat":23.105942037519718,"cityname":"广州市","adname":"海珠区"},{"id":"B00140U2HW","name":"富力·金禧花园","type":"商务住宅;住宅区;住宅小区","typecode":"120302","address":"福场路5-2","location":"113.260671,23.106133","transed_lng":113.25534517249811,"transed_lat":23.108820806171128,"cityname":"广州市","adname":"海珠区"},{"id":"B00140TTD0","name":"泰康路小区","type":"商务住宅;住宅区;住宅小区","typecode":"120302","address":"木排新街与泰康路交叉口东北50米","location":"113.267563,23.117711","transed_lng":113.26223186827706,"transed_lat":23.120390358497637,"cityname":"广州市","adname":"越秀区"},{"id":"B00140ULO1","name":"时代花园(水边街)","type":"商务住宅;住宅区;住宅小区","typecode":"120302","address":"白云机场路水边街75-235号","location":"113.254822,23.176479","transed_lng":113.24949384738945,"transed_lat":23.1791407473219,"cityname":"广州市","adname":"白云区"},{"id":"B00140AQHD","name":"晓港湾","type":"商务住宅;住宅区;住宅小区","typecode":"120302","address":"英华街145号","location":"113.293729,23.069319","transed_lng":113.28836883289148,"transed_lat":23.071990006008143,"cityname":"广州市","adname":"海珠区"},{"id":"B00140UF9G","name":"中怡城市花园","type":"住宿服务;住宿服务相关;住宿服务相关|商务住宅;住宅区;住宅小区","typecode":"100000|120302","address":"林和东路39号","location":"113.327529,23.143689","transed_lng":113.32209902909781,"transed_lat":23.14627003138627,"cityname":"广州市","adname":"天河区"},{"id":"B00140UJI9","name":"建设六马路小区","type":"商务住宅;住宅区;住宅小区","typecode":"120302","address":"东风东建设六马路","location":"113.284329,23.133188","transed_lng":113.27897863070105,"transed_lat":23.135845233717234,"cityname":"广州市","adname":"越秀区"},{"id":"B00141IDN5","name":"雅居乐(东环路)","type":"商务住宅;住宅区;住宅小区","typecode":"120302","address":"扶风大街与桥兴大道交叉口东150米","location":"113.359635,22.953426","transed_lng":113.35415700636887,"transed_lat":22.956030241035048,"cityname":"广州市","adname":"番禺区"},{"id":"B00140TSZW","name":"革新路小区","type":"商务住宅;住宅区;住宅小区","typecode":"120302","address":"海珠工业大道北革新路","location":"113.253492,23.093738","transed_lng":113.24816975265033,"transed_lat":23.096432925788818,"cityname":"广州市","adname":"海珠区"},{"id":"B00140C6UQ","name":"海富花园","type":"商务住宅;住宅区;住宅小区","typecode":"120302","address":"江燕路20号(江燕路与江南大道南交界处)","location":"113.277714,23.083843","transed_lng":113.27237527242583,"transed_lat":23.08652787787958,"cityname":"广州市","adname":"海珠区"},{"id":"B00140UY8U","name":"金碧世纪花园","type":"商务住宅;住宅区;住宅小区","typecode":"120302","address":"中山大道东81号","location":"113.42929,23.114462","transed_lng":113.42378737088534,"transed_lat":23.116978505983646,"cityname":"广州市","adname":"黄埔区"},{"id":"B00140U0KS","name":"东风广场","type":"商务住宅;住宅区;住宅小区","typecode":"120302","address":"越秀东风东路787号(梅花路口)","location":"113.310126,23.133062","transed_lng":113.30473197647088,"transed_lat":23.135679733376723,"cityname":"广州市","adname":"越秀区"},{"id":"B00140NPEF","name":"新大厦国际公寓","type":"商务住宅;住宅区;住宅小区","typecode":"120302","address":"珠江新城华利路1号(华利路与广州大道中交叉口,地铁珠江新城站B1出口)","location":"113.315913,23.11813","transed_lng":113.31050851787437,"transed_lat":23.120743233938352,"cityname":"广州市","adname":"天河区"},{"id":"B00140TTL6","name":"中山四小区","type":"商务住宅;住宅区;住宅小区","typecode":"120302","address":"榨粉街与福恩里交叉口西南50米","location":"113.273549,23.126707","transed_lng":113.26821188846326,"transed_lat":23.129378117629386,"cityname":"广州市","adname":"越秀区"},{"id":"B00140UF31","name":"天河北苑","type":"商务住宅;住宅区;住宅小区","typecode":"120302","address":"沙太南路274-320号","location":"113.326705,23.167058","transed_lng":113.32127513818928,"transed_lat":23.16963152666459,"cityname":"广州市","adname":"天河区"},{"id":"B00140SVNG","name":"夏茅村","type":"地名地址信息;普通地名;村庄级地名|商务住宅;住宅区;住宅小区","typecode":"190108|120302","address":"机场路夏茅村口(近夏茅村口)","location":"113.256244,23.223796","transed_lng":113.25091220716797,"transed_lat":23.226440450045967,"cityname":"广州市","adname":"白云区"},{"id":"B00140UE9Q","name":"南沙奥园","type":"商务住宅;住宅区;住宅小区","typecode":"120302","address":"珠江东路269号","location":"113.59402,22.75232","transed_lng":113.58896705153867,"transed_lat":22.75533423093593,"cityname":"广州市","adname":"南沙区"},{"id":"B00140UFKH","name":"金海花园","type":"商务住宅;住宅区;住宅小区","typecode":"120302","address":"天河北路614号","location":"113.33814,23.140601","transed_lng":113.33268860508275,"transed_lat":23.143163124122335,"cityname":"广州市","adname":"天河区"},{"id":"B00140UGG4","name":"保利花园","type":"商务住宅;住宅区;住宅小区","typecode":"120302","address":"工业大道中400号(近华润万家)","location":"113.273801,23.070991","transed_lng":113.26846737175609,"transed_lat":23.07368499765129,"cityname":"广州市","adname":"海珠区"},{"id":"B00140TT4S","name":"天府路小区","type":"商务住宅;住宅区;住宅小区","typecode":"120302","address":"东方三路与天府路交叉口西北150米","location":"113.361998,23.129400","transed_lng":113.35650431839656,"transed_lat":23.131925982260533,"cityname":"广州市","adname":"天河区"},{"id":"B00140MUT9","name":"黄埔花园","type":"商务住宅;住宅区;住宅小区","typecode":"120302","address":"丰乐南路438号大院","location":"113.457517,23.098806","transed_lng":113.45207471243926,"transed_lat":23.101379305713976,"cityname":"广州市","adname":"黄埔区"},{"id":"B00140UDAG","name":"金碧雅苑","type":"商务住宅;住宅区;住宅小区","typecode":"120302","address":"尖彭路","location":"113.291842,23.222941","transed_lng":113.28647450065394,"transed_lat":23.225554799644076,"cityname":"广州市","adname":"白云区"},{"id":"B00140UDPR","name":"凤馨苑","type":"商务住宅;住宅区;住宅小区","typecode":"120302","address":"广园快速路和汽车城大道交汇处","location":"113.597933,23.140279","transed_lng":113.59285668660443,"transed_lat":23.143137911360704,"cityname":"广州市","adname":"增城区"},{"id":"B00140V8P8","name":"东城(大沙头路)","type":"商务住宅;住宅区;住宅小区","typecode":"120302","address":"沿江东路421号","location":"113.284,23.114036","transed_lng":113.27865136582615,"transed_lat":23.116701385265454,"cityname":"广州市","adname":"越秀区"},{"id":"B00140UFG9","name":"世纪广场","type":"商务住宅;住宅区;住宅小区","typecode":"120302","address":"龙津中路599号","location":"113.24652,23.123921","transed_lng":113.24119644056057,"transed_lat":23.126603572145296,"cityname":"广州市","adname":"荔湾区"},{"id":"B0014062C0","name":"绿庭雅苑(汇景大道)","type":"商务住宅;住宅区;住宅小区","typecode":"120302","address":"汇景大道60-1号","location":"113.370333,22.921018","transed_lng":113.36484186185766,"transed_lat":22.923621159835093,"cityname":"广州市","adname":"番禺区"},{"id":"B00140CHZC","name":"泰安花园","type":"商务住宅;住宅区;住宅小区","typecode":"120302","address":"泰安街1号","location":"113.392375,23.12974","transed_lng":113.38685129111344,"transed_lat":23.132235997887907,"cityname":"广州市","adname":"天河区"},{"id":"B00140S575","name":"珠岛花园","type":"商务住宅;住宅区;住宅小区","typecode":"120302","address":"大坦沙岛东海南路39号","location":"113.223979,23.131124","transed_lng":113.21864427102606,"transed_lat":23.133791483382947,"cityname":"广州市","adname":"荔湾区"},{"id":"B00140UFAP","name":"翠湖山庄","type":"商务住宅;住宅区;住宅小区","typecode":"120302","address":"黄埔大道萝斗岗1号","location":"113.353084,23.127573","transed_lng":113.34760515239527,"transed_lat":23.130113707418907,"cityname":"广州市","adname":"天河区"},{"id":"B00140W70J","name":"广弘天琪","type":"住宿服务;住宿服务相关;住宿服务相关|商务住宅;住宅区;住宅小区","typecode":"100000|120302","address":"珠江新城华利路27号","location":"113.317974,23.11814","transed_lng":113.31256535299956,"transed_lat":23.120749395252094,"cityname":"广州市","adname":"天河区"},{"id":"B00140H955","name":"翠城花园","type":"商务住宅;住宅区;住宅小区","typecode":"120302","address":"宝岗大道928号","location":"113.27103,23.082968","transed_lng":113.26569824407287,"transed_lat":23.085659246782516,"cityname":"广州市","adname":"海珠区"},{"id":"B00140HDHM","name":"富力广场南区","type":"商务住宅;住宅区;住宅小区","typecode":"120302","address":"中山八路","location":"113.238347,23.124125","transed_lng":113.23302179981792,"transed_lat":23.126805212115936,"cityname":"广州市","adname":"荔湾区"},{"id":"B00140TTLI","name":"淘金路小区","type":"商务住宅;住宅区;住宅小区","typecode":"120302","address":"淘金街40号","location":"113.286787,23.140375","transed_lng":113.28143270323916,"transed_lat":23.14302629776646,"cityname":"广州市","adname":"越秀区"},{"id":"B00140WBKF","name":"越秀·岭南湾畔","type":"商务住宅;住宅区;住宅小区","typecode":"120302","address":"西湾路湾畔大街1-33号(单号)","location":"113.238658,23.150816","transed_lng":113.23333111967831,"transed_lat":23.153485719943383,"cityname":"广州市","adname":"荔湾区"},{"id":"B00140TYP2","name":"金碧华府","type":"商务住宅;住宅区;住宅小区","typecode":"120302","address":"花城大道723-724号(马场路)","location":"113.342021,23.11672","transed_lng":113.33656354471478,"transed_lat":23.11928454651917,"cityname":"广州市","adname":"天河区"},{"id":"B00140UY6V","name":"方圆·云山诗意","type":"商务住宅;住宅区;住宅小区","typecode":"120302","address":"白云大道北黄边北路","location":"113.290582,23.219092","transed_lng":113.28521672979788,"transed_lat":23.221708891797583,"cityname":"广州市","adname":"白云区"},{"id":"B00140TSVU","name":"康王路小区","type":"商务住宅;住宅区;住宅小区","typecode":"120302","address":"康王中路与康王南路交叉口南100米","location":"113.247559,23.117266","transed_lng":113.24223590375048,"transed_lat":23.119951384621828,"cityname":"广州市","adname":"荔湾区"},{"id":"B00141JEAN","name":"员村二横路","type":"商务住宅;住宅区;住宅小区","typecode":"120302","address":"员村二横路与程界成龙街交叉口北150米","location":"113.363956,23.116986","transed_lng":113.35846022834791,"transed_lat":23.119514194507037,"cityname":"广州市","adname":"天河区"},{"id":"B00140NZ09","name":"南沙滨海花园","type":"商务住宅;住宅区;住宅小区","typecode":"120302","address":"环市大道西483号","location":"113.528508,22.780674","transed_lng":113.52332113630543,"transed_lat":22.78357762295819,"cityname":"广州市","adname":"南沙区"},{"id":"B00140UFUG","name":"海龙湾","type":"商务住宅;住宅区;住宅小区","typecode":"120302","address":"洛浦街新浦南路","location":"113.30026,23.027021","transed_lng":113.29489155126168,"transed_lat":23.029700042189738,"cityname":"广州市","adname":"番禺区"},{"id":"B00140UGBC","name":"壹号公馆","type":"商务住宅;住宅区;住宅小区","typecode":"120302","address":"广园东瘦狗岭路313号","location":"113.328926,23.151346","transed_lng":113.32349263285906,"transed_lat":23.15392135525401,"cityname":"广州市","adname":"天河区"},{"id":"B00140V9UK","name":"美林湖畔花园","type":"商务住宅;住宅区;住宅小区","typecode":"120302","address":"东圃镇桃园东路杨桃公园南侧","location":"113.414793,23.109435","transed_lng":113.40927476184174,"transed_lat":23.111940687679834,"cityname":"广州市","adname":"天河区"},{"id":"B00141IE5Q","name":"番禺奥园","type":"商务住宅;住宅区;住宅小区","typecode":"120302","address":"沙湾街","location":"113.365067,22.90991","transed_lng":113.35958372251262,"transed_lat":22.91252466122942,"cityname":"广州市","adname":"番禺区"},{"id":"B00140TQUO","name":"时代玫瑰园","type":"商务住宅;住宅区;住宅小区","typecode":"120302","address":"黄边北路151号","location":"113.286447,23.224763","transed_lng":113.28108749943027,"transed_lat":23.227383458530927,"cityname":"广州市","adname":"白云区"},{"id":"B00140V9Q9","name":"锦绣生态园乐满园","type":"商务住宅;住宅区;住宅小区","typecode":"120302","address":"番禺钟村祈福路大夫山森林公园北门","location":"113.302899,22.967377","transed_lng":113.29752980050813,"transed_lat":22.970077445837152,"cityname":"广州市","adname":"番禺区"},{"id":"B00140W6T3","name":"恒大山水城","type":"商务住宅;住宅区;住宅小区","typecode":"120302","address":"下车路附近","location":"113.616645,23.296087","transed_lng":113.61155801992514,"transed_lat":23.298884965598507,"cityname":"广州市","adname":"增城区"},{"id":"B00141HWXU","name":"体育花园(云城东路)","type":"商务住宅;住宅区;住宅小区","typecode":"120302","address":"云城东路","location":"113.27612,23.183509","transed_lng":113.27077636480395,"transed_lat":23.186155718739254,"cityname":"广州市","adname":"白云区"},{"id":"B00140UFP3","name":"珠江花园","type":"商务住宅;住宅区;住宅小区","typecode":"120302","address":"洛浦街道沙溪大道282号","location":"113.345907,23.031304","transed_lng":113.34044786042475,"transed_lat":23.03389754620448,"cityname":"广州市","adname":"番禺区"},{"id":"B00140N614","name":"铂林国际公寓","type":"商务住宅;住宅区;住宅小区","typecode":"120302","address":"珠江新城花城大道16号","location":"113.316601,23.119065","transed_lng":113.31119506833227,"transed_lat":23.12167657728905,"cityname":"广州市","adname":"天河区"},{"id":"B00140UG0B","name":"金海湾(滨江东路)","type":"商务住宅;住宅区;住宅小区","typecode":"120302","address":"滨江东路555号(中大北门广场东侧)","location":"113.302012,23.103171","transed_lng":113.29663528127291,"transed_lat":23.105814870330605,"cityname":"广州市","adname":"海珠区"},{"id":"B00140NZ0C","name":"南沙境界","type":"商务住宅;住宅区;住宅小区","typecode":"120302","address":"黄阁镇市南公路290号","location":"113.526174,22.812553","transed_lng":113.52097752333985,"transed_lat":22.815439215333647,"cityname":"广州市","adname":"南沙区"},{"id":"B00140UVA2","name":"时代You公寓","type":"住宿服务;住宿服务相关;住宿服务相关|商务住宅;住宅区;住宅小区","typecode":"100000|120302","address":"先烈南路9号(省卫生厅隔壁)","location":"113.286875,23.131645","transed_lng":113.28152116431804,"transed_lat":23.134299667296133,"cityname":"广州市","adname":"越秀区"},{"id":"B00140NZ99","name":"雅宝新城(平步大道中)","type":"商务住宅;住宅区;住宅小区","typecode":"120302","address":"新华街花都大道中131号","location":"113.184496,23.430684","transed_lng":113.17908419507941,"transed_lat":23.433209608932614,"cityname":"广州市","adname":"花都区"},{"id":"B00140UE56","name":"珠江御景湾","type":"商务住宅;住宅区;住宅小区","typecode":"120302","address":"南洲路","location":"113.33928,23.050192","transed_lng":113.33383247695915,"transed_lat":23.052789525406567,"cityname":"广州市","adname":"海珠区"},{"id":"B00140UF8Q","name":"东方新世界","type":"商务住宅;住宅区;住宅小区","typecode":"120302","address":"中山大道西158号","location":"113.359814,23.13252","transed_lng":113.35432351518268,"transed_lat":23.135047987528925,"cityname":"广州市","adname":"天河区"},{"id":"B00140W4ST","name":"万科·云山清峯","type":"商务住宅;住宅区;住宅小区","typecode":"120302","address":"均禾大道东平段","location":"113.310105,23.245304","transed_lng":113.3047034095591,"transed_lat":23.247880760247035,"cityname":"广州市","adname":"白云区"},{"id":"B00140V8O3","name":"美林海岸","type":"商务住宅;住宅区;住宅小区","typecode":"120302","address":"棕林街","location":"113.372815,23.113114","transed_lng":113.36730773401723,"transed_lat":23.115632391610085,"cityname":"广州市","adname":"天河区"},{"id":"B00140W2J4","name":"广州雅居乐花园西区","type":"商务住宅;住宅区;住宅小区","typecode":"120302","address":"南村镇兴南大道398号","location":"113.360926,23.009803","transed_lng":113.3554421366962,"transed_lat":23.012381021874724,"cityname":"广州市","adname":"番禺区"},{"id":"B00140UF6O","name":"万科·蓝山","type":"商务住宅;住宅区;住宅小区","typecode":"120302","address":"黄庄南路38号","location":"113.344274,23.233327","transed_lng":113.33880420811914,"transed_lat":23.23584375884287,"cityname":"广州市","adname":"白云区"},{"id":"B00140W2AW","name":"万科城市花园(西约大街)","type":"商务住宅;住宅区;住宅小区","typecode":"120302","address":"石化路191号","location":"113.467084,23.106992","transed_lng":113.46166835857838,"transed_lat":23.109585313577742,"cityname":"广州市","adname":"黄埔区"},{"id":"B00141JFFZ","name":"金沙洲新社区","type":"商务住宅;住宅区;住宅小区","typecode":"120302","address":"金沙洲岛环洲三路","location":"113.203133,23.156137","transed_lng":113.19777120043592,"transed_lat":23.15876853511816,"cityname":"广州市","adname":"白云区"},{"id":"B00141J3W7","name":"新塘新世界花园","type":"商务住宅;住宅区;住宅小区","typecode":"120302","address":"新塘镇花园东路6号","location":"113.574455,23.106603","transed_lng":113.56935874168204,"transed_lat":23.109463376801052,"cityname":"广州市","adname":"增城区"},{"id":"B00140UEY4","name":"锦绣御景苑南区","type":"商务住宅;住宅区;住宅小区","typecode":"120302","address":"荔城镇","location":"113.819555,23.301485","transed_lng":113.81446954299486,"transed_lat":23.304180093905998,"cityname":"广州市","adname":"增城区"},{"id":"B00140TTDQ","name":"大沙头路小区","type":"商务住宅;住宅区;住宅小区","typecode":"120302","address":"越秀大沙头路(海印广场附近)","location":"113.284866,23.114100","transed_lng":113.27951617783673,"transed_lat":23.116764305237385,"cityname":"广州市","adname":"越秀区"},{"id":"B00140TYJG","name":"汇峰A座","type":"商务住宅;住宅区;住宅小区","typecode":"120302","address":"兴盛路8号","location":"113.330136,23.120255","transed_lng":113.32470225795034,"transed_lat":23.1228404490358,"cityname":"广州市","adname":"天河区"},{"id":"B00141JM5J","name":"雅居乐城南源著","type":"商务住宅;住宅区;住宅小区","typecode":"120302","address":"南城路723号","location":"113.365108,22.907488","transed_lng":113.35962482806696,"transed_lat":22.910103606083943,"cityname":"广州市","adname":"番禺区"},{"id":"B00140UE3X","name":"中海·金沙馨园","type":"商务住宅;住宅区;住宅小区","typecode":"120302","address":"金沙洲岛环洲三路","location":"113.205339,23.148264","transed_lng":113.19998099339084,"transed_lat":23.150901919414594,"cityname":"广州市","adname":"白云区"},{"id":"B00140SZ4E","name":"白云高尔夫花园","type":"商务住宅;住宅区;住宅小区","typecode":"120302","address":"黄石东路118号","location":"113.270490,23.203491","transed_lng":113.26515063644416,"transed_lat":23.206135297836312,"cityname":"广州市","adname":"白云区"},{"id":"B00140UY9T","name":"汇侨新城","type":"商务住宅;住宅区;住宅小区","typecode":"120302","address":"汇侨路","location":"113.257621,23.197364","transed_lng":113.2522904652324,"transed_lat":23.200017367546355,"cityname":"广州市","adname":"白云区"},{"id":"B00140U3DG","name":"学生公寓","type":"商务住宅;住宅区;住宅小区","typecode":"120302","address":[],"location":"113.269169,23.104817","transed_lng":113.26383741984576,"transed_lat":23.10750053922592,"cityname":"广州市","adname":"海珠区"},{"id":"B00140TSX4","name":"大同路小区","type":"商务住宅;住宅区;住宅小区","typecode":"120302","address":"黄沙水产交易市场A03、B03","location":"113.241426,23.111328","transed_lng":113.2361025795054,"transed_lat":23.114014579025064,"cityname":"广州市","adname":"荔湾区"},{"id":"B0FFF5UPAN","name":"淘金家园","type":"商务住宅;住宅区;住宅小区","typecode":"120302","address":"淘金东路89号","location":"113.2948,23.143528","transed_lng":113.28943307969915,"transed_lat":23.146166891679712,"cityname":"广州市","adname":"越秀区"},{"id":"B00140U4CP","name":"白云山小区","type":"商务住宅;住宅区;住宅小区","typecode":"120302","address":"广卫路","location":"113.308019,23.156525","transed_lng":113.3026274614458,"transed_lat":23.159137209629215,"cityname":"广州市","adname":"越秀区"},{"id":"B00140UKAM","name":"祈福新邨(鸿福路)","type":"商务住宅;住宅区;住宅小区","typecode":"120302","address":"市广路8号","location":"113.328277,22.961672","transed_lng":113.32285781321904,"transed_lat":22.964328498948685,"cityname":"广州市","adname":"番禺区"},{"id":"B00141JIFD","name":"合生广场","type":"商务住宅;住宅区;住宅小区","typecode":"120302","address":"广州大道南249号","location":"113.313985,23.086002","transed_lng":113.30858655154316,"transed_lat":23.088632078713765,"cityname":"广州市","adname":"海珠区"},{"id":"B0FFF9XSF0","name":"岭南新世界","type":"商务住宅;住宅区;住宅小区","typecode":"120302","address":"白云大道北1689号","location":"113.294304,23.2321","transed_lng":113.28893191398157,"transed_lat":23.234707126892726,"cityname":"广州市","adname":"白云区"},{"id":"B00140UFAB","name":"城启·荔港南湾","type":"商务住宅;住宅区;住宅小区","typecode":"120302","address":"南岸路63号","location":"113.229254,23.135461","transed_lng":113.22392319057307,"transed_lat":23.138131228075295,"cityname":"广州市","adname":"荔湾区"},{"id":"B00141JUKN","name":"万科东荟城","type":"商务住宅;住宅区;住宅小区","typecode":"120302","address":"开泰大道与瑞和路交叉口","location":"113.503431,23.158912","transed_lng":113.49813370480885,"transed_lat":23.161589350670013,"cityname":"广州市","adname":"黄埔区"},{"id":"B00140U05A","name":"华景新城","type":"商务住宅;住宅区;住宅小区","typecode":"120302","address":"中山大道105号","location":"113.361978,23.140271","transed_lng":113.35648360512492,"transed_lat":23.14279266782452,"cityname":"广州市","adname":"天河区"},{"id":"B00140UGEN","name":"骏景花园(骏景路)","type":"商务住宅;住宅区;住宅小区","typecode":"120302","address":"中山大道190号","location":"113.385512,23.122426","transed_lng":113.37999231959364,"transed_lat":23.12492879425405,"cityname":"广州市","adname":"天河区"},{"id":"B001406FB9","name":"佳大·时代公寓","type":"商务住宅;住宅区;住宅小区","typecode":"120302","address":"骏业路8号","location":"113.529836,23.136342","transed_lng":113.52462988299675,"transed_lat":23.139104275078733,"cityname":"广州市","adname":"黄埔区"},{"id":"B00140I0YY","name":"万科城","type":"商务住宅;住宅区;住宅小区","typecode":"120302","address":"开创大道北路3326号","location":"113.450415,23.1845","transed_lng":113.44494876474735,"transed_lat":23.187023942918426,"cityname":"广州市","adname":"黄埔区"},{"id":"B00140MUU7","name":"金碧新城(石槎路)","type":"商务住宅;住宅区;住宅小区","typecode":"120302","address":"石槎路1332号","location":"113.241725,23.203401","transed_lng":113.2363954696915,"transed_lat":23.20605212531443,"cityname":"广州市","adname":"白云区"},{"id":"B00140TSSX","name":"荔湾路小区","type":"商务住宅;住宅区;住宅小区","typecode":"120302","address":"周门路与荔湾路交叉口西50米","location":"113.244085,23.130099","transed_lng":113.23876081779585,"transed_lat":23.132778664969237,"cityname":"广州市","adname":"荔湾区"},{"id":"B00140473E","name":"金碧花园","type":"商务住宅;住宅区;住宅小区","typecode":"120302","address":"工业大道南821号","location":"113.287629,23.06884","transed_lng":113.28227829290152,"transed_lat":23.071519688495385,"cityname":"广州市","adname":"海珠区"},{"id":"B00140HDHH","name":"富力半岛花园","type":"商务住宅;住宅区;住宅小区","typecode":"120302","address":"增槎路43号","location":"113.226825,23.14217","transed_lng":113.22149192468441,"transed_lat":23.144835615865276,"cityname":"广州市","adname":"白云区"},{"id":"B001401938","name":"都市华庭(天河北路)","type":"商务住宅;住宅区;住宅小区","typecode":"120302","address":"天河北路364号","location":"113.329002,23.140651","transed_lng":113.32356920341842,"transed_lat":23.1432304212347,"cityname":"广州市","adname":"天河区"},{"id":"B00140TT2R","name":"南岸(南岸十六巷)","type":"商务住宅;住宅区;住宅小区","typecode":"120302","address":"南岸路","location":"113.232470,23.129889","transed_lng":113.22714163583039,"transed_lat":23.13256371918957,"cityname":"广州市","adname":"荔湾区"},{"id":"B00140TTGF","name":"宝业路小区","type":"商务住宅;住宅区;住宅小区","typecode":"120302","address":"宝业路596号","location":"113.263015,23.091564","transed_lng":113.25768881338259,"transed_lat":23.094256789597868,"cityname":"广州市","adname":"海珠区"},{"id":"B00140UFYW","name":"珠江帝景苑","type":"商务住宅;住宅区;住宅小区","typecode":"120302","address":"赤岗北路","location":"113.328764,23.104183","transed_lng":113.32333416934128,"transed_lat":23.106777655457275,"cityname":"广州市","adname":"海珠区"},{"id":"B00140NYIP","name":"富力桃园B区","type":"商务住宅;住宅区;住宅小区","typecode":"120302","address":"罗冲围增槎路高桥大街直入500米","location":"113.232711,23.14839","transed_lng":113.22738153439401,"transed_lat":23.15105752412396,"cityname":"广州市","adname":"白云区"},{"id":"B00141SVFI","name":"富力·金港城","type":"商务住宅;住宅区;住宅小区","typecode":"120302","address":"金谷北路","location":"113.356897,23.457135","transed_lng":113.3513889418683,"transed_lat":23.459581110756737,"cityname":"广州市","adname":"花都区"},{"id":"B00140NY4N","name":"保利林语山庄","type":"商务住宅;住宅区;住宅小区","typecode":"120302","address":"开创大道与科翔路交汇处","location":"113.454698,23.18308","transed_lng":113.4492425507032,"transed_lat":23.185613617103552,"cityname":"广州市","adname":"黄埔区"},{"id":"B00140APMJ","name":"东圃广场","type":"商务住宅;住宅区;住宅小区","typecode":"120302","address":"黄村西路8号","location":"113.406011,23.122873","transed_lng":113.4004872958314,"transed_lat":23.12536999611009,"cityname":"广州市","adname":"天河区"},{"id":"B00140AX5T","name":"碧桂园","type":"商务住宅;住宅区;住宅小区","typecode":"120302","address":"南浦大道","location":"113.289225,23.02829","transed_lng":113.28387464608478,"transed_lat":23.03098493345357,"cityname":"广州市","adname":"番禺区"},{"id":"B00140TTK3","name":"中山三路小区","type":"商务住宅;住宅区;住宅小区","typecode":"120302","address":"中山三路与东濠涌高架交汇处","location":"113.279498,23.128106","transed_lng":113.2741541945228,"transed_lat":23.130770786001264,"cityname":"广州市","adname":"越秀区"},{"id":"B0FFF5UPAN","name":"淘金家园","type":"商务住宅;住宅区;住宅小区","typecode":"120302","address":"淘金东路89号","location":"113.2948,23.143528","transed_lng":113.28943307969915,"transed_lat":23.146166891679712,"cityname":"广州市","adname":"越秀区"},{"id":"B00140U4CP","name":"白云山小区","type":"商务住宅;住宅区;住宅小区","typecode":"120302","address":"广卫路","location":"113.308019,23.156525","transed_lng":113.3026274614458,"transed_lat":23.159137209629215,"cityname":"广州市","adname":"越秀区"},{"id":"B00140UKAM","name":"祈福新邨(鸿福路)","type":"商务住宅;住宅区;住宅小区","typecode":"120302","address":"市广路8号","location":"113.328277,22.961672","transed_lng":113.32285781321904,"transed_lat":22.964328498948685,"cityname":"广州市","adname":"番禺区"},{"id":"B00141JIFD","name":"合生广场","type":"商务住宅;住宅区;住宅小区","typecode":"120302","address":"广州大道南249号","location":"113.313985,23.086002","transed_lng":113.30858655154316,"transed_lat":23.088632078713765,"cityname":"广州市","adname":"海珠区"},{"id":"B0FFF9XSF0","name":"岭南新世界","type":"商务住宅;住宅区;住宅小区","typecode":"120302","address":"白云大道北1689号","location":"113.294304,23.2321","transed_lng":113.28893191398157,"transed_lat":23.234707126892726,"cityname":"广州市","adname":"白云区"},{"id":"B00140UFAB","name":"城启·荔港南湾","type":"商务住宅;住宅区;住宅小区","typecode":"120302","address":"南岸路63号","location":"113.229254,23.135461","transed_lng":113.22392319057307,"transed_lat":23.138131228075295,"cityname":"广州市","adname":"荔湾区"},{"id":"B00141JUKN","name":"万科东荟城","type":"商务住宅;住宅区;住宅小区","typecode":"120302","address":"开泰大道与瑞和路交叉口","location":"113.503431,23.158912","transed_lng":113.49813370480885,"transed_lat":23.161589350670013,"cityname":"广州市","adname":"黄埔区"},{"id":"B00140U05A","name":"华景新城","type":"商务住宅;住宅区;住宅小区","typecode":"120302","address":"中山大道105号","location":"113.361978,23.140271","transed_lng":113.35648360512492,"transed_lat":23.14279266782452,"cityname":"广州市","adname":"天河区"},{"id":"B00140UGEN","name":"骏景花园(骏景路)","type":"商务住宅;住宅区;住宅小区","typecode":"120302","address":"中山大道190号","location":"113.385512,23.122426","transed_lng":113.37999231959364,"transed_lat":23.12492879425405,"cityname":"广州市","adname":"天河区"},{"id":"B001406FB9","name":"佳大·时代公寓","type":"商务住宅;住宅区;住宅小区","typecode":"120302","address":"骏业路8号","location":"113.529836,23.136342","transed_lng":113.52462988299675,"transed_lat":23.139104275078733,"cityname":"广州市","adname":"黄埔区"},{"id":"B00140I0YY","name":"万科城","type":"商务住宅;住宅区;住宅小区","typecode":"120302","address":"开创大道北路3326号","location":"113.450415,23.1845","transed_lng":113.44494876474735,"transed_lat":23.187023942918426,"cityname":"广州市","adname":"黄埔区"},{"id":"B00140MUU7","name":"金碧新城(石槎路)","type":"商务住宅;住宅区;住宅小区","typecode":"120302","address":"石槎路1332号","location":"113.241725,23.203401","transed_lng":113.2363954696915,"transed_lat":23.20605212531443,"cityname":"广州市","adname":"白云区"},{"id":"B00140TSSX","name":"荔湾路小区","type":"商务住宅;住宅区;住宅小区","typecode":"120302","address":"周门路与荔湾路交叉口西50米","location":"113.244085,23.130099","transed_lng":113.23876081779585,"transed_lat":23.132778664969237,"cityname":"广州市","adname":"荔湾区"},{"id":"B00140473E","name":"金碧花园","type":"商务住宅;住宅区;住宅小区","typecode":"120302","address":"工业大道南821号","location":"113.287629,23.06884","transed_lng":113.28227829290152,"transed_lat":23.071519688495385,"cityname":"广州市","adname":"海珠区"},{"id":"B00140HDHH","name":"富力半岛花园","type":"商务住宅;住宅区;住宅小区","typecode":"120302","address":"增槎路43号","location":"113.226825,23.14217","transed_lng":113.22149192468441,"transed_lat":23.144835615865276,"cityname":"广州市","adname":"白云区"},{"id":"B001401938","name":"都市华庭(天河北路)","type":"商务住宅;住宅区;住宅小区","typecode":"120302","address":"天河北路364号","location":"113.329002,23.140651","transed_lng":113.32356920341842,"transed_lat":23.1432304212347,"cityname":"广州市","adname":"天河区"},{"id":"B00140TT2R","name":"南岸(南岸十六巷)","type":"商务住宅;住宅区;住宅小区","typecode":"120302","address":"南岸路","location":"113.232470,23.129889","transed_lng":113.22714163583039,"transed_lat":23.13256371918957,"cityname":"广州市","adname":"荔湾区"},{"id":"B00140TTGF","name":"宝业路小区","type":"商务住宅;住宅区;住宅小区","typecode":"120302","address":"宝业路596号","location":"113.263015,23.091564","transed_lng":113.25768881338259,"transed_lat":23.094256789597868,"cityname":"广州市","adname":"海珠区"},{"id":"B00140UFYW","name":"珠江帝景苑","type":"商务住宅;住宅区;住宅小区","typecode":"120302","address":"赤岗北路","location":"113.328764,23.104183","transed_lng":113.32333416934128,"transed_lat":23.106777655457275,"cityname":"广州市","adname":"海珠区"},{"id":"B00140NYIP","name":"富力桃园B区","type":"商务住宅;住宅区;住宅小区","typecode":"120302","address":"罗冲围增槎路高桥大街直入500米","location":"113.232711,23.14839","transed_lng":113.22738153439401,"transed_lat":23.15105752412396,"cityname":"广州市","adname":"白云区"},{"id":"B00141SVFI","name":"富力·金港城","type":"商务住宅;住宅区;住宅小区","typecode":"120302","address":"金谷北路","location":"113.356897,23.457135","transed_lng":113.3513889418683,"transed_lat":23.459581110756737,"cityname":"广州市","adname":"花都区"},{"id":"B00140NY4N","name":"保利林语山庄","type":"商务住宅;住宅区;住宅小区","typecode":"120302","address":"开创大道与科翔路交汇处","location":"113.454698,23.18308","transed_lng":113.4492425507032,"transed_lat":23.185613617103552,"cityname":"广州市","adname":"黄埔区"},{"id":"B00140APMJ","name":"东圃广场","type":"商务住宅;住宅区;住宅小区","typecode":"120302","address":"黄村西路8号","location":"113.406011,23.122873","transed_lng":113.4004872958314,"transed_lat":23.12536999611009,"cityname":"广州市","adname":"天河区"},{"id":"B00140AX5T","name":"碧桂园","type":"商务住宅;住宅区;住宅小区","typecode":"120302","address":"南浦大道","location":"113.289225,23.02829","transed_lng":113.28387464608478,"transed_lat":23.03098493345357,"cityname":"广州市","adname":"番禺区"},{"id":"B00140TTK3","name":"中山三路小区","type":"商务住宅;住宅区;住宅小区","typecode":"120302","address":"中山三路与东濠涌高架交汇处","location":"113.279498,23.128106","transed_lng":113.2741541945228,"transed_lat":23.130770786001264,"cityname":"广州市","adname":"越秀区"},{"id":"B00140UF5K","name":"颐和山庄(同泰路)","type":"商务住宅;住宅区;住宅小区","typecode":"120302","address":"颐和山庄(华南快速北)","location":"113.314044,23.218234","transed_lng":113.30863647605405,"transed_lat":23.22081269363227,"cityname":"广州市","adname":"白云区"},{"id":"B00140VB5S","name":"力迅领筑","type":"商务住宅;住宅区;住宅小区","typecode":"120302","address":"黄埔大道西翠湖街15","location":"113.353203,23.126232","transed_lng":113.34772403470295,"transed_lat":23.128773050403403,"cityname":"广州市","adname":"天河区"},{"id":"B00140UFRI","name":"保利·红棉花园","type":"商务住宅;住宅区;住宅小区","typecode":"120302","address":"江燕路353号","location":"113.276925,23.074932","transed_lng":113.27158776696739,"transed_lat":23.07762141953043,"cityname":"广州市","adname":"海珠区"},{"id":"B00140HLON","name":"加拿大花园","type":"商务住宅;住宅区;住宅小区","typecode":"120302","address":"中山大道西枫叶路8号","location":"113.36758,23.13633","transed_lng":113.36207777658903,"transed_lat":23.138845451189873,"cityname":"广州市","adname":"天河区"},{"id":"B00140TT9I","name":"德政中路小区","type":"商务住宅;住宅区;住宅小区","typecode":"120302","address":"德政中路217号","location":"113.275318,23.123183","transed_lng":113.26997928991796,"transed_lat":23.12585394926709,"cityname":"广州市","adname":"越秀区"},{"id":"B00141ICJV","name":"富力·金港城南区","type":"商务住宅;住宅区;住宅小区","typecode":"120302","address":"花都花东镇现代大道(北段)","location":"113.357554,23.456442","transed_lng":113.35204489585905,"transed_lat":23.45888713528286,"cityname":"广州市","adname":"花都区"},{"id":"B00140UY6A","name":"橡树园","type":"商务住宅;住宅区;住宅小区","typecode":"120302","address":"沙太南路316号","location":"113.328323,23.168771","transed_lng":113.32288968906899,"transed_lat":23.171340784666846,"cityname":"广州市","adname":"天河区"},{"id":"B00140HTJW","name":"南湖半岛花园","type":"商务住宅;住宅区;住宅小区","typecode":"120302","address":"同和路998号","location":"113.337047,23.214653","transed_lng":113.3315927501511,"transed_lat":23.217189467922015,"cityname":"广州市","adname":"白云区"},{"id":"B00140UD3F","name":"方圆·荷塘月色","type":"商务住宅;住宅区;住宅小区","typecode":"120302","address":"新市镇悦云路210号","location":"113.269868,23.198261","transed_lng":113.26452953928036,"transed_lat":23.200907643688044,"cityname":"广州市","adname":"白云区"},{"id":"B00140NYQR","name":"黄埔雅苑","type":"商务住宅;住宅区;住宅小区","typecode":"120302","address":"大沙地黄埔东路北","location":"113.46107,23.10193","transed_lng":113.45563724832303,"transed_lat":23.10451038594932,"cityname":"广州市","adname":"黄埔区"},{"id":"B00141IAN6","name":"广州雅居乐花园东区","type":"商务住宅;住宅区;住宅小区","typecode":"120302","address":"南村镇观景路333号","location":"113.373433,23.011744","transed_lng":113.36793194480742,"transed_lat":23.0143046927367,"cityname":"广州市","adname":"番禺区"},{"id":"B00140NSH9","name":"远洋明珠大厦","type":"商务住宅;住宅区;住宅小区","typecode":"120302","address":"珠江新城华利路15-23号","location":"113.316495,23.118174","transed_lng":113.31108934249104,"transed_lat":23.120786136947,"cityname":"广州市","adname":"天河区"},{"id":"B00140NYIS","name":"富力·阳光美居","type":"商务住宅;住宅区;住宅小区","typecode":"120302","address":"黄石西路","location":"113.259778,23.202206","transed_lng":113.25444617446489,"transed_lat":23.20485689991078,"cityname":"广州市","adname":"白云区"},{"id":"B00141JQ1W","name":"富力·金港城东区","type":"商务住宅;住宅区;住宅小区","typecode":"120302","address":"花都花东镇金谷工业区现代大道","location":"113.362423,23.457836","transed_lng":113.35690605404747,"transed_lat":23.460273639817142,"cityname":"广州市","adname":"花都区"},{"id":"B0014077E9","name":"碧桂园东苑","type":"商务住宅;住宅区;住宅小区","typecode":"120302","address":"105国道","location":"113.286646,22.953301","transed_lng":113.28130445529234,"transed_lat":22.95603163625256,"cityname":"广州市","adname":"番禺区"},{"id":"B00140B6T1","name":"芳草园","type":"商务住宅;住宅区;住宅小区","typecode":"120302","address":"天河北路567号","location":"113.337354,23.142426","transed_lng":113.33190405752909,"transed_lat":23.14498887325273,"cityname":"广州市","adname":"天河区"},{"id":"B00141JF83","name":"越秀星汇金沙","type":"商务住宅;住宅区;住宅小区","typecode":"120302","address":"金沙洲岛浔峰山东路","location":"113.196784,23.158894","transed_lng":113.19141201368903,"transed_lat":23.16151434550826,"cityname":"广州市","adname":"白云区"},{"id":"B00140UF19","name":"黄石花园","type":"商务住宅;住宅区;住宅小区","typecode":"120302","address":"黄石路239号","location":"113.267155,23.204625","transed_lng":113.26181834576806,"transed_lat":23.207271250482258,"cityname":"广州市","adname":"白云区"},{"id":"B00140UFPI","name":"英豪花园","type":"商务住宅;住宅区;住宅小区","typecode":"120302","address":"东晓南路与盈丰路交汇处","location":"113.299113,23.068415","transed_lng":113.29374379078945,"transed_lat":23.07107814556265,"cityname":"广州市","adname":"海珠区"},{"id":"B00140V381","name":"万科·金域华府(康王中路)","type":"商务住宅;住宅区;住宅小区","typecode":"120302","address":"康王中路330号","location":"113.247624,23.118909","transed_lng":113.24230079329014,"transed_lat":23.121593720788674,"cityname":"广州市","adname":"荔湾区"},{"id":"B00140UF9I","name":"星汇园","type":"商务住宅;住宅区;住宅小区","typecode":"120302","address":"金穗路52号","location":"113.31986,23.123022","transed_lng":113.31444718468138,"transed_lat":23.125625873142834,"cityname":"广州市","adname":"天河区"},{"id":"B00141JDI5","name":"保利春天里","type":"商务住宅;住宅区;住宅小区","typecode":"120302","address":"金沙洲岛环洲五路","location":"113.199991,23.160387","transed_lng":113.19462407182145,"transed_lat":23.163011985929963,"cityname":"广州市","adname":"白云区"},{"id":"B00140BJDF","name":"半山雍景苑","type":"商务住宅;住宅区;住宅小区","typecode":"120302","address":"科华街511号","location":"113.365258,23.144094","transed_lng":113.35975848268687,"transed_lat":23.146609491776353,"cityname":"广州市","adname":"天河区"},{"id":"B00140HMU2","name":"金龙花园","type":"商务住宅;住宅区;住宅小区","typecode":"120302","address":"番禺大道北613号","location":"113.366952,22.975251","transed_lng":113.3614616326665,"transed_lat":22.977835428435345,"cityname":"广州市","adname":"番禺区"},{"id":"B00141I0D9","name":"万科城新里程","type":"商务住宅;住宅区;住宅小区","typecode":"120302","address":"广汕公路与开创大道交叉口东南角","location":"113.447471,23.187852","transed_lng":113.44199761384522,"transed_lat":23.190368796308938,"cityname":"广州市","adname":"黄埔区"},{"id":"B00140UJGJ","name":"侨德花园","type":"商务住宅;住宅区;住宅小区","typecode":"120302","address":"西槎路","location":"113.236478,23.162767","transed_lng":113.23114946768428,"transed_lat":23.165431084162943,"cityname":"广州市","adname":"白云区"},{"id":"B00141IM0N","name":"江南新邨","type":"商务住宅;住宅区;住宅小区","typecode":"120302","address":"江南新村二街","location":"113.358786,22.959955","transed_lng":113.35330892667889,"transed_lat":22.962557751854142,"cityname":"广州市","adname":"番禺区"},{"id":"B00140IML9","name":"金桂园","type":"商务住宅;住宅区;住宅小区","typecode":"120302","address":"解放北路1000号","location":"113.264061,23.151427","transed_lng":113.25873013348836,"transed_lat":23.1540949870592,"cityname":"广州市","adname":"白云区"},{"id":"B00140UW56","name":"邦泰国际公寓","type":"商务住宅;住宅区;住宅小区","typecode":"120302","address":"新港东路43-1号","location":"113.338949,23.099168","transed_lng":113.3334988085214,"transed_lat":23.101745450982985,"cityname":"广州市","adname":"海珠区"},{"id":"B00140V9TG","name":"新市花园","type":"商务住宅;住宅区;住宅小区","typecode":"120302","address":"新市镇棠安路","location":"113.259319,23.190397","transed_lng":113.2539881893151,"transed_lat":23.19305234482636,"cityname":"广州市","adname":"白云区"},{"id":"B00140UFR4","name":"爱家园","type":"商务住宅;住宅区;住宅小区","typecode":"120302","address":"越秀文德南路65号","location":"113.272267,23.116764","transed_lng":113.26693181683115,"transed_lat":23.11944024017517,"cityname":"广州市","adname":"越秀区"},{"id":"B00140TYWA","name":"中海璟晖华庭","type":"商务住宅;住宅区;住宅小区","typecode":"120302","address":"猎德大道31号","location":"113.332767,23.121592","transed_lng":113.3273277764648,"transed_lat":23.12417189419415,"cityname":"广州市","adname":"天河区"},{"id":"B00140UF9H","name":"珠江新城海滨花园","type":"商务住宅;住宅区;住宅小区","typecode":"120302","address":"临江大道403号","location":"113.342064,23.112822","transed_lng":113.33660672601118,"transed_lat":23.115388061419623,"cityname":"广州市","adname":"天河区"},{"id":"B00140VAUJ","name":"怡新花园","type":"商务住宅;住宅区;住宅小区","typecode":"120302","address":"广州大道北梅花园地段怡新路","location":"113.322414,23.175144","transed_lng":113.31699241935559,"transed_lat":23.17772263129944,"cityname":"广州市","adname":"白云区"},{"id":"B00140UD70","name":"金地·荔湖城","type":"商务住宅;住宅区;住宅小区","typecode":"120302","address":"永宁街道新新公路旁15号","location":"113.604334,23.215193","transed_lng":113.59925434569445,"transed_lat":23.2180229377277,"cityname":"广州市","adname":"增城区"},{"id":"B00140UFZ1","name":"海天花苑","type":"商务住宅;住宅区;住宅小区","typecode":"120302","address":"金菊路61-99号","location":"113.31395,23.101361","transed_lng":113.30855058320383,"transed_lat":23.1039847391577,"cityname":"广州市","adname":"海珠区"},{"id":"B00140UF4G","name":"利海·世纪绿洲","type":"商务住宅;住宅区;住宅小区","typecode":"120302","address":"沙河镇天河城体育中心天源路世纪绿洲品翠街30、32号","location":"113.366956,23.190258","transed_lng":113.3614509320644,"transed_lat":23.19275359446382,"cityname":"广州市","adname":"天河区"},{"id":"B00140UF0Y","name":"盈翠华庭","type":"商务住宅;住宅区;住宅小区","typecode":"120302","address":"景从路163号","location":"113.272562,23.169292","transed_lng":113.2672230022791,"transed_lat":23.1719472517732,"cityname":"广州市","adname":"白云区"},{"id":"B00140W6KN","name":"银汇华庭","type":"商务住宅;住宅区;住宅小区","typecode":"120302","address":"龙怡路113号","location":"113.345063,23.143964","transed_lng":113.33959779953251,"transed_lat":23.14651208099241,"cityname":"广州市","adname":"天河区"},{"id":"B00140ULHM","name":"怡港花园","type":"商务住宅;住宅区;住宅小区","typecode":"120302","address":"黄埔东路188号大院","location":"113.45395,23.09975","transed_lng":113.44849831903531,"transed_lat":23.102314910874178,"cityname":"广州市","adname":"黄埔区"},{"id":"B00140CHD9","name":"佳信花园","type":"商务住宅;住宅区;住宅小区","typecode":"120302","address":"新港中路489号","location":"113.329596,23.096943","transed_lng":113.32416494988583,"transed_lat":23.099539068161334,"cityname":"广州市","adname":"海珠区"},{"id":"B00140UTOY","name":"永泰村","type":"商务住宅;住宅区;住宅小区","typecode":"120302","address":"先烈中路75附近","location":"113.29371,23.137778","transed_lng":113.2883452551782,"transed_lat":23.140420786265583,"cityname":"广州市","adname":"越秀区"},{"id":"B00140UGDA","name":"光大花园1期","type":"商务住宅;住宅区;住宅小区","typecode":"120302","address":"榕景路61号","location":"113.256408,23.087329","transed_lng":113.2510853105043,"transed_lat":23.090026034564897,"cityname":"广州市","adname":"海珠区"},{"id":"B00140UF2B","name":"天鹅花苑","type":"商务住宅;住宅区;住宅小区","typecode":"120302","address":"长兴路129号","location":"113.350975,23.168843","transed_lng":113.34549709301112,"transed_lat":23.171371070156752,"cityname":"广州市","adname":"天河区"},{"id":"B00140UEST","name":"天河豪景花园","type":"商务住宅;住宅区;住宅小区","typecode":"120302","address":"广州大道北52号","location":"113.315826,23.154445","transed_lng":113.31041923326005,"transed_lat":23.15704391883862,"cityname":"广州市","adname":"天河区"},{"id":"B00140UG28","name":"大塘村","type":"商务住宅;住宅区;住宅小区","typecode":"120302","address":"江海大道","location":"113.323183,23.084941","transed_lng":113.31776595816447,"transed_lat":23.087554312864608,"cityname":"广州市","adname":"海珠区"},{"id":"B00140W4OF","name":"松涛北苑(白云堡道)","type":"商务住宅;住宅区;住宅小区","typecode":"120302","address":"白云堡大道松涛街","location":"113.306957,23.225849","transed_lng":113.30156279331793,"transed_lat":23.2284377553265,"cityname":"广州市","adname":"白云区"},{"id":"B00140UF0C","name":"梅苑小区","type":"商务住宅;住宅区;住宅小区","typecode":"120302","address":"广州大道北1308号","location":"113.321598,23.177327","transed_lng":113.3161779451802,"transed_lat":23.17990635710329,"cityname":"广州市","adname":"白云区"},{"id":"B00141IKW5","name":"百合雅居","type":"商务住宅;住宅区;住宅小区","typecode":"120302","address":"狮岭镇金狮大道西7号","location":"113.149437,23.46713","transed_lng":113.14395899657113,"transed_lat":23.469587346817963,"cityname":"广州市","adname":"花都区"},{"id":"B00140UFBE","name":"华港花园","type":"商务住宅;住宅区;住宅小区","typecode":"120302","address":"东方一路24号","location":"113.357234,23.132623","transed_lng":113.35174770518474,"transed_lat":23.135154942701263,"cityname":"广州市","adname":"天河区"},{"id":"B00140UEV5","name":"东环大厦","type":"商务住宅;住宅区;住宅小区","typecode":"120302","address":"环市东路474-1号喜市多便利店","location":"113.304837,23.134118","transed_lng":113.29945299665125,"transed_lat":23.136744538786118,"cityname":"广州市","adname":"越秀区"},{"id":"B00140UGA1","name":"合和新城","type":"商务住宅;住宅区;住宅小区","typecode":"120302","address":"迎宾大道3号","location":"113.256347,23.371137","transed_lng":113.25100522466961,"transed_lat":23.373741342703863,"cityname":"广州市","adname":"花都区"},{"id":"B00140UFKC","name":"鸿景园(龙口东路)","type":"商务住宅;住宅区;住宅小区","typecode":"120302","address":"龙口东路366-368号","location":"113.341079,23.143667","transed_lng":113.3356215582127,"transed_lat":23.146222452430624,"cityname":"广州市","adname":"天河区"},{"id":"B00140UEUE","name":"城西花园","type":"商务住宅;住宅区;住宅小区","typecode":"120302","address":"金沙洲路","location":"113.209672,23.157605","transed_lng":113.20431941613147,"transed_lat":23.16024543891632,"cityname":"广州市","adname":"白云区"},{"id":"B00141NMFT","name":"珠光·御景山水城","type":"商务住宅;住宅区;住宅小区","typecode":"120302","address":"江埔街105国道九里步果场段","location":"113.616071,23.587026","transed_lng":113.61096494764584,"transed_lat":23.589793661004247,"cityname":"广州市","adname":"从化区"},{"id":"B00140HDHU","name":"富力新居","type":"商务住宅;住宅区;住宅小区","typecode":"120302","address":"富力路38号","location":"113.236534,23.133621","transed_lng":113.23120744749312,"transed_lat":23.13629654804161,"cityname":"广州市","adname":"荔湾区"},{"id":"B00140UERA","name":"东山雅筑","type":"商务住宅;住宅区;住宅小区","typecode":"120302","address":"东风东路776号","location":"113.304153,23.130527","transed_lng":113.2987705108506,"transed_lat":23.133156138035968,"cityname":"广州市","adname":"越秀区"},{"id":"B00140TSWU","name":"逢莱路小区","type":"商务住宅;住宅区;住宅小区","typecode":"120302","address":"蓬莱正街与蓬莱路交叉口西50米","location":"113.237138,23.113714","transed_lng":113.23181303448138,"transed_lat":23.11639790035907,"cityname":"广州市","adname":"荔湾区"},{"id":"B00140TTKS","name":"麓景路小区","type":"商务住宅;住宅区;住宅小区","typecode":"120302","address":"麓景路与黄田直街交叉口北100米","location":"113.277882,23.143198","transed_lng":113.27253909211922,"transed_lat":23.145858444107336,"cityname":"广州市","adname":"越秀区"},{"id":"B00140UGA7","name":"东璟花园","type":"商务住宅;住宅区;住宅小区","typecode":"120302","address":"员村二横路1号","location":"113.361535,23.122551","transed_lng":113.35604249845748,"transed_lat":23.12508042902142,"cityname":"广州市","adname":"天河区"},{"id":"B00140UD9G","name":"锦绣新城南区","type":"商务住宅;住宅区;住宅小区","typecode":"120302","address":"和乐一路51号","location":"113.452442,22.882489","transed_lng":113.44700126437043,"transed_lat":22.88514279727047,"cityname":"广州市","adname":"南沙区"},{"id":"B00140SCVL","name":"康乐","type":"商务住宅;住宅区;住宅小区","typecode":"120302","address":"康乐西路与金纺路交叉口旁","location":"113.302093,23.08937","transed_lng":113.29671706480613,"transed_lat":23.092019478167764,"cityname":"广州市","adname":"海珠区"},{"id":"B00140TTKW","name":"应元社区","type":"商务住宅;住宅区;住宅小区","typecode":"120302","address":"应元路37号702房","location":"113.266805,23.135162","transed_lng":113.26147328362755,"transed_lat":23.13783480778333,"cityname":"广州市","adname":"越秀区"},{"id":"B00140ULHH","name":"远洋明苑","type":"商务住宅;住宅区;住宅小区","typecode":"120302","address":"中山大道杨桃西路636-637号","location":"113.41232,23.118131","transed_lng":113.4067994943945,"transed_lat":23.120631874417548,"cityname":"广州市","adname":"天河区"},{"id":"B00140UD39","name":"白云骏景","type":"商务住宅;住宅区;住宅小区","typecode":"120302","address":"新市齐富路5号","location":"113.271502,23.196166","transed_lng":113.26616220347995,"transed_lat":23.1988121391139,"cityname":"广州市","adname":"白云区"},{"id":"B0014076A9","name":"云峰花园","type":"商务住宅;住宅区;住宅小区","typecode":"120302","address":"花都镜湖大道2号","location":"113.24619,23.379505","transed_lng":113.24084920921301,"transed_lat":23.38210832949357,"cityname":"广州市","adname":"花都区"},{"id":"B00140TYJH","name":"领峰","type":"商务住宅;住宅区;住宅小区","typecode":"120302","address":"珠江新城兴盛路7号","location":"113.328793,23.121935","transed_lng":113.32336190472145,"transed_lat":23.124522330239888,"cityname":"广州市","adname":"天河区"},{"id":"B00140NWL2","name":"景苑(荟贤路)","type":"商务住宅;住宅区;住宅小区","typecode":"120302","address":"大和镇","location":"113.306674,23.233068","transed_lng":113.30127984126123,"transed_lat":23.235654815941135,"cityname":"广州市","adname":"白云区"},{"id":"B00140WGSE","name":"庆丰广场","type":"商务住宅;住宅区;住宅小区","typecode":"120302","address":"石井镇庆丰路","location":"113.226195,23.213375","transed_lng":113.2208566331151,"transed_lat":23.216013447572543,"cityname":"广州市","adname":"白云区"},{"id":"B00140W4QR","name":"建发广场","type":"商务住宅;住宅区;住宅小区","typecode":"120302","address":"石楼镇黄河路363号","location":"113.486264,22.964548","transed_lng":113.48091988326166,"transed_lat":22.967255545542862,"cityname":"广州市","adname":"番禺区"},{"id":"B00140UF3K","name":"泽德花苑","type":"商务住宅;住宅区;住宅小区","typecode":"120302","address":"泽德路","location":"113.238836,23.176514","transed_lng":113.23350745567592,"transed_lat":23.179173939123622,"cityname":"广州市","adname":"白云区"},{"id":"B00140BP0K","name":"旭景家园","type":"商务住宅;住宅区;住宅小区","typecode":"120302","address":"东圃镇中山大道","location":"113.40282,23.128325","transed_lng":113.3972952224744,"transed_lat":23.130819483281154,"cityname":"广州市","adname":"天河区"},{"id":"B00141JKF0","name":"芳和花园","type":"商务住宅;住宅区;住宅小区","typecode":"120302","address":"龙溪大道芳和街2号","location":"113.226833,23.077084","transed_lng":113.2215042939345,"transed_lat":23.079776323560058,"cityname":"广州市","adname":"荔湾区"},{"id":"B00140SOGY","name":"瑞宝花园","type":"商务住宅;住宅区;住宅小区","typecode":"120302","address":"宝和街与宝成街交叉口西50米","location":"113.294796,23.067555","transed_lng":113.2894342022355,"transed_lat":23.070225174334997,"cityname":"广州市","adname":"海珠区"},{"id":"B00140T2LR","name":"富力院士庭","type":"商务住宅;住宅区;住宅小区","typecode":"120302","address":"东莞庄路72号","location":"113.337163,23.152219","transed_lng":113.33171277462084,"transed_lat":23.154778382703178,"cityname":"广州市","adname":"天河区"},{"id":"B00140U8YS","name":"金宇花园","type":"商务住宅;住宅区;住宅小区","typecode":"120302","address":"东沙大道317号","location":"113.253703,23.060668","transed_lng":113.24838291395896,"transed_lat":23.063376848101598,"cityname":"广州市","adname":"荔湾区"},{"id":"B00140TSW7","name":"华贵路小区","type":"商务住宅;住宅区;住宅小区","typecode":"120302","address":"华光直街与幸福西街交叉口南50米","location":"113.244226,23.122142","transed_lng":113.2389023696857,"transed_lat":23.124824907451757,"cityname":"广州市","adname":"荔湾区"},{"id":"B00140W6IJ","name":"自在城市花园","type":"商务住宅;住宅区;住宅小区","typecode":"120302","address":"番禺大道北666号","location":"113.348299,22.988943","transed_lng":113.34283824645209,"transed_lat":22.991550615284716,"cityname":"广州市","adname":"番禺区"},{"id":"B00140W4K8","name":"翠云山","type":"商务住宅;住宅区;住宅小区","typecode":"120302","address":"南村镇国泰路","location":"113.377241,23.001867","transed_lng":113.37173650887743,"transed_lat":23.004427904081385,"cityname":"广州市","adname":"番禺区"},{"id":"B00141JDDJ","name":"新世纪花园(福德路)","type":"商务住宅;住宅区;住宅小区","typecode":"120302","address":"福德路900号","location":"113.363624,22.920352","transed_lng":113.35814211668313,"transed_lat":22.922964341857536,"cityname":"广州市","adname":"番禺区"},{"id":"B00141IDIZ","name":"花都凯旋门","type":"商务住宅;住宅区;住宅小区","typecode":"120302","address":"三东大道西89号","location":"113.22623,23.41198","transed_lng":113.22087824202852,"transed_lat":23.414567868022143,"cityname":"广州市","adname":"花都区"},{"id":"B00140UVHQ","name":"世纪云顶","type":"商务住宅;住宅区;住宅小区","typecode":"120302","address":"广州大道南252-282号(双号)","location":"113.314674,23.100327","transed_lng":113.30927320775008,"transed_lat":23.10294983892194,"cityname":"广州市","adname":"海珠区"},{"id":"B00140V9SB","name":"天平花苑","type":"商务住宅;住宅区;住宅小区","typecode":"120302","address":"沙太路","location":"113.324647,23.16856","transed_lng":113.31922127507237,"transed_lat":23.171136878872932,"cityname":"广州市","adname":"天河区"},{"id":"B001408884","name":"金碧御水山庄","type":"商务住宅;住宅区;住宅小区","typecode":"120302","address":"狮岭镇新杨村六花岗水库以东","location":"113.202256,23.48835","transed_lng":113.19687035190778,"transed_lat":23.490900986702787,"cityname":"广州市","adname":"花都区"},{"id":"B00140U9IL","name":"天誉花园第2期","type":"商务住宅;住宅区;住宅小区","typecode":"120302","address":"林和中路136号","location":"113.326098,23.144854","transed_lng":113.32067089743919,"transed_lat":23.147437303021206,"cityname":"广州市","adname":"天河区"},{"id":"B00140I2C9","name":"夏街邨","type":"商务住宅;住宅区;住宅小区|地名地址信息;普通地名;村庄级地名","typecode":"120302|190108","address":"夏东13巷9号","location":"113.836487,23.285211","transed_lng":113.83144836577245,"transed_lat":23.287942542767663,"cityname":"广州市","adname":"增城区"},{"id":"B00140BR0N","name":"南景园(宝岗大道)","type":"商务住宅;住宅区;住宅小区","typecode":"120302","address":"燕翔路219号","location":"113.276045,23.07958","transed_lng":113.27070843053332,"transed_lat":23.082268310149054,"cityname":"广州市","adname":"海珠区"},{"id":"B00140UFZB","name":"江畔华庭","type":"商务住宅;住宅区;住宅小区","typecode":"120302","address":"滨江东路1024-1026号","location":"113.314785,23.104307","transed_lng":113.30938371654709,"transed_lat":23.106927987626953,"cityname":"广州市","adname":"海珠区"},{"id":"B00140I9SC","name":"云景花园","type":"商务住宅;住宅区;住宅小区","typecode":"120302","address":"广州大道北云景路(地铁京溪南方医院站C出口北200米)","location":"113.328473,23.186705","transed_lng":113.32303815994496,"transed_lat":23.189267776934198,"cityname":"广州市","adname":"白云区"},{"id":"B00140UFPQ","name":"新月明珠花园","type":"商务住宅;住宅区;住宅小区","typecode":"120302","address":"番禺大石街景华南路30号","location":"113.319509,23.016121","transed_lng":113.31410412842999,"transed_lat":23.01877068040123,"cityname":"广州市","adname":"番禺区"},{"id":"B00140W4XR","name":"广州白天鹅花园","type":"商务住宅;住宅区;住宅小区","typecode":"120302","address":"中成路","location":"113.337855,23.186516","transed_lng":113.33240104663307,"transed_lat":23.189061052616584,"cityname":"广州市","adname":"白云区"},{"id":"B00140TYJF","name":"保利·心语花园","type":"商务住宅;住宅区;住宅小区","typecode":"120302","address":"兴盛路9号","location":"113.330094,23.121845","transed_lng":113.32466023622479,"transed_lat":23.124429883461836,"cityname":"广州市","adname":"天河区"},{"id":"B00140NY4M","name":"保利康桥","type":"商务住宅;住宅区;住宅小区","typecode":"120302","address":"滨江中路746号","location":"113.289081,23.105596","transed_lng":113.2837256703993,"transed_lat":23.108258362904515,"cityname":"广州市","adname":"海珠区"},{"id":"B00141I84C","name":"凤凰岛","type":"商务住宅;住宅区;住宅小区","typecode":"120302","address":"广园东路碧桂园凤凰城","location":"113.576204,23.131348","transed_lng":113.57110866319249,"transed_lat":23.134200061654745,"cityname":"广州市","adname":"增城区"},{"id":"B00140UF09","name":"乐得花园","type":"商务住宅;住宅区;住宅小区","typecode":"120302","address":"黄边南路70号","location":"113.275073,23.222616","transed_lng":113.26972785925282,"transed_lat":23.225249741406987,"cityname":"广州市","adname":"白云区"},{"id":"B00140U6GS","name":"白云堡豪苑","type":"商务住宅;住宅区;住宅小区","typecode":"120302","address":"白云堡大道1号","location":"113.311004,23.225902","transed_lng":113.30560196999005,"transed_lat":23.22848358339362,"cityname":"广州市","adname":"白云区"},{"id":"B00140NYEH","name":"东怡新区","type":"商务住宅;住宅区;住宅小区","typecode":"120302","address":"大龙街","location":"113.390145,22.934670","transed_lng":113.38463554657861,"transed_lat":22.93724987186959,"cityname":"广州市","adname":"番禺区"},{"id":"B00140CCLO","name":"美景花苑","type":"商务住宅;住宅区;住宅小区","typecode":"120302","address":"车陂路306-308、330、334、338、362-364、374、384、390","location":"113.393801,23.126219","transed_lng":113.38827706875698,"transed_lat":23.128715858747814,"cityname":"广州市","adname":"天河区"},{"id":"B00140SSUQ","name":"团星村","type":"商务住宅;住宅区;住宅小区|地名地址信息;普通地名;村庄级地名","typecode":"120302|190108","address":"团星路与大新街交叉口东南100米","location":"113.579465,23.544472","transed_lng":113.57434669241415,"transed_lat":23.547237123614632,"cityname":"广州市","adname":"从化区"},{"id":"B00140MZ1A","name":"明珠新村(东圃大马路)","type":"商务住宅;住宅区;住宅小区","typecode":"120302","address":"车陂荔园大街20号","location":"113.398661,23.111951","transed_lng":113.39313718475194,"transed_lat":23.114452408057716,"cityname":"广州市","adname":"天河区"},{"id":"B00140V9R8","name":"南国奥园东区","type":"商务住宅;住宅区;住宅小区","typecode":"120302","address":"钟村镇汉溪路迎宾大道南","location":"113.325925,22.990034","transed_lng":113.32050873669726,"transed_lat":22.992682784216818,"cityname":"广州市","adname":"番禺区"},{"id":"B0FFG2A8RP","name":"桂花园","type":"商务住宅;住宅区;住宅小区|餐饮服务;中餐厅;中餐厅","typecode":"120302|050100","address":"螺山路2号","location":"113.388348,22.959145","transed_lng":113.38283777706776,"transed_lat":22.961715449217447,"cityname":"广州市","adname":"番禺区"},{"id":"B00140TTKN","name":"越秀府前路小区","type":"商务住宅;住宅区;住宅小区","typecode":"120302","address":"越秀解放北路府前路(与连新路交汇处)","location":"113.262735,23.128942","transed_lng":113.25740647814446,"transed_lat":23.13161958493614,"cityname":"广州市","adname":"越秀区"},{"id":"B00141IMKQ","name":"芳村花园","type":"商务住宅;住宅区;住宅小区","typecode":"120302","address":"龙溪大道中环","location":"113.223467,23.077194","transed_lng":113.21813542545269,"transed_lat":23.0798832506031,"cityname":"广州市","adname":"荔湾区"},{"id":"B00140UFPG","name":"南洲名苑","type":"商务住宅;住宅区;住宅小区","typecode":"120302","address":"南州路130号","location":"113.295847,23.066436","transed_lng":113.29048352722255,"transed_lat":23.06910506644691,"cityname":"广州市","adname":"海珠区"},{"id":"B00140NYUA","name":"金沙丽水","type":"商务住宅;住宅区;住宅小区","typecode":"120302","address":"沙湾镇沙湾路128号","location":"113.346379,22.900475","transed_lng":113.34092783187754,"transed_lat":22.903123468574268,"cityname":"广州市","adname":"番禺区"},{"id":"B00140UFRN","name":"广地花园","type":"商务住宅;住宅区;住宅小区","typecode":"120302","address":"南村镇番禹大道北","location":"113.337973,23.019418","transed_lng":113.33253017242556,"transed_lat":23.022031209951923,"cityname":"广州市","adname":"番禺区"},{"id":"B00140UGEA","name":"翠竹苑(花湾路)","type":"商务住宅;住宅区;住宅小区","typecode":"120302","address":"花地湾居住区喜鹊路东翠竹街48号","location":"113.238098,23.083267","transed_lng":113.23277544574538,"transed_lat":23.085963977690476,"cityname":"广州市","adname":"荔湾区"},{"id":"B00140UFAI","name":"荟雅苑","type":"商务住宅;住宅区;住宅小区","typecode":"120302","address":"林乐路251-253号","location":"113.327261,23.142557","transed_lng":113.321831657947,"transed_lat":23.145138990555246,"cityname":"广州市","adname":"天河区"},{"id":"B00140T2VU","name":"东方之珠(天河北路)","type":"商务住宅;住宅区;住宅小区","typecode":"120302","address":"天河北路703号(近高科大厦)","location":"113.34435,23.141979","transed_lng":113.33888630296268,"transed_lat":23.144529149972495,"cityname":"广州市","adname":"天河区"},{"id":"B00140I3Y0","name":"新世界大厦","type":"商务住宅;住宅区;住宅小区","typecode":"120302","address":"南华西路89号","location":"113.254608,23.105634","transed_lng":113.2492846622789,"transed_lat":23.108323811631944,"cityname":"广州市","adname":"海珠区"},{"id":"B00140NZ9O","name":"羊城花园","type":"商务住宅;住宅区;住宅小区","typecode":"120302","address":"黄村中山大道中438号","location":"113.410687,23.118275","transed_lng":113.40516554974307,"transed_lat":23.120775139117193,"cityname":"广州市","adname":"天河区"},{"id":"B00140W26Z","name":"白云尚城","type":"商务住宅;住宅区;住宅小区","typecode":"120302","address":"黄石北路137-157号","location":"113.285221,23.213267","transed_lng":113.27986400476608,"transed_lat":23.215892967052135,"cityname":"广州市","adname":"白云区"},{"id":"B00140TTKU","name":"陵园西小区","type":"商务住宅;住宅区;住宅小区","typecode":"120302","address":"越秀陵园西路一号","location":"113.282247,23.127535","transed_lng":113.27689978337352,"transed_lat":23.130196967353072,"cityname":"广州市","adname":"越秀区"},{"id":"B00140WGUK","name":"南沙珠江湾","type":"商务住宅;住宅区;住宅小区","typecode":"120302","address":"环市大道南漾滨路(凫洲大桥西侧)","location":"113.5832,22.742278","transed_lng":113.57813875113209,"transed_lat":22.74529086066882,"cityname":"广州市","adname":"南沙区"},{"id":"B00140W2A6","name":"金碧领秀国际","type":"商务住宅;住宅区;住宅小区","typecode":"120302","address":"骏鸿中街","location":"113.461123,23.098057","transed_lng":113.4556906603756,"transed_lat":23.100639120476483,"cityname":"广州市","adname":"黄埔区"},{"id":"B00140TX38","name":"时代花生","type":"商务住宅;住宅区;住宅小区","typecode":"120302","address":"广州大道北银利街35号","location":"113.319602,23.165900","transed_lng":113.31418680332649,"transed_lat":23.16848745171124,"cityname":"广州市","adname":"天河区"},{"id":"B00140UF9Q","name":"和平新村","type":"商务住宅;住宅区;住宅小区","typecode":"120302","address":"荔湾环市西路18号","location":"113.237967,23.13849","transed_lng":113.23264069716022,"transed_lat":23.141164282183425,"cityname":"广州市","adname":"荔湾区"},{"id":"B001402C72","name":"东湖御苑","type":"商务住宅;住宅区;住宅小区","typecode":"120302","address":"越秀东湖路永胜上沙1号","location":"113.287864,23.118687","transed_lng":113.28250959795724,"transed_lat":23.121345617634773,"cityname":"广州市","adname":"越秀区"},{"id":"B00141J29P","name":"锦绣生态园","type":"商务住宅;住宅区;住宅小区","typecode":"120302","address":"钟村街","location":"113.30648,22.968136","transed_lng":113.30110408973245,"transed_lat":22.970830036321026,"cityname":"广州市","adname":"番禺区"},{"id":"B00140UFVU","name":"海珠半岛花园","type":"商务住宅;住宅区;住宅小区","typecode":"120302","address":"滨江东路31-73号","location":"113.293699,23.103946","transed_lng":113.2883365521451,"transed_lat":23.10660253778181,"cityname":"广州市","adname":"海珠区"},{"id":"B00140261D","name":"富力千禧花园","type":"商务住宅;住宅区;住宅小区","typecode":"120302","address":"新港西路17-19号","location":"113.287353,23.095651","transed_lng":113.282000893823,"transed_lat":23.098319773633868,"cityname":"广州市","adname":"海珠区"},{"id":"B00140TTNV","name":"广利路小区","type":"商务住宅;住宅区;住宅小区","typecode":"120302","address":"广利路19号","location":"113.318567,23.130100","transed_lng":113.31315633869488,"transed_lat":23.132703445465054,"cityname":"广州市","adname":"天河区"},{"id":"B00141J0UP","name":"棠德花苑","type":"商务住宅;住宅区;住宅小区","typecode":"120302","address":"棠德南路287号","location":"113.384307,23.133369","transed_lng":113.37878740242866,"transed_lat":23.135868251302867,"cityname":"广州市","adname":"天河区"},{"id":"B00140UEY0","name":"帝景苑(龙口中路)","type":"商务住宅;住宅区;住宅小区","typecode":"120302","address":"龙口西路338号","location":"113.336575,23.140419","transed_lng":113.33112676250148,"transed_lat":23.142984131870293,"cityname":"广州市","adname":"天河区"},{"id":"B00140HHC2","name":"合兴苑(东漖北路)","type":"商务住宅;住宅区;住宅小区|购物服务;专卖店;珠宝首饰工艺品","typecode":"120302|061202","address":"茶教北路","location":"113.230651,23.092097","transed_lng":113.22532404404348,"transed_lat":23.09478598573786,"cityname":"广州市","adname":"荔湾区"},{"id":"B00140UFW8","name":"东湖新村","type":"商务住宅;住宅区;住宅小区","typecode":"120302","address":"东湖西路1-9号","location":"113.287707,23.117767","transed_lng":113.28235289007425,"transed_lat":23.120426198492463,"cityname":"广州市","adname":"越秀区"},{"id":"B00140W5SV","name":"龙光峰景华庭","type":"商务住宅;住宅区;住宅小区","typecode":"120302","address":"广汕公路黄陂段146号","location":"113.451211,23.1889","transed_lng":113.4457463957045,"transed_lat":23.19142397104868,"cityname":"广州市","adname":"黄埔区"},{"id":"B00140BBHG","name":"嘉鸿花园","type":"商务住宅;住宅区;住宅小区","typecode":"120302","address":"工业大道997号","location":"113.291425,23.066269","transed_lng":113.2860687163551,"transed_lat":23.06894461766227,"cityname":"广州市","adname":"海珠区"},{"id":"B00140TRMZ","name":"新民路小区","type":"商务住宅;住宅区;住宅小区","typecode":"120302","address":"新民路4号","location":"113.206659,23.369564","transed_lng":113.20128793439405,"transed_lat":23.372136251585935,"cityname":"广州市","adname":"花都区"},{"id":"B00141J6ZN","name":"碧桂园·豪园","type":"商务住宅;住宅区;住宅小区","typecode":"120302","address":"石滩郑田村","location":"113.820986,23.221437","transed_lng":113.81590966561899,"transed_lat":23.224159477122377,"cityname":"广州市","adname":"增城区"},{"id":"B00140NYTN","name":"金迪城市花园","type":"商务住宅;住宅区;住宅小区","typecode":"120302","address":"机场路乐陶街92号","location":"113.257371,23.169171","transed_lng":113.25204246005006,"transed_lat":23.171834900218382,"cityname":"广州市","adname":"白云区"},{"id":"B00140U6JC","name":"中海花城湾","type":"商务住宅;住宅区;住宅小区","typecode":"120302","address":"花城大道86号","location":"113.332146,23.117546","transed_lng":113.32670832101273,"transed_lat":23.120128721157137,"cityname":"广州市","adname":"天河区"},{"id":"B00140SLCL","name":"芳草街小区","type":"商务住宅;住宅区;住宅小区","typecode":"120302","address":"豪贤路33-35号","location":"113.277208,23.12952","transed_lng":113.27186678324753,"transed_lat":23.132186574327832,"cityname":"广州市","adname":"越秀区"},{"id":"B00140B04N","name":"锦城花园(东风东路)","type":"商务住宅;住宅区;住宅小区","typecode":"120302","address":"东山东风东路858号","location":"113.30997,23.130857","transed_lng":113.30457642920268,"transed_lat":23.133475895709324,"cityname":"广州市","adname":"越秀区"},{"id":"B00140UFM6","name":"江湾花苑","type":"商务住宅;住宅区;住宅小区","typecode":"120302","address":"江湾路156号中海名都旁","location":"113.278435,23.108098","transed_lng":113.27309380632316,"transed_lat":23.11077205078762,"cityname":"广州市","adname":"海珠区"},{"id":"B00140JBZI","name":"东海嘉园","type":"商务住宅;住宅区;住宅小区","typecode":"120302","address":"广州大道东兴北路102号(外商活动中心南侧直入50米)","location":"113.311456,23.125155","transed_lng":113.30605990977591,"transed_lat":23.12777352976697,"cityname":"广州市","adname":"越秀区"},{"id":"B00140UG9W","name":"丽都花园(力子园路)","type":"商务住宅;住宅区;住宅小区","typecode":"120302","address":"中山大道力子园路盈溪路旁","location":"113.422338,23.112865","transed_lng":113.416826523095,"transed_lat":23.115374810531257,"cityname":"广州市","adname":"天河区"},{"id":"B001406EE4","name":"东华花园(广华北路)","type":"商务住宅;住宅区;住宅小区","typecode":"120302","address":"大龙街","location":"113.391744,22.940563","transed_lng":113.38623346810239,"transed_lat":22.943139612553793,"cityname":"广州市","adname":"番禺区"},{"id":"B00140U145","name":"兰亭御园","type":"商务住宅;住宅区;住宅小区","typecode":"120302","address":"南华中路180号(海珠少年宫旁)","location":"113.257331,23.105262","transed_lng":113.25200676334026,"transed_lat":23.10795132778299,"cityname":"广州市","adname":"海珠区"},{"id":"B00140UG05","name":"中信君庭","type":"商务住宅;住宅区;住宅小区","typecode":"120302","address":"赤岗街","location":"113.304759,23.103247","transed_lng":113.29937722628213,"transed_lat":23.105886235749814,"cityname":"广州市","adname":"海珠区"},{"id":"B00140BEIP","name":"叠彩园","type":"商务住宅;住宅区;住宅小区","typecode":"120302","address":"广州大道南叠景路直入100米","location":"113.310741,23.086153","transed_lng":113.30534894645632,"transed_lat":23.088788896076448,"cityname":"广州市","adname":"海珠区"},{"id":"B00140ULMC","name":"汾水小区","type":"商务住宅;住宅区;住宅小区","typecode":"120302","address":"浣花西路","location":"113.221676,23.082465","transed_lng":113.21634239021945,"transed_lat":23.085150266949892,"cityname":"广州市","adname":"荔湾区"},{"id":"B00140UG7U","name":"雅郡花园","type":"商务住宅;住宅区;住宅小区","typecode":"120302","address":"新港东路48号(国际会展中心往东800米)","location":"113.386698,23.091683","transed_lng":113.38117966875001,"transed_lat":23.094197659562457,"cityname":"广州市","adname":"海珠区"},{"id":"B00140UF81","name":"保利香槟花园","type":"商务住宅;住宅区;住宅小区","typecode":"120302","address":"华利路46-52号","location":"113.317448,23.117228","transed_lng":113.31204048070606,"transed_lat":23.119838749072894,"cityname":"广州市","adname":"天河区"},{"id":"B00140UEUR","name":"富力天河华庭","type":"商务住宅;住宅区;住宅小区","typecode":"120302","address":"华庭路3-5号","location":"113.330116,23.145384","transed_lng":113.32468059147136,"transed_lat":23.14795942378613,"cityname":"广州市","adname":"天河区"},{"id":"B00140SWUN","name":"南兴花苑","type":"商务住宅;住宅区;住宅小区|地名地址信息;普通地名;村庄级地名","typecode":"120302|190108","address":"南村镇南村兴业大道南侧","location":"113.395341,23.002771","transed_lng":113.38982513034007,"transed_lat":23.005319568012847,"cityname":"广州市","adname":"番禺区"},{"id":"B00141IC8U","name":"保利花城花园3期","type":"商务住宅;住宅区;住宅小区","typecode":"120302","address":"广清高速公路以东、三东大道西以北","location":"113.197531,23.417878","transed_lng":113.1921426882249,"transed_lat":23.420428052674378,"cityname":"广州市","adname":"花都区"},{"id":"B00140UG30","name":"中海名都","type":"商务住宅;住宅区;住宅小区","typecode":"120302","address":"中纺织路1号","location":"113.276233,23.109446","transed_lng":113.2708942203921,"transed_lat":23.11212169061655,"cityname":"广州市","adname":"海珠区"},{"id":"B001401D95","name":"金穗雅园","type":"商务住宅;住宅区;住宅小区","typecode":"120302","address":"广州大道南915号","location":"113.317599,23.086121","transed_lng":113.31219327982011,"transed_lat":23.088744343681103,"cityname":"广州市","adname":"海珠区"},{"id":"B00141J3WX","name":"万科红郡","type":"商务住宅;住宅区;住宅小区","typecode":"120302","address":"南村镇兴南大道368号","location":"113.355209,23.008585","transed_lng":113.34973457464716,"transed_lat":23.011172459432842,"cityname":"广州市","adname":"番禺区"},{"id":"B00140UQ26","name":"绿屿居","type":"商务住宅;住宅区;住宅小区","typecode":"120302","address":"芳盛街附近","location":"113.305026,23.083418","transed_lng":113.29964506560765,"transed_lat":23.08606505019779,"cityname":"广州市","adname":"海珠区"},{"id":"B00140HV3A","name":"侨诚花园","type":"商务住宅;住宅区;住宅小区","typecode":"120302","address":"海珠工业大道南253号","location":"113.291769,23.068939","transed_lng":113.28641199650441,"transed_lat":23.071612997189675,"cityname":"广州市","adname":"海珠区"},{"id":"B00140UFMM","name":"顺欣广场","type":"商务住宅;住宅区;住宅小区","typecode":"120302","address":"荔新十二路99号","location":"113.62394,23.146035","transed_lng":113.61885883806038,"transed_lat":23.148877454462294,"cityname":"广州市","adname":"增城区"},{"id":"B00141J7AM","name":"乐活小镇","type":"商务住宅;住宅区;住宅小区","typecode":"120302","address":"增江街广汕公路四丰村地段","location":"113.866228,23.237564","transed_lng":113.86126593163996,"transed_lat":23.240359491584826,"cityname":"广州市","adname":"增城区"},{"id":"B00140N6XH","name":"春江花园(棠东东路)","type":"商务住宅;住宅区;住宅小区","typecode":"120302","address":"中山大道棠东东路128号","location":"113.390441,23.128594","transed_lng":113.38491814902038,"transed_lat":23.1310913498476,"cityname":"广州市","adname":"天河区"},{"id":"B00140UDPP","name":"顺欣花园","type":"商务住宅;住宅区;住宅小区","typecode":"120302","address":"新塘镇荔新十二路98号","location":"113.617517,23.1463","transed_lng":113.6124394975658,"transed_lat":23.149148311680626,"cityname":"广州市","adname":"增城区"},{"id":"B00140UEU4","name":"时代美居","type":"商务住宅;住宅区;住宅小区","typecode":"120302","address":"宝华路28号","location":"113.21368,23.387678","transed_lng":113.20831701479443,"transed_lat":23.390256388815782,"cityname":"广州市","adname":"花都区"},{"id":"B00140472A","name":"跑马地花园","type":"商务住宅;住宅区;住宅小区","typecode":"120302","address":"潭村路346号","location":"113.350278,23.123767","transed_lng":113.34480443536785,"transed_lat":23.126313990936147,"cityname":"广州市","adname":"天河区"},{"id":"B00140AWMC","name":"金田花苑(金田北街)","type":"商务住宅;住宅区;住宅小区","typecode":"120302","address":"天河北路565号金田花园","location":"113.335146,23.142724","transed_lng":113.32970049581694,"transed_lat":23.14529091362823,"cityname":"广州市","adname":"天河区"},{"id":"B00140W28U","name":"锦绣新天地","type":"商务住宅;住宅区;住宅小区","typecode":"120302","address":"新塘镇府前路29号","location":"113.622929,23.118747","transed_lng":113.61785030823023,"transed_lat":23.121601431315668,"cityname":"广州市","adname":"增城区"},{"id":"B00140H33U","name":"动感小西关","type":"商务住宅;住宅区;住宅小区","typecode":"120302","address":"荔湾路97-99号","location":"113.243675,23.129034","transed_lng":113.23835083090377,"transed_lat":23.131714001152574,"cityname":"广州市","adname":"荔湾区"},{"id":"B00141JCF6","name":"碧桂园御湖城","type":"商务住宅;住宅区;住宅小区","typecode":"120302","address":"灌村路399号","location":"113.633254,23.57339","transed_lng":113.62813662850282,"transed_lat":23.576138515729347,"cityname":"广州市","adname":"从化区"},{"id":"B00140K31B","name":"五山花园","type":"商务住宅;住宅区;住宅小区","typecode":"120302","address":"茶山路225号","location":"113.353779,23.149685","transed_lng":113.34829742377339,"transed_lat":23.152215763428064,"cityname":"广州市","adname":"天河区"},{"id":"B00141JKBJ","name":"诺德名都","type":"商务住宅;住宅区;住宅小区","typecode":"120302","address":"兴业大道西989号(地铁三号线汉溪长隆站)","location":"113.345307,22.989657","transed_lng":113.3398518284682,"transed_lat":22.992269607782255,"cityname":"广州市","adname":"番禺区"},{"id":"B00140ABF6","name":"锦绣华庭(光明北路)","type":"商务住宅;住宅区;住宅小区","typecode":"120302","address":"光明北路12号","location":"113.361844,22.940683","transed_lng":113.35636341721252,"transed_lat":22.94328935697288,"cityname":"广州市","adname":"番禺区"},{"id":"B00140V9RX","name":"陶然庭苑","type":"商务住宅;住宅区;住宅小区","typecode":"120302","address":"华景东路216号","location":"113.361146,23.142306","transed_lng":113.35565274959684,"transed_lat":23.144828088895146,"cityname":"广州市","adname":"天河区"},{"id":"B00140ASB9","name":"小城之春","type":"商务住宅;住宅区;住宅小区","typecode":"120302","address":"粤生街48号(华景路南侧200米处、邮电科学研究所对面)","location":"113.360188,23.136574","transed_lng":113.35469664435321,"transed_lat":23.139099800754657,"cityname":"广州市","adname":"天河区"},{"id":"B00140U1VT","name":"富力银禧花园","type":"商务住宅;住宅区;住宅小区","typecode":"120302","address":"新港街","location":"113.292825,23.100882","transed_lng":113.28746416964013,"transed_lat":23.1035410788181,"cityname":"广州市","adname":"海珠区"},{"id":"B00140UFMI","name":"江南花园(宝业路)","type":"商务住宅;住宅区;住宅小区","typecode":"120302","address":"宝业路4号","location":"113.266096,23.092648","transed_lng":113.26076766422506,"transed_lat":23.09533863232463,"cityname":"广州市","adname":"海珠区"},{"id":"B00140U51C","name":"广州奥林匹克花园","type":"商务住宅;住宅区;住宅小区","typecode":"120302","address":"洛溪如意路16号","location":"113.307636,23.043618","transed_lng":113.30225281676431,"transed_lat":23.04627747250242,"cityname":"广州市","adname":"番禺区"},{"id":"B00140UG0N","name":"新鸿花园(江丽路)","type":"商务住宅;住宅区;住宅小区","typecode":"120302","address":"江丽路89号","location":"113.317838,23.104645","transed_lng":113.31243054236457,"transed_lat":23.10726018543557,"cityname":"广州市","adname":"海珠区"},{"id":"B00140W4EI","name":"百乐园(岗东路)","type":"商务住宅;住宅区;住宅小区","typecode":"120302","address":"大石朝阳西路","location":"113.305244,23.024123","transed_lng":113.29986665151138,"transed_lat":23.026795002241343,"cityname":"广州市","adname":"番禺区"},{"id":"B00140CKEX","name":"城启·天鹅湾","type":"商务住宅;住宅区;住宅小区","typecode":"120302","address":"革新路天鹅街13号","location":"113.254008,23.086426","transed_lng":113.24868611263473,"transed_lat":23.089123905744078,"cityname":"广州市","adname":"海珠区"},{"id":"B00140UFR6","name":"和平家园","type":"商务住宅;住宅区;住宅小区","typecode":"120302","address":"广州大道南888号","location":"113.314369,23.086779","transed_lng":113.30896973304998,"transed_lat":23.089408048667114,"cityname":"广州市","adname":"海珠区"},{"id":"B00140H6M9","name":"宝华豪庭","type":"商务住宅;住宅区;住宅小区","typecode":"120302","address":"宝华路33-51号","location":"113.241492,23.114403","transed_lng":113.23616838917768,"transed_lat":23.117088340379215,"cityname":"广州市","adname":"荔湾区"},{"id":"B00140V9SG","name":"云景名都","type":"商务住宅;住宅区;住宅小区","typecode":"120302","address":"广州大道北京溪路(南方医院旁)","location":"113.329057,23.183034","transed_lng":113.32362120773621,"transed_lat":23.18559702046098,"cityname":"广州市","adname":"白云区"},{"id":"B00140TVOX","name":"隽峰苑","type":"商务住宅;住宅区;住宅小区","typecode":"120302","address":"珠江新城兴盛路10号珠江公园西侧","location":"113.332052,23.120295","transed_lng":113.32661432657079,"transed_lat":23.122876781075,"cityname":"广州市","adname":"天河区"},{"id":"B00140T7ZF","name":"凤凰城(凤妍苑二街)","type":"商务住宅;住宅区;住宅小区","typecode":"120302","address":"凤妍苑二街附近","location":"113.57684,23.125721","transed_lng":113.5717459231567,"transed_lat":23.12857593523598,"cityname":"广州市","adname":"增城区"},{"id":"B00140UFG4","name":"金碧湾","type":"商务住宅;住宅区;住宅小区","typecode":"120302","address":"革新路105号","location":"113.252717,23.090856","transed_lng":113.24739512031857,"transed_lat":23.09355222605828,"cityname":"广州市","adname":"海珠区"},{"id":"B00140ULM7","name":"华南御景园","type":"商务住宅;住宅区;住宅小区","typecode":"120302","address":"五山路","location":"113.378562,23.171231","transed_lng":113.37304461762979,"transed_lat":23.173720362461985,"cityname":"广州市","adname":"天河区"},{"id":"B00140UG1E","name":"珠江帝景华苑","type":"商务住宅;住宅区;住宅小区","typecode":"120302","address":"赤岗街珠江帝景","location":"113.320132,23.103722","transed_lng":113.31471993677282,"transed_lat":23.106333261771503,"cityname":"广州市","adname":"海珠区"},{"id":"B00141JESV","name":"越华路小区","type":"商务住宅;住宅区;住宅小区","typecode":"120302","address":"越华路47号附近","location":"113.269963,23.129040","transed_lng":113.26462910976423,"transed_lat":23.131713079349442,"cityname":"广州市","adname":"越秀区"},{"id":"B00141JLRK","name":"黄石东路小区","type":"商务住宅;住宅区;住宅小区","typecode":"120302","address":"江夏大塘大街与黄石东路交叉口西100米","location":"113.272313,23.204219","transed_lng":113.26697189219556,"transed_lat":23.2068615850897,"cityname":"广州市","adname":"白云区"},{"id":"B00141I50C","name":"鸿运花园(新港中路)","type":"商务住宅;住宅区;住宅小区","typecode":"120302","address":"新港中路368号","location":"113.324279,23.095239","transed_lng":113.31885900772332,"transed_lat":23.097845922075944,"cityname":"广州市","adname":"海珠区"},{"id":"B00140ULMG","name":"同德上步花园","type":"商务住宅;住宅区;住宅小区","typecode":"120302","address":"上步大道与西槎路交叉口东北150米","location":"113.236611,23.170195","transed_lng":113.23128202602875,"transed_lat":23.172856313875773,"cityname":"广州市","adname":"白云区"},{"id":"B00140U06O","name":"南苑小区","type":"商务住宅;住宅区;住宅小区","typecode":"120302","address":"黄埔大道西433号","location":"113.340274,23.127184","transed_lng":113.33481927034464,"transed_lat":23.129747520090145,"cityname":"广州市","adname":"天河区"},{"id":"B00140T2LJ","name":"天一新村","type":"商务住宅;住宅区;住宅小区","typecode":"120302","address":"天河东莞庄路126号至6号","location":"113.337174,23.155643","transed_lng":113.3317235192454,"transed_lat":23.158201028867083,"cityname":"广州市","adname":"天河区"},{"id":"B00140WDQT","name":"东山领汇广场","type":"商务住宅;住宅区;住宅小区","typecode":"120302","address":"越秀地铁1号线与5号线的交汇点杨箕站处","location":"113.30789,23.127","transed_lng":113.30250070518642,"transed_lat":23.129624123834812,"cityname":"广州市","adname":"越秀区"},{"id":"B00140UFHM","name":"天湖峰境","type":"商务住宅;住宅区;住宅小区","typecode":"120302","address":"花东镇山前旅游大道东段北侧","location":"113.442933,23.451299","transed_lng":113.43743150835829,"transed_lat":23.45374275911692,"cityname":"广州市","adname":"花都区"},{"id":"B00140NY4O","name":"麓苑小区","type":"商务住宅;住宅区;住宅小区","typecode":"120302","address":"麓苑路15号-101","location":"113.282626,23.142151","transed_lng":113.27727730558195,"transed_lat":23.144806689714663,"cityname":"广州市","adname":"越秀区"},{"id":"B00140V60U","name":"华园(秀全大道)","type":"商务住宅;住宅区;住宅小区","typecode":"120302","address":"花都秀全大道54号","location":"113.21523,23.38006","transed_lng":113.20986939576463,"transed_lat":23.38264166464676,"cityname":"广州市","adname":"花都区"},{"id":"B00140TDVS","name":"侨英花园","type":"商务住宅;住宅区;住宅小区","typecode":"120302","address":"粤垦路1号","location":"113.333332,23.150181","transed_lng":113.32788967872136,"transed_lat":23.15274841610863,"cityname":"广州市","adname":"天河区"},{"id":"B00140UG46","name":"朝阳社区(长塘街)","type":"商务住宅;住宅区;住宅小区","typecode":"120302","address":"文明路与长塘街交叉口北150米","location":"113.27282,23.123789","transed_lng":113.26748380856093,"transed_lat":23.126461922648588,"cityname":"广州市","adname":"越秀区"},{"id":"B00140L7XO","name":"丽江花园","type":"商务住宅;住宅区;住宅小区","typecode":"120302","address":"南浦沿沙东路","location":"113.302295,23.034888","transed_lng":113.29692236621892,"transed_lat":23.037560323597095,"cityname":"广州市","adname":"番禺区"},{"id":"B00140MPIZ","name":"云珠花园","type":"商务住宅;住宅区;住宅小区","typecode":"120302","address":"龙珠路35号","location":"113.229838,23.398245","transed_lng":113.22448987509581,"transed_lat":23.40083786605264,"cityname":"广州市","adname":"花都区"},{"id":"B00140SBEO","name":"岭南花园(岭南北街)","type":"商务住宅;住宅区;住宅小区","typecode":"120302","address":"同嘉路27号","location":"113.232246,23.161821","transed_lng":113.22691536119902,"transed_lat":23.164483004984753,"cityname":"广州市","adname":"白云区"},{"id":"B00140W3XX","name":"万科金色城品","type":"商务住宅;住宅区;住宅小区","typecode":"120302","address":"沙湾镇德贤路837号","location":"113.3571,22.912677","transed_lng":113.35162889870189,"transed_lat":22.915302349181626,"cityname":"广州市","adname":"番禺区"},{"id":"B00140KRVJ","name":"富力环市西苑","type":"商务住宅;住宅区;住宅小区","typecode":"120302","address":"环市西路33号","location":"113.239334,23.14163","transed_lng":113.23400796199364,"transed_lat":23.144303610567803,"cityname":"广州市","adname":"荔湾区"},{"id":"B00140TTM0","name":"横枝岗路小区","type":"商务住宅;住宅区;住宅小区","typecode":"120302","address":"东风路与先烈南路交叉口","location":"113.290085,23.146374","transed_lng":113.28472540176455,"transed_lat":23.149018539171756,"cityname":"广州市","adname":"越秀区"},{"id":"B00141JPI4","name":"颐和盛世","type":"商务住宅;住宅区;住宅小区","typecode":"120302","address":"云城东路","location":"113.272411,23.174573","transed_lng":113.26707179331152,"transed_lat":23.177226378880363,"cityname":"广州市","adname":"白云区"},{"id":"B00140TYWU","name":"方圆月岛","type":"商务住宅;住宅区;住宅小区","typecode":"120302","address":"珠江新城花城大道与兴国路交界处","location":"113.330072,23.119341","transed_lng":113.32463845148301,"transed_lat":23.121926942836115,"cityname":"广州市","adname":"天河区"},{"id":"B00141IDAL","name":"美域华庭","type":"商务住宅;住宅区;住宅小区","typecode":"120302","address":"花都商贸路11号","location":"113.193123,23.379251","transed_lng":113.18772995899705,"transed_lat":23.381799866201327,"cityname":"广州市","adname":"花都区"},{"id":"B00140HIT9","name":"湖景华厦","type":"商务住宅;住宅区;住宅小区","typecode":"120302","address":"东华南路176/178号","location":"113.289124,23.12074","transed_lng":113.28376758675618,"transed_lat":23.12339610398844,"cityname":"广州市","adname":"越秀区"},{"id":"B00140N3AQ","name":"华侨城(西丽路)","type":"商务住宅;住宅区;住宅小区","typecode":"120302","address":"桥镇西丽路228号","location":"113.353036,22.93297","transed_lng":113.34757047586623,"transed_lat":22.93559346002736,"cityname":"广州市","adname":"番禺区"},{"id":"B00140TZI2","name":"雅苑(海明路)","type":"商务住宅;住宅区;住宅小区","typecode":"120302","address":"华府街13-15号","location":"113.342452,23.116249","transed_lng":113.33699373462231,"transed_lat":23.118812949645005,"cityname":"广州市","adname":"天河区"},{"id":"B00140UFOO","name":"南浦海滨花园","type":"商务住宅;住宅区;住宅小区","typecode":"120302","address":"洛溪新南浦岛水厂路","location":"113.290334,23.037689","transed_lng":113.2849813282841,"transed_lat":23.040378368898725,"cityname":"广州市","adname":"番禺区"},{"id":"B00140UOTP","name":"山水庭苑北区","type":"商务住宅;住宅区;住宅小区","typecode":"120302","address":"同和镇","location":"113.332778,23.217557","transed_lng":113.32733221948222,"transed_lat":23.220100530845006,"cityname":"广州市","adname":"白云区"},{"id":"B00140T4OK","name":"华标品峰","type":"商务住宅;住宅区;住宅小区","typecode":"120302","address":"滨江中路466号","location":"113.281264,23.109727","transed_lng":113.27591924180767,"transed_lat":23.112397334037077,"cityname":"广州市","adname":"海珠区"},{"id":"B00140W6I9","name":"南航花园(迎宾大道)","type":"商务住宅;住宅区;住宅小区","typecode":"120302","address":"迎宾大道103","location":"113.23205,23.402184","transed_lng":113.2267030286061,"transed_lat":23.404777784986997,"cityname":"广州市","adname":"花都区"},{"id":"B00140UTXA","name":"银业国际","type":"商务住宅;住宅区;住宅小区","typecode":"120302","address":"广州大道南863、867-2","location":"113.316661,23.088125","transed_lng":113.31125704054962,"transed_lat":23.090749250485143,"cityname":"广州市","adname":"海珠区"},{"id":"B00140MLPR","name":"温馨家园(河滨南路)","type":"商务住宅;住宅区;住宅小区","typecode":"120302","address":"广场路123号","location":"113.587057,23.537781","transed_lng":113.58194737695938,"transed_lat":23.54055093517958,"cityname":"广州市","adname":"从化区"},{"id":"B00140UFTE","name":"翠馨华庭","type":"商务住宅;住宅区;住宅小区","typecode":"120302","address":"广州大道南962-968号","location":"113.315279,23.084152","transed_lng":113.3098780894807,"transed_lat":23.086780476228206,"cityname":"广州市","adname":"海珠区"},{"id":"B00140U1RK","name":"信步闲庭西区","type":"商务住宅;住宅区;住宅小区","typecode":"120302","address":"新窖镇","location":"113.333993,23.089411","transed_lng":113.3285534625857,"transed_lat":23.092001840292152,"cityname":"广州市","adname":"海珠区"},{"id":"B00140UDE0","name":"江源半岛","type":"商务住宅;住宅区;住宅小区","typecode":"120302","address":"车陂南路1-7号","location":"113.387913,23.112788","transed_lng":113.38239250795203,"transed_lat":23.11529316474181,"cityname":"广州市","adname":"天河区"},{"id":"B00140U8TA","name":"富基广场","type":"商务住宅;住宅区;住宅小区","typecode":"120302","address":"小港路163号","location":"113.272779,23.108089","transed_lng":113.26744390261035,"transed_lat":23.110768367169616,"cityname":"广州市","adname":"海珠区"},{"id":"B00140NYOB","name":"花城湾畔","type":"商务住宅;住宅区;住宅小区","typecode":"120302","address":"滨江中路380号","location":"113.277214,23.111261","transed_lng":113.27187400303444,"transed_lat":23.113934987223466,"cityname":"广州市","adname":"海珠区"},{"id":"B00140UDQQ","name":"东方白云花园","type":"商务住宅;住宅区;住宅小区","typecode":"120302","address":"桥富怡路大龙街","location":"113.389464,22.948731","transed_lng":113.3839539118197,"transed_lat":22.951305267547415,"cityname":"广州市","adname":"番禺区"},{"id":"B00141JVRQ","name":"保利·天悦","type":"商务住宅;住宅区;住宅小区","typecode":"120302","address":"琶洲塔公园东侧","location":"113.380992,23.100938","transed_lng":113.37547723799167,"transed_lat":23.10345314168594,"cityname":"广州市","adname":"海珠区"},{"id":"B00140NY4R","name":"宝盛园","type":"商务住宅;住宅区;住宅小区","typecode":"120302","address":"逢源路116-126号","location":"113.239491,23.121178","transed_lng":113.2341663832474,"transed_lat":23.123859875932872,"cityname":"广州市","adname":"荔湾区"},{"id":"B00141I8TP","name":"天雅居(黄村路)","type":"商务住宅;住宅区;住宅小区","typecode":"120302","address":"天河东圃黄村路120号","location":"113.411179,23.122893","transed_lng":113.40565750026991,"transed_lat":23.125391453691954,"cityname":"广州市","adname":"天河区"},{"id":"B00140UU0S","name":"方圆小院","type":"商务住宅;住宅区;住宅小区","typecode":"120302","address":"天府路11-1号","location":"113.360813,23.127117","transed_lng":113.3553213080897,"transed_lat":23.129645654815143,"cityname":"广州市","adname":"天河区"},{"id":"B00140U1TL","name":"聚德花苑","type":"商务住宅;住宅区;住宅小区","typecode":"120302","address":"聚德路18号","location":"113.327872,23.085641","transed_lng":113.32244526232382,"transed_lat":23.088245081356852,"cityname":"广州市","adname":"海珠区"},{"id":"B00140UETT","name":"恒福阁","type":"商务住宅;住宅区;住宅小区","typecode":"120302","address":"恒福路288号","location":"113.292783,23.143775","transed_lng":113.28741934784179,"transed_lat":23.146416758490425,"cityname":"广州市","adname":"越秀区"},{"id":"B00140UGEI","name":"华标涛景湾","type":"商务住宅;住宅区;住宅小区","typecode":"120302","address":"滨江东路438号","location":"113.283108,23.108945","transed_lng":113.27776090309395,"transed_lat":23.111613535775902,"cityname":"广州市","adname":"海珠区"},{"id":"B00140UGEM","name":"坚真花园","type":"商务住宅;住宅区;住宅小区","typecode":"120302","address":"聚德西路附近","location":"113.326895,23.081765","transed_lng":113.32147053619765,"transed_lat":23.084372575485187,"cityname":"广州市","adname":"海珠区"},{"id":"B00140UFTC","name":"愉景南苑","type":"商务住宅;住宅区;住宅小区","typecode":"120302","address":"广州新港西路212号","location":"113.311687,23.094064","transed_lng":113.30629255723827,"transed_lat":23.096694886354896,"cityname":"广州市","adname":"海珠区"},{"id":"B00140TTKM","name":"光塔路小区","type":"商务住宅;住宅区;住宅小区","typecode":"120302","address":"光塔路与海珠中路交叉口东南50米","location":"113.259745,23.122462","transed_lng":113.25441854652239,"transed_lat":23.125143492319467,"cityname":"广州市","adname":"越秀区"},{"id":"B00140UEYS","name":"翠华苑","type":"商务住宅;住宅区;住宅小区","typecode":"120302","address":"五山街","location":"113.358181,23.15095","transed_lng":113.35269189064704,"transed_lat":23.153473200880324,"cityname":"广州市","adname":"天河区"},{"id":"B00141ID7Y","name":"上城湾畔","type":"商务住宅;住宅区;住宅小区","typecode":"120302","address":"从化大道南","location":"113.588629,23.528702","transed_lng":113.58352134511718,"transed_lat":23.531472554649437,"cityname":"广州市","adname":"从化区"},{"id":"B00140W291","name":"金色港湾(群星北路)","type":"商务住宅;住宅区;住宅小区","typecode":"120302","address":"群星中路59号","location":"113.611845,23.114672","transed_lng":113.60677148352048,"transed_lat":23.11753700812435,"cityname":"广州市","adname":"增城区"},{"id":"B00140UF8A","name":"星汇雅苑","type":"商务住宅;住宅区;住宅小区","typecode":"120302","address":"潭村路16号","location":"113.34956,23.120888","transed_lng":113.3440879431971,"transed_lat":23.123437395369766,"cityname":"广州市","adname":"天河区"},{"id":"B00140UFJW","name":"五羊华轩","type":"商务住宅;住宅区;住宅小区","typecode":"120302","address":"梅花村街","location":"113.310225,23.125053","transed_lng":113.3048313252156,"transed_lat":23.127673779241157,"cityname":"广州市","adname":"越秀区"},{"id":"B00140URBC","name":"穗园小区E座","type":"商务住宅;住宅区;住宅小区","typecode":"120302","address":"穗园西街82号","location":"113.337662,23.144855","transed_lng":113.33221127354983,"transed_lat":23.14741633631198,"cityname":"广州市","adname":"天河区"},{"id":"B00140HELL","name":"共和村","type":"商务住宅;住宅区;住宅小区","typecode":"120302","address":"共和大街","location":"113.305963,23.123614","transed_lng":113.30057759512853,"transed_lat":23.12624283888553,"cityname":"广州市","adname":"越秀区"},{"id":"B00140V6JY","name":"保安小区","type":"商务住宅;住宅区;住宅小区","typecode":"120302","address":"茶园路63-23号","location":"113.211906,23.399421","transed_lng":113.20653999625311,"transed_lat":23.40199514982162,"cityname":"广州市","adname":"花都区"},{"id":"B00140UOQ4","name":"金花苑(和安街)","type":"商务住宅;住宅区;住宅小区","typecode":"120302","address":"中山七路和安街43号","location":"113.250769,23.1272","transed_lng":113.2454450188152,"transed_lat":23.129881433888368,"cityname":"广州市","adname":"荔湾区"},{"id":"B00140UGC3","name":"嘉富广场","type":"商务住宅;住宅区;住宅小区","typecode":"120302","address":"水荫路63号","location":"113.310601,23.139619","transed_lng":113.30520560642427,"transed_lat":23.142233269428978,"cityname":"广州市","adname":"越秀区"},{"id":"B00140UOQ8","name":"江南苑","type":"商务住宅;住宅区;住宅小区","typecode":"120302","address":"宝业北街与宝业路交汇处","location":"113.26259,23.092035","transed_lng":113.25726403971632,"transed_lat":23.094727800823446,"cityname":"广州市","adname":"海珠区"},{"id":"B00140V3X6","name":"富力盛悦居","type":"商务住宅;楼宇;商住两用楼宇|商务住宅;住宅区;住宅小区","typecode":"120203|120302","address":"逢源路155号","location":"113.238602,23.120357","transed_lng":113.23327714281055,"transed_lat":23.12303884885033,"cityname":"广州市","adname":"荔湾区"},{"id":"B00140W2CN","name":"榕溪花园","type":"商务住宅;住宅区;住宅小区","typecode":"120302","address":"榕茵路140号","location":"113.24447,23.210238","transed_lng":113.239140485257,"transed_lat":23.21288739932056,"cityname":"广州市","adname":"白云区"},{"id":"B00140UFMT","name":"汇美体育花园","type":"商务住宅;住宅区;住宅小区","typecode":"120302","address":"金都路3号","location":"113.617396,23.133057","transed_lng":113.61231942047645,"transed_lat":23.135910671965682,"cityname":"广州市","adname":"增城区"},{"id":"B00140294B","name":"万丰花园(前进路)","type":"商务住宅;住宅区;住宅小区","typecode":"120302","address":"前进路54号","location":"113.274763,23.10123","transed_lng":113.26942635128505,"transed_lat":23.10391045703708,"cityname":"广州市","adname":"海珠区"},{"id":"B00140UG37","name":"世港国际公寓","type":"商务住宅;住宅区;住宅小区","typecode":"120302","address":"新港东路238号","location":"113.347534,23.097428","transed_lng":113.34206729578356,"transed_lat":23.099990575599236,"cityname":"广州市","adname":"海珠区"},{"id":"B00140W8O6","name":"一品湖山","type":"商务住宅;住宅区;住宅小区","typecode":"120302","address":"同和路688号","location":"113.331297,23.21301","transed_lng":113.32585456266172,"transed_lat":23.215557932199598,"cityname":"广州市","adname":"白云区"},{"id":"B00140UFLE","name":"金羊花园","type":"商务住宅;住宅区;住宅小区","typecode":"120302","address":"中山一路49号","location":"113.309337,23.126702","transed_lng":113.3039449386385,"transed_lat":23.129323693440572,"cityname":"广州市","adname":"越秀区"},{"id":"B00140ULNV","name":"金都花园","type":"商务住宅;住宅区;住宅小区","typecode":"120302","address":"新华镇金都路2号","location":"113.193576,23.38013","transed_lng":113.18818367099456,"transed_lat":23.382679482254556,"cityname":"广州市","adname":"花都区"},{"id":"B00140TTB0","name":"德政南路小区","type":"商务住宅;住宅区;住宅小区","typecode":"120302","address":"德政南路115号至125号和新福","location":"113.275985,23.118052","transed_lng":113.27064591422746,"transed_lat":23.120724405943736,"cityname":"广州市","adname":"越秀区"},{"id":"B00140UGBA","name":"金湖花园(同宝路)","type":"商务住宅;住宅区;住宅小区","typecode":"120302","address":"沙太北路938号金湖花园","location":"113.345144,23.205537","transed_lng":113.3396744391078,"transed_lat":23.20806177016161,"cityname":"广州市","adname":"白云区"},{"id":"B00141IGO4","name":"祈福生活无限","type":"商务住宅;住宅区;住宅小区","typecode":"120302","address":"凤凰南路","location":"113.236459,23.386314","transed_lng":113.23111538548395,"transed_lat":23.38891299051497,"cityname":"广州市","adname":"花都区"},{"id":"B00140W280","name":"江南世家","type":"商务住宅;住宅区;住宅小区","typecode":"120302","address":"黄庄南路","location":"113.338845,23.236518","transed_lng":113.33338565064747,"transed_lat":23.23904367378246,"cityname":"广州市","adname":"白云区"},{"id":"B001403888","name":"侨基花园","type":"商务住宅;住宅区;住宅小区","typecode":"120302","address":"东环路487号","location":"113.358753,22.955397","transed_lng":113.35327628963077,"transed_lat":22.95800175186388,"cityname":"广州市","adname":"番禺区"},{"id":"B00140TZ17","name":"市政大楼","type":"商务住宅;住宅区;住宅小区","typecode":"120302","address":"员村二横路边3号","location":"113.364852,23.115787","transed_lng":113.35935500410953,"transed_lat":23.11831442892708,"cityname":"广州市","adname":"天河区"},{"id":"B00140UFJA","name":"通园","type":"商务住宅;住宅区;住宅小区","typecode":"120302","address":"福今路7号","location":"113.301886,23.127275","transed_lng":113.2965078833658,"transed_lat":23.12990923044136,"cityname":"广州市","adname":"越秀区"},{"id":"B00140704E","name":"南航碧花园","type":"商务住宅;住宅区;住宅小区","typecode":"120302","address":"山前大道189号","location":"113.189816,23.484277","transed_lng":113.18441006301606,"transed_lat":23.486807466663134,"cityname":"广州市","adname":"花都区"},{"id":"B00141IBHF","name":"花园小区(富裕路)","type":"商务住宅;住宅区;住宅小区","typecode":"120302","address":"朱村镇","location":"113.700903,23.27449","transed_lng":113.69571047025906,"transed_lat":23.277157824362725,"cityname":"广州市","adname":"增城区"},{"id":"B00140UT52","name":"新世界东逸花园","type":"商务住宅;住宅区;住宅小区","typecode":"120302","address":"天河东方三路194号-200号","location":"113.360192,23.128137","transed_lng":113.35470121510917,"transed_lat":23.13066617630021,"cityname":"广州市","adname":"天河区"},{"id":"B00140UF1B","name":"棠雅苑","type":"商务住宅;住宅区;住宅小区","typecode":"120302","address":"中山大道枫叶路10号","location":"113.368401,23.135684","transed_lng":113.36289771824012,"transed_lat":23.138198642535954,"cityname":"广州市","adname":"天河区"},{"id":"B00140137A","name":"广州花园","type":"商务住宅;住宅区;住宅小区","typecode":"120302","address":"东平街东平村东平中路37号","location":"113.310748,23.252371","transed_lng":113.3053446735574,"transed_lat":23.25494434724801,"cityname":"广州市","adname":"白云区"},{"id":"B00140K79U","name":"雅乐轩","type":"商务住宅;住宅区;住宅小区","typecode":"120302","address":"新华街天贵路90号","location":"113.222764,23.397069","transed_lng":113.21741022188384,"transed_lat":23.399655977019165,"cityname":"广州市","adname":"花都区"},{"id":"B00140U072","name":"金兴花园","type":"商务住宅;住宅区;住宅小区","typecode":"120302","address":"石牌街","location":"113.360209,23.125618","transed_lng":113.35471836048688,"transed_lat":23.12814816692455,"cityname":"广州市","adname":"天河区"},{"id":"B00140JNOW","name":"金河湾","type":"商务住宅;住宅区;住宅小区","typecode":"120302","address":"花都商业大道103号","location":"113.225732,23.383892","transed_lng":113.22038173662534,"transed_lat":23.38648398904778,"cityname":"广州市","adname":"花都区"},{"id":"B00140BVXW","name":"江南新苑(新港西路)","type":"商务住宅;住宅区;住宅小区","typecode":"120302","address":"新港西路40号","location":"113.286937,23.092018","transed_lng":113.28158574017925,"transed_lat":23.09468882690803,"cityname":"广州市","adname":"海珠区"},{"id":"B00140UNT0","name":"金信大厦","type":"商务住宅;住宅区;住宅小区","typecode":"120302","address":"人民北路689至727号","location":"113.254338,23.126669","transed_lng":113.24901332803701,"transed_lat":23.1293502744464,"cityname":"广州市","adname":"荔湾区"},{"id":"B00140UW4E","name":"兰亭熙园","type":"商务住宅;住宅区;住宅小区","typecode":"120302","address":"昌岗中路164号(地铁八号线宝岗大道站出口处)","location":"113.273643,23.085914","transed_lng":113.26830853127144,"transed_lat":23.088601842841854,"cityname":"广州市","adname":"海珠区"},{"id":"B001403155","name":"东景花园","type":"商务住宅;住宅区;住宅小区","typecode":"120302","address":"中山大道中128号(近车陂路口车站)","location":"113.398554,23.123819","transed_lng":113.39302937689924,"transed_lat":23.126315588242147,"cityname":"广州市","adname":"天河区"},{"id":"B00140C47C","name":"江燕花苑","type":"商务住宅;住宅区;住宅小区","typecode":"120302","address":"江燕路134-152号","location":"113.277912,23.080955","transed_lng":113.27257323777943,"transed_lat":23.083640892164738,"cityname":"广州市","adname":"海珠区"},{"id":"B001407BA8","name":"骏威广场","type":"商务住宅;住宅区;住宅小区","typecode":"120302","address":"新华街公益路1号","location":"113.215987,23.392195","transed_lng":113.21062645647359,"transed_lat":23.39477543365095,"cityname":"广州市","adname":"花都区"},{"id":"B00140UDIW","name":"梅园新村(梅园街)","type":"商务住宅;住宅区;住宅小区","typecode":"120302","address":"广州大道北1302号","location":"113.318688,23.176694","transed_lng":113.31327393262326,"transed_lat":23.179279077977853,"cityname":"广州市","adname":"白云区"},{"id":"B00141J5J1","name":"新康花园(广虎公路)","type":"商务住宅;住宅区;住宅小区","typecode":"120302","address":"新塘大道西508","location":"113.587743,23.116026","transed_lng":113.58266185698115,"transed_lat":23.11889244542181,"cityname":"广州市","adname":"增城区"},{"id":"B00140TY84","name":"绿佳花园","type":"商务住宅;住宅区;住宅小区","typecode":"120302","address":"燕都路50、58、62-68、90-92号","location":"113.332248,23.159159","transed_lng":113.32680728262777,"transed_lat":23.161724984851727,"cityname":"广州市","adname":"天河区"},{"id":"B00140W28X","name":"宏康东筑","type":"商务住宅;住宅区;住宅小区","typecode":"120302","address":"开创大道春晖六街251号","location":"113.548129,23.106478","transed_lng":113.54297810307914,"transed_lat":23.109296327294572,"cityname":"广州市","adname":"黄埔区"},{"id":"B00141ILGW","name":"祈福辉煌台","type":"商务住宅;住宅区;住宅小区","typecode":"120302","address":"新华镇云山大道农新路1号","location":"113.193301,23.376796","transed_lng":113.18790842968967,"transed_lat":23.379345628465163,"cityname":"广州市","adname":"花都区"},{"id":"B00140U2Z1","name":"电信局综合楼","type":"商务住宅;住宅区;住宅小区","typecode":"120302","address":"建基路73-75号","location":"113.286816,23.100207","transed_lng":113.28146436396024,"transed_lat":23.10287457532617,"cityname":"广州市","adname":"海珠区"},{"id":"B00140NHMZ","name":"绿茵庭园","type":"商务住宅;住宅区;住宅小区","typecode":"120302","address":"桥街光明北路233号","location":"113.360696,22.949119","transed_lng":113.35521662243454,"transed_lat":22.95172347508658,"cityname":"广州市","adname":"番禺区"},{"id":"B00140UG0J","name":"客村苑","type":"商务住宅;住宅区;住宅小区","typecode":"120302","address":"敦和路140客村","location":"113.318269,23.08807","transed_lng":113.31286178946682,"transed_lat":23.09069127458784,"cityname":"广州市","adname":"海珠区"},{"id":"B00141KF9Y","name":"自由人花园","type":"商务住宅;住宅区;住宅小区","typecode":"120302","address":"广花一级公路","location":"113.22112,23.344477","transed_lng":113.21576820264805,"transed_lat":23.347072537002607,"cityname":"广州市","adname":"花都区"},{"id":"B00140UGG2","name":"森语星园","type":"商务住宅;住宅区;住宅小区","typecode":"120302","address":"广州大道南上冲南路段森语一街6-12号(双号)森语二街37、39号","location":"113.314224,23.068372","transed_lng":113.30882626585385,"transed_lat":23.071009082118795,"cityname":"广州市","adname":"海珠区"},{"id":"B00140UNTZ","name":"星海明珠","type":"商务住宅;住宅区;住宅小区","typecode":"120302","address":"海珠广州大道南金菊路樱花街48号","location":"113.312945,23.101790","transed_lng":113.30754755139992,"transed_lat":23.104415396390113,"cityname":"广州市","adname":"海珠区"},{"id":"B00140JSPO","name":"美好居","type":"商务住宅;住宅区;住宅小区","typecode":"120302","address":"中山大道中49号","location":"113.393474,23.125246","transed_lng":113.38795023364378,"transed_lat":23.127743372310054,"cityname":"广州市","adname":"天河区"},{"id":"B00140U5NR","name":"阳光花园(西槎路)","type":"商务住宅;住宅区;住宅小区","typecode":"120302","address":"西槎路1263号","location":"113.231484,23.1817","transed_lng":113.226151563242,"transed_lat":23.184353971951015,"cityname":"广州市","adname":"白云区"},{"id":"B00140TSD7","name":"西洲北路小区","type":"商务住宅;住宅区;住宅小区","typecode":"120302","address":"华海街与西洲北路交叉口西北50米","location":"113.22249,23.180198","transed_lng":113.21715060908922,"transed_lat":23.182845012664206,"cityname":"广州市","adname":"白云区"},{"id":"B00140T67N","name":"大学印象","type":"商务住宅;住宅区;住宅小区","typecode":"120302","address":"江怡路208号","location":"113.29579,23.100746","transed_lng":113.2904243139617,"transed_lat":23.103400740811118,"cityname":"广州市","adname":"海珠区"},{"id":"B00141I7WV","name":"嘉仕花园","type":"商务住宅;住宅区;住宅小区","typecode":"120302","address":"怡乐路350号","location":"113.293334,23.100218","transed_lng":113.2879723948188,"transed_lat":23.102876614866805,"cityname":"广州市","adname":"海珠区"},{"id":"B00140UETG","name":"富力御龙庭","type":"商务住宅;住宅区;住宅小区","typecode":"120302","address":"淘金东路与太和岗路交汇处","location":"113.29579,23.142618","transed_lng":113.29042149202684,"transed_lat":23.145255760618245,"cityname":"广州市","adname":"越秀区"},{"id":"B00140U36K","name":"珠影大院","type":"商务住宅;住宅区;住宅小区","typecode":"120302","address":[],"location":"113.322133,23.094166","transed_lng":113.3167174886401,"transed_lat":23.096777446124413,"cityname":"广州市","adname":"海珠区"},{"id":"B00140UG0Z","name":"琴海居","type":"商务住宅;住宅区;住宅小区","typecode":"120302","address":"艺洲路31号","location":"113.317594,23.105489","transed_lng":113.31218697967942,"transed_lat":23.10810429262394,"cityname":"广州市","adname":"海珠区"},{"id":"B00140NZ65","name":"文德广场","type":"商务住宅;住宅区;住宅小区","typecode":"120302","address":"文德南路64号","location":"113.272898,23.117973","transed_lng":113.26756212247436,"transed_lat":23.12064821865036,"cityname":"广州市","adname":"越秀区"},{"id":"B00140TYU8","name":"六运小区","type":"商务住宅;住宅区;住宅小区","typecode":"120302","address":"体育西路","location":"113.323074,23.130121","transed_lng":113.31765412018093,"transed_lat":23.13271592812387,"cityname":"广州市","adname":"天河区"},{"id":"B00140UFEH","name":"富泽园","type":"商务住宅;住宅区;住宅小区","typecode":"120302","address":"革新路116-19号","location":"113.252984,23.092047","transed_lng":113.24766198309216,"transed_lat":23.094742697638566,"cityname":"广州市","adname":"海珠区"},{"id":"B00140NZ91","name":"星汇晴轩","type":"商务住宅;住宅区;住宅小区","typecode":"120302","address":"乐天街与心谊路交叉口西100米","location":"113.255946,23.169302","transed_lng":113.25061797395898,"transed_lat":23.171966221088983,"cityname":"广州市","adname":"白云区"},{"id":"B00141IJ7K","name":"锦绣银湾","type":"商务住宅;住宅区;住宅小区","typecode":"120302","address":"大石镇朝阳东路425-423号","location":"113.326485,23.028186","transed_lng":113.3210650068765,"transed_lat":23.03081723499847,"cityname":"广州市","adname":"番禺区"},{"id":"B00140UFRS","name":"滨江绿园","type":"商务住宅;住宅区;住宅小区","typecode":"120302","address":"大石街道大石朝阳东路178号","location":"113.324379,23.02613","transed_lng":113.31896347845327,"transed_lat":23.028766136776145,"cityname":"广州市","adname":"番禺区"},{"id":"B00140UF1A","name":"珠江俊园","type":"商务住宅;住宅区;住宅小区","typecode":"120302","address":"枫叶路3号","location":"113.366387,23.136797","transed_lng":113.36088638640574,"transed_lat":23.139313849639457,"cityname":"广州市","adname":"天河区"},{"id":"B00140UEKM","name":"南沙城","type":"商务住宅;住宅区;住宅小区","typecode":"120302","address":"环市大道中富汇街3号6楼","location":"113.538168,22.798729","transed_lng":113.53300963417867,"transed_lat":22.801651233496138,"cityname":"广州市","adname":"南沙区"},{"id":"B00140AMKC","name":"嘉汇华庭","type":"商务住宅;住宅区;住宅小区","typecode":"120302","address":"前进路65号金谷广场","location":"113.276431,23.101645","transed_lng":113.27109252562893,"transed_lat":23.1043237182265,"cityname":"广州市","adname":"海珠区"},{"id":"B00140UFAS","name":"利雅湾","type":"商务住宅;住宅区;住宅小区","typecode":"120302","address":"珠江新城冼村路兴民路160号","location":"113.328942,23.116355","transed_lng":113.32351097706632,"transed_lat":23.118944316528356,"cityname":"广州市","adname":"天河区"},{"id":"B00140U958","name":"绿园","type":"商务住宅;住宅区;住宅小区","typecode":"120302","address":"东莞庄路西100米","location":"113.336173,23.153837","transed_lng":113.3307246602937,"transed_lat":23.156397613725932,"cityname":"广州市","adname":"天河区"},{"id":"B00140W54V","name":"颐和上院","type":"商务住宅;住宅区;住宅小区","typecode":"120302","address":"云城东路649号","location":"113.271078,23.176647","transed_lng":113.26573990961802,"transed_lat":23.17930067706909,"cityname":"广州市","adname":"白云区"},{"id":"B00140W5FD","name":"万科天河御品","type":"商务住宅;住宅区;住宅小区","typecode":"120302","address":"广州大道北京溪路90号","location":"113.330724,23.182151","transed_lng":113.32528484123085,"transed_lat":23.18471116760364,"cityname":"广州市","adname":"白云区"},{"id":"B00140UEXJ","name":"蓝天花园(金园路)","type":"商务住宅;住宅区;住宅小区","typecode":"120302","address":"白云大道南777号","location":"113.276216,23.177658","transed_lng":113.27087265328667,"transed_lat":23.180306808661907,"cityname":"广州市","adname":"白云区"},{"id":"B00140AYEB","name":"侨福苑","type":"商务住宅;住宅区;住宅小区","typecode":"120302","address":"环市东路淘金坑66-68号","location":"113.28652,23.140638","transed_lng":113.28116606833213,"transed_lat":23.14328953550274,"cityname":"广州市","adname":"越秀区"},{"id":"B00141IG8W","name":"海伦春天(永顺大道)","type":"商务住宅;住宅区;住宅小区","typecode":"120302","address":"永顺大道东15号","location":"113.586093,23.175067","transed_lng":113.58100648236497,"transed_lat":23.17790939696768,"cityname":"广州市","adname":"增城区"},{"id":"B00140UFA5","name":"南京路小区","type":"商务住宅;住宅区;住宅小区","typecode":"120302","address":"南京路14号大院","location":"113.239527,23.145456","transed_lng":113.23420076659728,"transed_lat":23.148128174794486,"cityname":"广州市","adname":"荔湾区"},