[{"id":"B0FFI89YV2","name":"华艺青年剧场","type":"体育休闲服务;影剧院;剧场","typecode":"080603","address":"金蝶路24号附近","location":"113.427917,23.076721","transed_lng":113.42241499773732,"transed_lat":23.079251591983986,"cityname":"广州市","adname":"黄埔区"},{"id":"B0FFF2SJ0U","name":"星帆剧院","type":"体育休闲服务;影剧院;剧场","typecode":"080603","address":"大沙地东298号","location":"113.455505,23.106405","transed_lng":113.45005687452091,"transed_lat":23.10897059504578,"cityname":"广州市","adname":"黄埔区"},{"id":"B00141KDKX","name":"荔湾文化艺术中心影剧院","type":"体育休闲服务;影剧院;剧场","typecode":"080603","address":"芳雅苑15号","location":"113.217823,23.108461","transed_lng":113.21248366578149,"transed_lat":23.111131309425357,"cityname":"广州市","adname":"荔湾区"},{"id":"B0FFIK1CP4","name":"523乡道","type":"体育休闲服务;影剧院;剧场","typecode":"080603","address":[],"location":"113.627499,23.492631","transed_lng":113.62239224650367,"transed_lat":23.4953860463674,"cityname":"广州市","adname":"从化区"},{"id":"B0FFH70GAU","name":"夏埔剧场","type":"体育休闲服务;影剧院;剧场","typecode":"080603","address":"水南大道与水南大道东交叉口东北100米","location":"113.566536,23.106323","transed_lng":113.56142647058003,"transed_lat":23.10917383848456,"cityname":"广州市","adname":"增城区"},{"id":"B0FFG5ADSG","name":"广东演艺中心大剧院","type":"体育休闲服务;影剧院;剧场","typecode":"080603","address":"广州大道中1229号","location":"113.312989,23.145305","transed_lng":113.30758852033489,"transed_lat":23.147912707133777,"cityname":"广州市","adname":"天河区"},{"id":"B0FFHEJTNZ","name":"广东歌舞剧院","type":"体育休闲服务;影剧院;剧场","typecode":"080603","address":"水荫四横路34演音大楼B座","location":"113.310780,23.145737","transed_lng":113.30538384250659,"transed_lat":23.1483485289031,"cityname":"广州市","adname":"天河区"},{"id":"B0014043BD","name":"广东话剧院","type":"体育休闲服务;影剧院;剧场","typecode":"080603","address":"竹丝岗二马路7号大院","location":"113.294567,23.127389","transed_lng":113.28920155234174,"transed_lat":23.13003468170312,"cityname":"广州市","adname":"越秀区"},{"id":"B00141I6S0","name":"鹿步剧场","type":"体育休闲服务;影剧院;剧场","typecode":"080603","address":"鹿步大街40号","location":"113.538133,23.082637","transed_lng":113.53295585527621,"transed_lat":23.085442487458792,"cityname":"广州市","adname":"黄埔区"},{"id":"B0FFGYNZ4H","name":"广东省文化馆小剧场","type":"体育休闲服务;影剧院;剧场","typecode":"080603","address":"广州大道中1229号","location":"113.313331,23.145745","transed_lng":113.30792981173232,"transed_lat":23.148351910460804,"cityname":"广州市","adname":"天河区"},{"id":"B0FFGE1WRX","name":"多功能小剧场","type":"体育休闲服务;影剧院;剧场","typecode":"080603","address":"珠江新城珠江西路1号","location":"113.321922,23.115246","transed_lng":113.31650549322708,"transed_lat":23.117849142746667,"cityname":"广州市","adname":"天河区"},{"id":"B00141JHRR","name":"西关大屋剧场","type":"体育休闲服务;影剧院;剧场","typecode":"080603","address":"逢源北街87号蒋光鼐故居博物馆附近","location":"113.235551,23.119151","transed_lng":113.2302249766077,"transed_lat":23.1218318799494,"cityname":"广州市","adname":"荔湾区"},{"id":"B0FFF31XCF","name":"北美伐木表演场","type":"体育休闲服务;影剧院;剧场","typecode":"080603","address":"迎宾路长隆欢乐世界","location":"113.331951,22.999953","transed_lng":113.32652169107087,"transed_lat":23.002586001980625,"cityname":"广州市","adname":"番禺区"},{"id":"B00140HM2M","name":"江高影剧场","type":"体育休闲服务;影剧院;剧场","typecode":"080603","address":"江高镇爱国东路59号","location":"113.231474,23.272061","transed_lng":113.22613547389221,"transed_lat":23.274684452769442,"cityname":"广州市","adname":"白云区"},{"id":"B0FFF56GA3","name":"皮影剧场","type":"体育休闲服务;影剧院;剧场","typecode":"080603","address":"广州大学城外环西路岭南印象园","location":"113.404945,23.035326","transed_lng":113.39942700756045,"transed_lat":23.037859649528528,"cityname":"广州市","adname":"番禺区"},{"id":"B0FFGE00WK","name":"岭南剧场","type":"体育休闲服务;影剧院;剧场","typecode":"080603","address":"沙河顶新一街13号","location":"113.308986,23.147836","transed_lng":113.30359318820669,"transed_lat":23.150449898197028,"cityname":"广州市","adname":"天河区"},{"id":"B0FFGLLPUU","name":"广州大剧院歌剧排练厅","type":"体育休闲服务;影剧院;剧场","typecode":"080603","address":"珠江新城珠江西路1号大剧院4-5层","location":"113.322509,23.115052","transed_lng":113.31709130218431,"transed_lat":23.117654109214488,"cityname":"广州市","adname":"天河区"},{"id":"B0FFFV07B4","name":"十三号剧院","type":"体育休闲服务;影剧院;剧场","typecode":"080603","address":"沙河顶新二街13号(近19路军坟场牌坊)","location":"113.309490,23.148504","transed_lng":113.30409616765238,"transed_lat":23.151116742948574,"cityname":"广州市","adname":"天河区"},{"id":"B0FFHFHG1F","name":"拾号大院微剧场","type":"体育休闲服务;影剧院;剧场","typecode":"080603","address":"员村四横路自编10号大院C6二层","location":"113.368851,23.117429","transed_lng":113.36334837367441,"transed_lat":23.119950433374687,"cityname":"广州市","adname":"天河区"},{"id":"B001406073","name":"活力城歌剧院","type":"体育休闲服务;影剧院;剧场","typecode":"080603","address":"站前路22号","location":"113.203693,23.381704","transed_lng":113.19831678482336,"transed_lat":23.384269574794217,"cityname":"广州市","adname":"花都区"},{"id":"B0FFG727Q2","name":"广州话剧艺术中心13号剧院","type":"体育休闲服务;影剧院;剧场","typecode":"080603","address":"沙河顶新二街13号","location":"113.309496,23.148540","transed_lng":113.30410215358346,"transed_lat":23.151152718170188,"cityname":"广州市","adname":"天河区"},{"id":"B0FFGD67B1","name":"小海燕剧院","type":"体育休闲服务;影剧院;剧场","typecode":"080603","address":"同福中路","location":"113.258240,23.104443","transed_lng":113.2529154445485,"transed_lat":23.107132390934506,"cityname":"广州市","adname":"海珠区"},{"id":"B0FFIJO1SJ","name":"广京艺苑(广州京剧团大院)","type":"体育休闲服务;影剧院;剧场","typecode":"080603","address":"水荫四横路11号","location":"113.309113,23.146959","transed_lng":113.30372000210589,"transed_lat":23.14957301816561,"cityname":"广州市","adname":"天河区"},{"id":"B0FFFDV9UV","name":"花果山剧场","type":"体育休闲服务;影剧院;剧场","typecode":"080603","address":"大石镇礼村105国道广州长隆野生动物世界","location":"113.317498,23.001124","transed_lng":113.31209822262632,"transed_lat":23.003783928613228,"cityname":"广州市","adname":"番禺区"},{"id":"B0FFH11987","name":"湘剧场(金铂广场)","type":"餐饮服务;中餐厅;湖南菜(湘菜)|体育休闲服务;影剧院;剧场","typecode":"050108|080603","address":"同和大街1号金铂广场5F层","location":"113.325743,23.196465","transed_lng":113.3203131200463,"transed_lat":23.199029421308907,"cityname":"广州市","adname":"白云区"},{"id":"B0FFI55LZ8","name":"主烤剧场","type":"体育休闲服务;影剧院;剧场","typecode":"080603","address":"厦窖商业大厦首层A8商铺","location":"113.319341,23.039341","transed_lng":113.31393490321126,"transed_lat":23.041980983852252,"cityname":"广州市","adname":"番禺区"},{"id":"B0FFI09UPW","name":"诜村戏院","type":"体育休闲服务;影剧院;剧场","typecode":"080603","address":"石中一路与诜溪路交叉口西北50米","location":"113.303684,23.011136","transed_lng":113.29831042145244,"transed_lat":23.013816256181425,"cityname":"广州市","adname":"番禺区"},{"id":"B0FFG2J1FW","name":"郭兰英剧院","type":"体育休闲服务;影剧院;剧场","typecode":"080603","address":"市广路250号","location":"113.343464,22.972445","transed_lng":113.33801353551583,"transed_lat":22.975068352163444,"cityname":"广州市","adname":"番禺区"},{"id":"B0FFHK5LWN","name":"奔象亲子微剧场(优托邦店)","type":"体育休闲服务;影剧院;剧场","typecode":"080603","address":"黄村奥体南路12号高德汇小Q儿童城二楼F201-203","location":"113.413889,23.130660","transed_lng":113.40836865865806,"transed_lat":23.13315656832941,"cityname":"广州市","adname":"天河区"},{"id":"B0FFFTA33X","name":"鳄作剧","type":"体育休闲服务;影剧院;剧场","typecode":"080603","address":"大石镇石北大道长隆飞鸟乐园内","location":"113.275006,23.024879","transed_lng":113.26967421145709,"transed_lat":23.02759166511743,"cityname":"广州市","adname":"番禺区"},{"id":"B0FFI9B26U","name":"欢象剧场","type":"体育休闲服务;影剧院;剧场","typecode":"080603","address":"礼岗路柏涛雅苑信裕路40号","location":"113.275043,23.086030","transed_lng":113.2697070759715,"transed_lat":23.088716537691287,"cityname":"广州市","adname":"海珠区"},{"id":"B00141J217","name":"亚运大舞台","type":"体育休闲服务;影剧院;剧场","typecode":"080603","address":"悦水庄度假酒店内","location":"113.495798,22.965280","transed_lng":113.49048684682805,"transed_lat":22.96801565907376,"cityname":"广州市","adname":"番禺区"},{"id":"B0FFFDKB91","name":"河马剧场","type":"体育休闲服务;影剧院;剧场","typecode":"080603","address":"大石镇礼村105国道广州长隆野生动物世界","location":"113.317383,22.999770","transed_lng":113.31198354648524,"transed_lat":23.002430728230777,"cityname":"广州市","adname":"番禺区"},{"id":"B0FFFPLHGS","name":"光明大戏院","type":"体育休闲服务;影剧院;剧场","typecode":"080603","address":"南华中路293号","location":"113.260235,23.107054","transed_lng":113.25490933562429,"transed_lat":23.109741601957058,"cityname":"广州市","adname":"海珠区"},{"id":"B0FFG4FKTB","name":"素社家园欢乐舞台","type":"体育休闲服务;影剧院;剧场","typecode":"080603","address":"基立下道与素社直街交叉口南50米","location":"113.277729,23.103160","transed_lng":113.27238895877404,"transed_lat":23.105836808588947,"cityname":"广州市","adname":"海珠区"},{"id":"B0FFG4U6NF","name":"岭南剧场","type":"体育休闲服务;影剧院;剧场","typecode":"080603","address":"大学城外环西路岭南印象园内","location":"113.404417,23.035325","transed_lng":113.39889888512323,"transed_lat":23.03785859247187,"cityname":"广州市","adname":"番禺区"},{"id":"B00141TLG7","name":"香凝剧场","type":"体育休闲服务;影剧院;剧场","typecode":"080603","address":"芳村大道西塞坝路芳雅苑15号荔湾文化馆1层","location":"113.217732,23.108684","transed_lng":113.212392550947,"transed_lat":23.111354114376418,"cityname":"广州市","adname":"荔湾区"},{"id":"B0FFF3V0OK","name":"粤剧文化广场","type":"体育休闲服务;影剧院;剧场","typecode":"080603","address":"兴隆北路与十三行路交叉口东南150米","location":"113.251369,23.109939","transed_lng":113.24604608907762,"transed_lat":23.112627431906574,"cityname":"广州市","adname":"荔湾区"},{"id":"B00141R835","name":"广东省木偶艺术剧院","type":"体育休闲服务;影剧院;剧场","typecode":"080603","address":"龙津西路逢源大街21号","location":"113.235551,23.119151","transed_lng":113.2302249766077,"transed_lat":23.1218318799494,"cityname":"广州市","adname":"荔湾区"},{"id":"B0FFHWXLEA","name":"顶尖人演艺大厅","type":"体育休闲服务;影剧院;剧场","typecode":"080603","address":"白云大道北45号附近","location":"113.287397,23.202935","transed_lng":113.28203760307642,"transed_lat":23.205561852578818,"cityname":"广州市","adname":"白云区"},{"id":"B0FFFTD5H3","name":"长隆方舟剧场","type":"体育休闲服务;影剧院;剧场","typecode":"080603","address":"大石镇礼村105国道广州长隆野生动物世界","location":"113.315096,22.998054","transed_lng":113.30970126512456,"transed_lat":23.000719710236734,"cityname":"广州市","adname":"番禺区"},{"id":"B00141PPGA","name":"大象剧场","type":"体育休闲服务;影剧院;剧场","typecode":"080603","address":"大石镇礼村105国道广州长隆野生动物世界","location":"113.314929,22.999369","transed_lng":113.3095345108371,"transed_lat":23.002034449681688,"cityname":"广州市","adname":"番禺区"},{"id":"B0FFHRUKS8","name":"文化馆剧场","type":"体育休闲服务;影剧院;剧场","typecode":"080603","address":"东华巷与公园前路交叉口北50米","location":"113.213519,23.376373","transed_lng":113.20815658391693,"transed_lat":23.378953234253732,"cityname":"广州市","adname":"花都区"},{"id":"B0FFG1Q1NR","name":"海心沙亚运公园-水舞台","type":"体育休闲服务;影剧院;剧场","typecode":"080603","address":"海心沙亚运公园内","location":"113.323100,23.111500","transed_lng":113.31768132937694,"transed_lat":23.114102441739913,"cityname":"广州市","adname":"天河区"},{"id":"B0FFHLZUJF","name":"湘剧场(江夏店)","type":"体育休闲服务;影剧院;剧场","typecode":"080603","address":"江夏地铁B出口新天地2层","location":"113.282088,23.211056","transed_lng":113.27673536402659,"transed_lat":23.213686481732342,"cityname":"广州市","adname":"白云区"},{"id":"B0FFG22XSH","name":"羊城星光大舞台","type":"体育休闲服务;影剧院;剧场","typecode":"080603","address":"天源路1190号华南植物园","location":"113.364189,23.183593","transed_lng":113.35868832394655,"transed_lat":23.186094837949742,"cityname":"广州市","adname":"天河区"},{"id":"B0FFFVDLSN","name":"长隆旅游度假区国际大马戏","type":"体育休闲服务;影剧院;剧场","typecode":"080603","address":"迎宾路长隆旅游度假区内(近长隆酒店)","location":"113.332250,23.003970","transed_lng":113.32681980812323,"transed_lat":23.006600696747245,"cityname":"广州市","adname":"番禺区"},{"id":"B0FFG8J25E","name":"广东粤剧院","type":"体育休闲服务;影剧院;剧场","typecode":"080603","address":"东风东路703号","location":"113.29601,23.13154","transed_lng":113.29064186945219,"transed_lat":23.134181839629907,"cityname":"广州市","adname":"越秀区"},{"id":"B0FFFYSUUF","name":"神山影剧场","type":"体育休闲服务;影剧院;剧场","typecode":"080603","address":"江高镇神山大道西一号","location":"113.180118,23.332930","transed_lng":113.17470481359993,"transed_lat":23.335465176193843,"cityname":"广州市","adname":"白云区"},{"id":"B0FFHLTPWI","name":"U13戏剧空间","type":"体育休闲服务;影剧院;剧场","typecode":"080603","address":"沙河顶新二街13号附近","location":"113.309640,23.148216","transed_lng":113.30424589616311,"transed_lat":23.150828589500577,"cityname":"广州市","adname":"天河区"},{"id":"B0FFGM9T9H","name":"广东演艺中心","type":"体育休闲服务;影剧院;剧场","typecode":"080603","address":"沙河顶水荫四横路32至34号大院","location":"113.313011,23.144714","transed_lng":113.3076105167239,"transed_lat":23.147321900099143,"cityname":"广州市","adname":"天河区"},{"id":"B0FFG7PB9X","name":"嘉禾永福大家乐舞台","type":"体育休闲服务;影剧院;剧场","typecode":"080603","address":"新市镇嘉禾街永福购物广场1层","location":"113.273187,23.230440","transed_lng":113.26784326981547,"transed_lat":23.23307276811136,"cityname":"广州市","adname":"白云区"},{"id":"B0FFIPPBPP","name":"奥林匹斯康体公园-剧院","type":"体育休闲服务;影剧院;剧场","typecode":"080603","address":"富力城","location":"113.264392,23.247702","transed_lng":113.25905443646558,"transed_lat":23.25033529474013,"cityname":"广州市","adname":"白云区"},{"id":"B00141VPKF","name":"开心麻花剧场","type":"体育休闲服务;影剧院;剧场","typecode":"080603","address":"人民北路696号(近友谊宾馆)","location":"113.257519,23.145135","transed_lng":113.25219201495557,"transed_lat":23.147808168237134,"cityname":"广州市","adname":"越秀区"},{"id":"B0FFF3UO7Z","name":"广州歌舞剧院","type":"体育休闲服务;影剧院;剧场|公司企业;公司;公司","typecode":"080603|170200","address":"环市中路花果山庄北50米(雕塑公园西)","location":"113.266588,23.149534","transed_lng":113.26125548249948,"transed_lat":23.152201258664256,"cityname":"广州市","adname":"白云区"},{"id":"B00140W7MY","name":"广州大剧院","type":"体育休闲服务;影剧院;剧场","typecode":"080603","address":"珠江新城珠江西路1号","location":"113.322577,23.115025","transed_lng":113.31715916443785,"transed_lat":23.117626991236932,"cityname":"广州市","adname":"天河区"},{"id":"B00140UE18","name":"长隆国际大马戏","type":"体育休闲服务;影剧院;剧场","typecode":"080603","address":"长隆旅游度假区","location":"113.331395,23.003425","transed_lng":113.32596659398429,"transed_lat":23.006057560235035,"cityname":"广州市","adname":"番禺区"},{"id":"B00140UH4G","name":"广州蓓蕾剧院","type":"体育休闲服务;影剧院;剧场","typecode":"080603","address":"人民北路875号","location":"113.253013,23.134383","transed_lng":113.24768813969257,"transed_lat":23.1370613714978,"cityname":"广州市","adname":"越秀区"},{"id":"B00140344F","name":"友谊剧院","type":"体育休闲服务;影剧院;剧场","typecode":"080603","address":"人民北路696号","location":"113.257678,23.144969","transed_lng":113.25235096188068,"transed_lat":23.147642186693712,"cityname":"广州市","adname":"越秀区"},{"id":"B00140EJRR","name":"丽江明珠歌剧院","type":"体育休闲服务;影剧院;剧场","typecode":"080603","address":"迎宾路111号丽江明珠酒店3号楼1层","location":"113.328860,23.036833","transed_lng":113.3234345359075,"transed_lat":23.03945597544279,"cityname":"广州市","adname":"番禺区"},{"id":"B0014043C0","name":"江南大戏院","type":"体育休闲服务;影剧院;剧场","typecode":"080603","address":"昌岗中路130号(近宝岗路)","location":"113.269665,23.085652","transed_lng":113.26433427991252,"transed_lat":23.088343157381086,"cityname":"广州市","adname":"海珠区"},{"id":"B00140347F","name":"南方剧院","type":"体育休闲服务;影剧院;剧场","typecode":"080603","address":"教育路80号(近西湖路)","location":"113.266091,23.123398","transed_lng":113.26076060589068,"transed_lat":23.12607598358555,"cityname":"广州市","adname":"越秀区"},{"id":"B001406863","name":"花都大剧院","type":"体育休闲服务;影剧院;剧场","typecode":"080603","address":"秀全大道43-1号","location":"113.212852,23.380370","transed_lng":113.20748848529236,"transed_lat":23.382948645794205,"cityname":"广州市","adname":"花都区"},{"id":"B0FFFVZTPU","name":"小云雀剧院","type":"体育休闲服务;影剧院;剧场","typecode":"080603","address":"恤孤院路31号","location":"113.296189,23.120706","transed_lng":113.29082129820577,"transed_lat":23.123351940842102,"cityname":"广州市","adname":"越秀区"},{"id":"B00140HT7O","name":"木偶剧院","type":"体育休闲服务;影剧院;剧场","typecode":"080603","address":"洪德路43-51号","location":"113.252201,23.103883","transed_lng":113.24687835096968,"transed_lat":23.106573864250116,"cityname":"广州市","adname":"海珠区"},{"id":"B00141K0OJ","name":"黄花岗剧院","type":"体育休闲服务;影剧院;剧场","typecode":"080603","address":"先烈中路","location":"113.297666,23.138036","transed_lng":113.29229461273006,"transed_lat":23.14067269150738,"cityname":"广州市","adname":"越秀区"},{"id":"B00141RE2H","name":"竹丝岗小剧场","type":"体育休闲服务;影剧院;剧场","typecode":"080603","address":"竹丝岗二马路7号大院","location":"113.294567,23.127389","transed_lng":113.28920155234174,"transed_lat":23.13003468170312,"cityname":"广州市","adname":"越秀区"},{"id":"B0FFF3US6N","name":"广东八和会馆","type":"体育休闲服务;影剧院;剧场","typecode":"080603","address":"恩宁路177号","location":"113.239188,23.114083","transed_lng":113.23386376147512,"transed_lat":23.116767647847904,"cityname":"广州市","adname":"荔湾区"},{"id":"B0FFHBBW9T","name":"友谊剧院贵宾厅","type":"体育休闲服务;影剧院;剧场","typecode":"080603","address":"人民北路698号附近","location":"113.257809,23.145360","transed_lng":113.25248188198456,"transed_lat":23.148032993154544,"cityname":"广州市","adname":"越秀区"},{"id":"B0FFHU9BMA","name":"此间舞蹈剧场","type":"体育休闲服务;影剧院;剧场","typecode":"080603","address":"广州大道中289号289艺术园区生活楼7楼","location":"113.314572,23.123002","transed_lng":113.30916987784711,"transed_lat":23.125615728285283,"cityname":"广州市","adname":"越秀区"},{"id":"B0FFFPL9E6","name":"中山纪念堂剧场","type":"体育休闲服务;影剧院;剧场","typecode":"080603","address":"东风中路259号","location":"113.264682,23.133454","transed_lng":113.25935192571137,"transed_lat":23.136128757025414,"cityname":"广州市","adname":"越秀区"},{"id":"B0FFGIL1W3","name":"广州歌舞剧院","type":"体育休闲服务;影剧院;剧场","typecode":"080603","address":"果山路西200米广州歌舞团(西胜街)附近","location":"113.266952,23.147499","transed_lng":113.26161934313583,"transed_lat":23.150166826457845,"cityname":"广州市","adname":"越秀区"},{"id":"B0FFFWAAK8","name":"广东粤剧院一团","type":"体育休闲服务;影剧院;剧场","typecode":"080603","address":"东风东路703号广东粤剧院文化大楼","location":"113.296033,23.131200","transed_lng":113.29066485366783,"transed_lat":23.133841941031346,"cityname":"广州市","adname":"越秀区"},{"id":"B0FFFA775B","name":"广州大剧院歌剧厅","type":"体育休闲服务;影剧院;剧场","typecode":"080603","address":"珠江新城华夏路","location":"113.321922,23.115246","transed_lng":113.31650549322708,"transed_lat":23.117849142746667,"cityname":"广州市","adname":"天河区"},{"id":"B0FFF2UT2H","name":"欢乐剧场","type":"体育休闲服务;影剧院;剧场","typecode":"080603","address":"迎宾路长隆欢乐世界内","location":"113.330590,23.000222","transed_lng":113.32516346004275,"transed_lat":23.002857479047798,"cityname":"广州市","adname":"番禺区"},{"id":"B0FFFJSHBE","name":"国际特技剧场","type":"体育休闲服务;影剧院;剧场","typecode":"080603","address":"迎宾路长隆欢乐世界内","location":"113.326815,22.998313","transed_lng":113.32139634661044,"transed_lat":23.000956509809413,"cityname":"广州市","adname":"番禺区"},{"id":"B0FFGPXZM9","name":"GNZ48星梦剧院","type":"体育休闲服务;影剧院;剧场","typecode":"080603","address":"林和西路中泰国际广场3层","location":"113.322994,23.149943","transed_lng":113.31757293950696,"transed_lat":23.152530213588047,"cityname":"广州市","adname":"天河区"},{"id":"B00140UHI5","name":"彩虹曲苑(西华路店)","type":"体育休闲服务;影剧院;剧场","typecode":"080603","address":"西华路120号","location":"113.245194,23.132858","transed_lng":113.23986975705881,"transed_lat":23.135536775295158,"cityname":"广州市","adname":"荔湾区"},{"id":"B0FFHWBY9S","name":"广东歌舞剧院(水荫路)","type":"体育休闲服务;影剧院;剧场","typecode":"080603","address":"广州大道中1229号","location":"113.312767,23.145260","transed_lng":113.30736696330982,"transed_lat":23.147868128749458,"cityname":"广州市","adname":"天河区"},{"id":"B0FFHH3DQM","name":"正佳演艺剧院","type":"体育休闲服务;影剧院;电影院|体育休闲服务;影剧院;剧场","typecode":"080601|080603","address":"天河路228号正佳广场F7层","location":"113.327336,23.131967","transed_lng":113.32190722273532,"transed_lat":23.13455306561538,"cityname":"广州市","adname":"天河区"},{"id":"B00140W7MY","name":"广州大剧院","type":"体育休闲服务;影剧院;剧场","typecode":"080603","address":"珠江新城珠江西路1号","location":"113.322577,23.115025","transed_lng":113.31715916443785,"transed_lat":23.117626991236932,"cityname":"广州市","adname":"天河区"},{"id":"B00140UE18","name":"长隆国际大马戏","type":"体育休闲服务;影剧院;剧场","typecode":"080603","address":"长隆旅游度假区","location":"113.331395,23.003425","transed_lng":113.32596659398429,"transed_lat":23.006057560235035,"cityname":"广州市","adname":"番禺区"},{"id":"B00140UH4G","name":"广州蓓蕾剧院","type":"体育休闲服务;影剧院;剧场","typecode":"080603","address":"人民北路875号","location":"113.253013,23.134383","transed_lng":113.24768813969257,"transed_lat":23.1370613714978,"cityname":"广州市","adname":"越秀区"},{"id":"B00140344F","name":"友谊剧院","type":"体育休闲服务;影剧院;剧场","typecode":"080603","address":"人民北路696号","location":"113.257678,23.144969","transed_lng":113.25235096188068,"transed_lat":23.147642186693712,"cityname":"广州市","adname":"越秀区"},{"id":"B00140EJRR","name":"丽江明珠歌剧院","type":"体育休闲服务;影剧院;剧场","typecode":"080603","address":"迎宾路111号丽江明珠酒店3号楼1层","location":"113.328860,23.036833","transed_lng":113.3234345359075,"transed_lat":23.03945597544279,"cityname":"广州市","adname":"番禺区"},{"id":"B0014043C0","name":"江南大戏院","type":"体育休闲服务;影剧院;剧场","typecode":"080603","address":"昌岗中路130号(近宝岗路)","location":"113.269665,23.085652","transed_lng":113.26433427991252,"transed_lat":23.088343157381086,"cityname":"广州市","adname":"海珠区"},{"id":"B00140347F","name":"南方剧院","type":"体育休闲服务;影剧院;剧场","typecode":"080603","address":"教育路80号(近西湖路)","location":"113.266091,23.123398","transed_lng":113.26076060589068,"transed_lat":23.12607598358555,"cityname":"广州市","adname":"越秀区"},{"id":"B001406863","name":"花都大剧院","type":"体育休闲服务;影剧院;剧场","typecode":"080603","address":"秀全大道43-1号","location":"113.212852,23.380370","transed_lng":113.20748848529236,"transed_lat":23.382948645794205,"cityname":"广州市","adname":"花都区"},{"id":"B0FFFVZTPU","name":"小云雀剧院","type":"体育休闲服务;影剧院;剧场","typecode":"080603","address":"恤孤院路31号","location":"113.296189,23.120706","transed_lng":113.29082129820577,"transed_lat":23.123351940842102,"cityname":"广州市","adname":"越秀区"},{"id":"B00140HT7O","name":"木偶剧院","type":"体育休闲服务;影剧院;剧场","typecode":"080603","address":"洪德路43-51号","location":"113.252201,23.103883","transed_lng":113.24687835096968,"transed_lat":23.106573864250116,"cityname":"广州市","adname":"海珠区"},{"id":"B00141K0OJ","name":"黄花岗剧院","type":"体育休闲服务;影剧院;剧场","typecode":"080603","address":"先烈中路","location":"113.297666,23.138036","transed_lng":113.29229461273006,"transed_lat":23.14067269150738,"cityname":"广州市","adname":"越秀区"},{"id":"B00141RE2H","name":"竹丝岗小剧场","type":"体育休闲服务;影剧院;剧场","typecode":"080603","address":"竹丝岗二马路7号大院","location":"113.294567,23.127389","transed_lng":113.28920155234174,"transed_lat":23.13003468170312,"cityname":"广州市","adname":"越秀区"},{"id":"B0FFF3US6N","name":"广东八和会馆","type":"体育休闲服务;影剧院;剧场","typecode":"080603","address":"恩宁路177号","location":"113.239188,23.114083","transed_lng":113.23386376147512,"transed_lat":23.116767647847904,"cityname":"广州市","adname":"荔湾区"},{"id":"B0FFHBBW9T","name":"友谊剧院贵宾厅","type":"体育休闲服务;影剧院;剧场","typecode":"080603","address":"人民北路698号附近","location":"113.257809,23.145360","transed_lng":113.25248188198456,"transed_lat":23.148032993154544,"cityname":"广州市","adname":"越秀区"},{"id":"B0FFHU9BMA","name":"此间舞蹈剧场","type":"体育休闲服务;影剧院;剧场","typecode":"080603","address":"广州大道中289号289艺术园区生活楼7楼","location":"113.314572,23.123002","transed_lng":113.30916987784711,"transed_lat":23.125615728285283,"cityname":"广州市","adname":"越秀区"},{"id":"B0FFFPL9E6","name":"中山纪念堂剧场","type":"体育休闲服务;影剧院;剧场","typecode":"080603","address":"东风中路259号","location":"113.264682,23.133454","transed_lng":113.25935192571137,"transed_lat":23.136128757025414,"cityname":"广州市","adname":"越秀区"},{"id":"B0FFGIL1W3","name":"广州歌舞剧院","type":"体育休闲服务;影剧院;剧场","typecode":"080603","address":"果山路西200米广州歌舞团(西胜街)附近","location":"113.266952,23.147499","transed_lng":113.26161934313583,"transed_lat":23.150166826457845,"cityname":"广州市","adname":"越秀区"},{"id":"B0FFFWAAK8","name":"广东粤剧院一团","type":"体育休闲服务;影剧院;剧场","typecode":"080603","address":"东风东路703号广东粤剧院文化大楼","location":"113.296033,23.131200","transed_lng":113.29066485366783,"transed_lat":23.133841941031346,"cityname":"广州市","adname":"越秀区"},{"id":"B0FFFA775B","name":"广州大剧院歌剧厅","type":"体育休闲服务;影剧院;剧场","typecode":"080603","address":"珠江新城华夏路","location":"113.321922,23.115246","transed_lng":113.31650549322708,"transed_lat":23.117849142746667,"cityname":"广州市","adname":"天河区"},{"id":"B0FFF2UT2H","name":"欢乐剧场","type":"体育休闲服务;影剧院;剧场","typecode":"080603","address":"迎宾路长隆欢乐世界内","location":"113.330590,23.000222","transed_lng":113.32516346004275,"transed_lat":23.002857479047798,"cityname":"广州市","adname":"番禺区"},{"id":"B0FFFJSHBE","name":"国际特技剧场","type":"体育休闲服务;影剧院;剧场","typecode":"080603","address":"迎宾路长隆欢乐世界内","location":"113.326815,22.998313","transed_lng":113.32139634661044,"transed_lat":23.000956509809413,"cityname":"广州市","adname":"番禺区"},{"id":"B0FFGPXZM9","name":"GNZ48星梦剧院","type":"体育休闲服务;影剧院;剧场","typecode":"080603","address":"林和西路中泰国际广场3层","location":"113.322994,23.149943","transed_lng":113.31757293950696,"transed_lat":23.152530213588047,"cityname":"广州市","adname":"天河区"},{"id":"B00140UHI5","name":"彩虹曲苑(西华路店)","type":"体育休闲服务;影剧院;剧场","typecode":"080603","address":"西华路120号","location":"113.245194,23.132858","transed_lng":113.23986975705881,"transed_lat":23.135536775295158,"cityname":"广州市","adname":"荔湾区"},{"id":"B0FFHWBY9S","name":"广东歌舞剧院(水荫路)","type":"体育休闲服务;影剧院;剧场","typecode":"080603","address":"广州大道中1229号","location":"113.312767,23.145260","transed_lng":113.30736696330982,"transed_lat":23.147868128749458,"cityname":"广州市","adname":"天河区"},{"id":"B0FFHH3DQM","name":"正佳演艺剧院","type":"体育休闲服务;影剧院;电影院|体育休闲服务;影剧院;剧场","typecode":"080601|080603","address":"天河路228号正佳广场F7层","location":"113.327336,23.131967","transed_lng":113.32190722273532,"transed_lat":23.13455306561538,"cityname":"广州市","adname":"天河区"}]
