[{"id":"B02F30A57W","name":"南澳图书馆","type":"科教文化服务;图书馆;图书馆","typecode":"140500","address":"人民路与教育路交叉口东北50米","location":"114.495115,22.53472","transed_lng":114.49039267068439,"transed_lat":22.537569512751624,"cityname":"深圳市","adname":"龙岗区"},{"id":"B02F38ITAP","name":"龙岗区图书馆坪地分馆","type":"科教文化服务;图书馆;图书馆","typecode":"140500","address":"龙岗大道坪地段2012号","location":"114.30202,22.762668","transed_lng":114.2971630405448,"transed_lat":22.765441759369814,"cityname":"深圳市","adname":"龙岗区"},{"id":"B02F38J34Y","name":"城市街区图书馆","type":"科教文化服务;图书馆;图书馆","typecode":"140500","address":"东环二路东环2路2号附近","location":"114.052433,22.649611","transed_lng":114.04731906919825,"transed_lat":22.65232387511502,"cityname":"深圳市","adname":"龙岗区"},{"id":"B02F37S5UU","name":"后亭社区图书馆","type":"科教文化服务;图书馆;图书馆","typecode":"140500","address":"中亭北路98号","location":"113.822661,22.758289","transed_lng":113.81761943290617,"transed_lat":22.76119867941434,"cityname":"深圳市","adname":"宝安区"},{"id":"B02F38IR45","name":"南约图书馆(植物园路)","type":"科教文化服务;图书馆;图书馆","typecode":"140500","address":"南约图书馆大楼","location":"114.277757,22.694457","transed_lng":114.27292579995593,"transed_lat":22.69728326207638,"cityname":"深圳市","adname":"龙岗区"},{"id":"B02F38J6BH","name":"深圳市宝安区大浪街道图书馆(工业路)","type":"科教文化服务;图书馆;图书馆","typecode":"140500","address":"大浪商业中心对面龙飞培训楼下","location":"114.013252,22.655815","transed_lng":114.00821675706145,"transed_lat":22.65862660619602,"cityname":"深圳市","adname":"龙华区"},{"id":"B02F38SVLV","name":"城市街区自助图书馆","type":"科教文化服务;图书馆;图书馆","typecode":"140500","address":"龙岭路80附近","location":"114.113334,22.605052","transed_lng":114.10822246603844,"transed_lat":22.607731412298783,"cityname":"深圳市","adname":"龙岗区"},{"id":"B02F37VITH","name":"深圳市宝安区大浪街道图书馆(华旺路)","type":"科教文化服务;图书馆;图书馆","typecode":"140500","address":"大浪街道华旺路","location":"113.994514,22.673652","transed_lng":113.98952475533986,"transed_lat":22.67651618508002,"cityname":"深圳市","adname":"龙华区"},{"id":"B02F37VUW1","name":"福华社区图书馆","type":"科教文化服务;图书馆;图书馆","typecode":"140500","address":"福华路福田市场大厦3楼3D0001铺","location":"114.084798,22.537935","transed_lng":114.07966934474712,"transed_lat":22.54062048618914,"cityname":"深圳市","adname":"福田区"},{"id":"B0FFG6TMNZ","name":"城市街区自助图书馆","type":"科教文化服务;图书馆;图书馆","typecode":"140500","address":"海边街东50米","location":"114.274670,22.585209","transed_lng":114.26984708687189,"transed_lat":22.5880589364089,"cityname":"深圳市","adname":"盐田区"},{"id":"B02F38P715","name":"新洲图书馆","type":"科教文化服务;图书馆;图书馆","typecode":"140500","address":"新洲二街中心村68号B座综合楼2楼","location":"114.046897,22.523388","transed_lng":114.04179960212315,"transed_lat":22.526127953403115,"cityname":"深圳市","adname":"福田区"},{"id":"B0FFG1FM89","name":"启南主题音乐书吧","type":"科教文化服务;图书馆;图书馆","typecode":"140500","address":"软件产业基地1栋B座32-34号","location":"113.940060,22.524376","transed_lng":113.93518822490468,"transed_lat":22.52739790720564,"cityname":"深圳市","adname":"南山区"},{"id":"B02F37VFX6","name":"长圳图书馆","type":"科教文化服务;图书馆;图书馆","typecode":"140500","address":"光明新区","location":"113.916316,22.718173","transed_lng":113.91144492543344,"transed_lat":22.721190711161107,"cityname":"深圳市","adname":"宝安区"},{"id":"B0FFG1831T","name":"龙华区劳务工图书馆","type":"科教文化服务;图书馆;图书馆","typecode":"140500","address":"怡心街与沿河路交叉口西150米","location":"114.053034,22.725068","transed_lng":114.0479143035281,"transed_lat":22.72776128268092,"cityname":"深圳市","adname":"龙华区"},{"id":"B02F37TB5G","name":"福田区图书馆园岭街道分馆","type":"科教文化服务;图书馆;图书馆","typecode":"140500","address":"园岭西路6号","location":"114.097035,22.552776","transed_lng":114.0919099524395,"transed_lat":22.555456503783994,"cityname":"深圳市","adname":"福田区"},{"id":"B0FFFT16SE","name":"梦中心图书馆","type":"科教文化服务;图书馆;图书馆","typecode":"140500","address":"大浪华宁路颐丰华工业区16-18栋","location":"113.988267,22.688395","transed_lng":113.9832924402474,"transed_lat":22.691274429293564,"cityname":"深圳市","adname":"龙华区"},{"id":"B02F38JL2W","name":"深圳少年儿童图书馆大浪分馆","type":"科教文化服务;图书馆;图书馆","typecode":"140500","address":"元芬路1号元芬大厦","location":"114.007186,22.652748","transed_lng":114.00216604417581,"transed_lat":22.655578369662962,"cityname":"深圳市","adname":"龙华区"},{"id":"B02F37W69H","name":"南山区图书馆华侨城分馆","type":"科教文化服务;图书馆;图书馆","typecode":"140500","address":"鹃山东街2号体育文化中心2层(近欢乐谷)","location":"113.982829,22.540132","transed_lng":113.97787721973282,"transed_lat":22.543050846127542,"cityname":"深圳市","adname":"南山区"},{"id":"B0FFGHBEHP","name":"育才图书馆","type":"科教文化服务;图书馆;图书馆","typecode":"140500","address":"蛇口育才路7号","location":"113.922205,22.493724","transed_lng":113.91734738150396,"transed_lat":22.49676985752168,"cityname":"深圳市","adname":"南山区"},{"id":"B0FFFA2A45","name":"兴围图书馆","type":"科教文化服务;图书馆;图书馆|商务住宅;商务住宅相关;商务住宅相关","typecode":"140500|120000","address":"路48号","location":"113.832079,22.637173","transed_lng":113.82707064825118,"transed_lat":22.640131276345613,"cityname":"深圳市","adname":"宝安区"},{"id":"B02F38J0HW","name":"梅富图书馆","type":"科教文化服务;图书馆;图书馆","typecode":"140500","address":"布尾村68-1号2层","location":"114.043417,22.556561","transed_lng":114.03832325867026,"transed_lat":22.55930658382759,"cityname":"深圳市","adname":"福田区"},{"id":"B0FFFEXUO8","name":"深圳大学-图书馆(北馆)","type":"科教文化服务;图书馆;图书馆","typecode":"140500","address":"南海大道3688号深圳大学附近","location":"113.935400,22.533186","transed_lng":113.93053226188901,"transed_lat":22.5362148532918,"cityname":"深圳市","adname":"南山区"},{"id":"B02F38SSW9","name":"福田街道图书馆","type":"科教文化服务;图书馆;图书馆","typecode":"140500","address":"福华路19号2层","location":"114.083912,22.53692","transed_lng":114.07878335952267,"transed_lat":22.539606093779465,"cityname":"深圳市","adname":"福田区"},{"id":"B0FFG4GX1V","name":"快乐开始英文图书馆","type":"科教文化服务;图书馆;图书馆","typecode":"140500","address":"百花二路百花公寓3栋6G(深圳实验小学)","location":"114.091973,22.551601","transed_lng":114.0868452656887,"transed_lat":22.554282407613453,"cityname":"深圳市","adname":"福田区"},{"id":"B0FFHGKCQ9","name":"图书馆(水斗新围分馆)","type":"科教文化服务;图书馆;图书馆","typecode":"140500","address":"龙华东环二路11号附近","location":"114.050420,22.637527","transed_lng":114.04530974570348,"transed_lat":22.64024627129922,"cityname":"深圳市","adname":"龙华区"},{"id":"B02F37VHAS","name":"深圳图书馆","type":"科教文化服务;图书馆;图书馆","typecode":"140500","address":"福中一路2001号","location":"114.057271,22.545714","transed_lng":114.05215757436501,"transed_lat":22.548432118344053,"cityname":"深圳市","adname":"福田区"},{"id":"B02F38IOZV","name":"龙岗书城","type":"科教文化服务;图书馆;图书馆","typecode":"140500","address":"龙翔大道文化中心C区1-2层","location":"114.250489,22.720013","transed_lng":114.24565526707067,"transed_lat":22.72284693868849,"cityname":"深圳市","adname":"龙岗区"},{"id":"B0FFGDYBJ8","name":"宝安区图书馆","type":"科教文化服务;图书馆;图书馆","typecode":"140500","address":"宝兴路1号","location":"113.882718,22.548703","transed_lng":113.87783069306798,"transed_lat":22.551748191776255,"cityname":"深圳市","adname":"宝安区"},{"id":"B02F37UCU0","name":"福田区图书馆","type":"科教文化服务;图书馆;图书馆","typecode":"140500","address":"景田路70号图书馆大厦","location":"114.045573,22.551077","transed_lng":114.04047596319947,"transed_lat":22.553818181623985,"cityname":"深圳市","adname":"福田区"},{"id":"B02F37VFR6","name":"南山图书馆","type":"科教文化服务;图书馆;图书馆","typecode":"140500","address":"常兴路176号","location":"113.922428,22.534944","transed_lng":113.91756772119939,"transed_lat":22.53798841443805,"cityname":"深圳市","adname":"南山区"},{"id":"B02F37W4YV","name":"深圳大学-图书馆(南馆)","type":"科教文化服务;图书馆;图书馆","typecode":"140500","address":"南山大道3688号","location":"113.935911,22.53153","transed_lng":113.93104290972754,"transed_lat":22.53455817739281,"cityname":"深圳市","adname":"南山区"},{"id":"B02F37VI5W","name":"深圳龙岗图书馆","type":"科教文化服务;图书馆;图书馆","typecode":"140500","address":"龙岗中心城龙城广场东侧龙岗文化中心D区","location":"114.250967,22.719143","transed_lng":114.24613359988997,"transed_lat":22.721977164470022,"cityname":"深圳市","adname":"龙岗区"},{"id":"B02F37V7KB","name":"深圳市科技图书馆","type":"科教文化服务;图书馆;图书馆","typecode":"140500","address":"西丽镇丽水路深圳大学城西校区","location":"113.973127,22.590351","transed_lng":113.96819450704668,"transed_lat":22.593292432507347,"cityname":"深圳市","adname":"南山区"},{"id":"B02F37VH71","name":"深圳少年儿童图书馆","type":"科教文化服务;图书馆;图书馆","typecode":"140500","address":"红荔路1011号","location":"114.099356,22.548496","transed_lng":114.09423290355957,"transed_lat":22.551176846055178,"cityname":"深圳市","adname":"福田区"},{"id":"B02F37VA7O","name":"罗湖区图书馆","type":"科教文化服务;图书馆;图书馆","typecode":"140500","address":"怡景路1014号","location":"114.140895,22.556109","transed_lng":114.13583915072233,"transed_lat":22.558824849297267,"cityname":"深圳市","adname":"罗湖区"},{"id":"B02F37VAXS","name":"盐田区图书馆","type":"科教文化服务;图书馆;图书馆","typecode":"140500","address":"沙头角深盐路","location":"114.237788,22.556129","transed_lng":114.23295380327976,"transed_lat":22.558990753833946,"cityname":"深圳市","adname":"盐田区"},{"id":"B0FFFRKSRT","name":"龙华文化艺术中心图书馆","type":"科教文化服务;图书馆;图书馆","typecode":"140500","address":"龙华办事处梅龙路与东环二路交汇处","location":"114.040194,22.654185","transed_lng":114.0350996695916,"transed_lat":22.65692370323305,"cityname":"深圳市","adname":"龙华区"},{"id":"B02F38JDVS","name":"坪山区图书馆","type":"科教文化服务;图书馆;图书馆","typecode":"140500","address":"金牛西路16号华瀚科技大厦1层、3层","location":"114.353295,22.699935","transed_lng":114.34836885773608,"transed_lat":22.702633434480497,"cityname":"深圳市","adname":"坪山区"},{"id":"B02F37U131","name":"水围图书馆","type":"科教文化服务;图书馆;图书馆","typecode":"140500","address":"金田路1029号水围文化楼","location":"114.063842,22.522281","transed_lng":114.0587231810874,"transed_lat":22.52498957041065,"cityname":"深圳市","adname":"福田区"},{"id":"B02F37VU2D","name":"下沙图书馆","type":"科教文化服务;图书馆;图书馆","typecode":"140500","address":"下沙大道下沙博物馆2层","location":"114.025066,22.526722","transed_lng":114.0200111500366,"transed_lat":22.529516351996204,"cityname":"深圳市","adname":"福田区"},{"id":"B02F38PGAA","name":"新桥图书馆","type":"科教文化服务;图书馆;图书馆","typecode":"140500","address":"大围六路与新和大道交叉口南100米","location":"113.839311,22.740253","transed_lng":113.83431539835765,"transed_lat":22.743199559581747,"cityname":"深圳市","adname":"宝安区"},{"id":"B02F37VPAV","name":"平湖街道图书馆","type":"科教文化服务;图书馆;图书馆","typecode":"140500","address":"双拥街1号5层","location":"114.12924,22.69666","transed_lng":114.12414966460395,"transed_lat":22.699335619674216,"cityname":"深圳市","adname":"龙岗区"},{"id":"B02F37RVEO","name":"步涌图书馆","type":"科教文化服务;图书馆;图书馆","typecode":"140500","address":"沙井镇步涌村前大路101号铺","location":"113.811954,22.749463","transed_lng":113.80688473678717,"transed_lat":22.752355670348482,"cityname":"深圳市","adname":"宝安区"},{"id":"B02F37VAP3","name":"深圳市盐田区沙头角图书馆","type":"科教文化服务;图书馆;图书馆","typecode":"140500","address":"官下路63号","location":"114.23242,22.55106","transed_lng":114.22757955104659,"transed_lat":22.553919213624216,"cityname":"深圳市","adname":"盐田区"},{"id":"B02F37VI9O","name":"南山图书馆百旺信分馆","type":"科教文化服务;图书馆;图书馆","typecode":"140500","address":"百旺信工业区综合楼附楼3层","location":"113.938138,22.630542","transed_lng":113.93326151486288,"transed_lat":22.633555134781272,"cityname":"深圳市","adname":"南山区"},{"id":"B02F37TA50","name":"深圳地铁技术资料室","type":"科教文化服务;图书馆;图书馆","typecode":"140500","address":"福中一路1016地铁大厦4层","location":"114.063662,22.547277","transed_lng":114.0585417177085,"transed_lat":22.549984412974293,"cityname":"深圳市","adname":"福田区"},{"id":"B02F37VIXO","name":"宝安区劳务工图书馆","type":"科教文化服务;图书馆;图书馆","typecode":"140500","address":"大浪北路29号","location":"113.997805,22.698249","transed_lng":113.99280584407731,"transed_lat":22.701097247698495,"cityname":"深圳市","adname":"龙华区"},{"id":"B02F37VJ5C","name":"合水口图书馆","type":"科教文化服务;图书馆;图书馆","typecode":"140500","address":"松白路5096号","location":"113.88228,22.781497","transed_lng":113.87737721285916,"transed_lat":22.784491806979478,"cityname":"深圳市","adname":"宝安区"},{"id":"B02F37UQFL","name":"福强社区图书馆","type":"科教文化服务;图书馆;图书馆","typecode":"140500","address":"振华路31号富怡雅居B栋3层","location":"114.094136,22.543995","transed_lng":114.08900979340406,"transed_lat":22.546676488373432,"cityname":"深圳市","adname":"福田区"},{"id":"B02F37WE4F","name":"光明新区光明办事处图书馆","type":"科教文化服务;图书馆;图书馆","typecode":"140500","address":"光明大街100光明影剧院","location":"113.944572,22.763147","transed_lng":113.93967971674643,"transed_lat":22.766115446078672,"cityname":"深圳市","adname":"宝安区"},{"id":"B02F38PG88","name":"鹏盛社区图书馆","type":"科教文化服务;图书馆;图书馆","typecode":"140500","address":"鹏盛年华商业群楼A栋4楼","location":"114.100661,22.557067","transed_lng":114.09553839518719,"transed_lat":22.559747259707315,"cityname":"深圳市","adname":"福田区"},{"id":"B0FFIHB6WZ","name":"景华社区图书室","type":"科教文化服务;图书馆;图书馆","typecode":"140500","address":"景田路安通花园4栋108","location":"114.047241,22.552882","transed_lng":114.04214113586582,"transed_lat":22.555619389791335,"cityname":"深圳市","adname":"福田区"},{"id":"B0FFF4B7PS","name":"滨江社区图书馆","type":"科教文化服务;图书馆;图书馆","typecode":"140500","address":"滨河大道入口与滨河大道辅道交叉口西北100米","location":"114.102871,22.536397","transed_lng":114.09775170104626,"transed_lat":22.539079119877492,"cityname":"深圳市","adname":"福田区"},{"id":"B0FFH4TKKC","name":"新围村社区图书馆","type":"科教文化服务;图书馆;图书馆","typecode":"140500","address":"新围村125-1号附近","location":"113.952318,22.582897","transed_lng":113.94742607078558,"transed_lat":22.585890620394547,"cityname":"深圳市","adname":"南山区"},{"id":"B0FFGO6XO1","name":"深圳捐赠换书中心","type":"科教文化服务;图书馆;图书馆","typecode":"140500","address":"福中一路2001号深圳图书馆附近","location":"114.057065,22.545884","transed_lng":114.05195181029734,"transed_lat":22.54860247484945,"cityname":"深圳市","adname":"福田区"},{"id":"B02F37VCC4","name":"罗湖区图书馆黄贝街道分馆","type":"科教文化服务;图书馆;图书馆","typecode":"140500","address":"凤凰路193-3海珑华苑海天阁6层","location":"114.132661,22.547062","transed_lng":114.12758742186128,"transed_lat":22.549766909794208,"cityname":"深圳市","adname":"罗湖区"},{"id":"B0FFF9ZZ9Z","name":"万丰图书馆","type":"科教文化服务;图书馆;图书馆","typecode":"140500","address":"中心路65附近","location":"113.828533,22.725920","transed_lng":113.82350935627844,"transed_lat":22.728850505084367,"cityname":"深圳市","adname":"宝安区"},{"id":"B02F38PHFK","name":"新华社区图书馆","type":"科教文化服务;图书馆;图书馆","typecode":"140500","address":"新洲七街155号绿景花园5栋1层","location":"114.041670,22.522617","transed_lng":114.03658153943282,"transed_lat":22.525368785964286,"cityname":"深圳市","adname":"福田区"},{"id":"B0FFFZ0G4N","name":"城市街区自助图书馆","type":"科教文化服务;图书馆;图书馆","typecode":"140500","address":"吉康路与吉祥路交叉口西50米","location":"114.369866,22.734863","transed_lng":114.36491967200169,"transed_lat":22.737527470552333,"cityname":"深圳市","adname":"坪山区"},{"id":"B0FFHLKYGF","name":"横岗图书馆","type":"科教文化服务;图书馆;图书馆","typecode":"140500","address":"龙岗大道横岗段3244号","location":"114.197877,22.641209","transed_lng":114.192964137074,"transed_lat":22.64401479755213,"cityname":"深圳市","adname":"龙岗区"},{"id":"B0FFF2M8OL","name":"龙岗中心医院-图书馆","type":"科教文化服务;图书馆;图书馆","typecode":"140500","address":"深惠路1228号","location":"114.282549,22.733651","transed_lng":114.27771252335629,"transed_lat":22.736461360141327,"cityname":"深圳市","adname":"龙岗区"},{"id":"B0FFGZFQLG","name":"深圳市科技图书馆分馆","type":"科教文化服务;图书馆;图书馆","typecode":"140500","address":"海天一路15","location":"113.939200,22.523833","transed_lng":113.93432917866531,"transed_lat":22.526856359747065,"cityname":"深圳市","adname":"南山区"},{"id":"B02F38S856","name":"深圳图书馆南书房","type":"科教文化服务;图书馆;图书馆","typecode":"140500","address":"福中一路与鹏程三路交叉口西150米","location":"114.057280,22.546455","transed_lng":114.05216651538461,"transed_lat":22.5491730487954,"cityname":"深圳市","adname":"福田区"},{"id":"B0FFFLJDS5","name":"福保社区图书馆","type":"科教文化服务;图书馆;图书馆","typecode":"140500","address":"桂花路17自由港湾公寓C栋","location":"114.050118,22.509344","transed_lng":114.04501653476457,"transed_lat":22.512077606811285,"cityname":"深圳市","adname":"福田区"},{"id":"B0FFG2ZM21","name":"南方科技大学图书馆","type":"科教文化服务;图书馆;图书馆","typecode":"140500","address":"光兴路1088号","location":"113.998582,22.595251","transed_lng":113.99358750670552,"transed_lat":22.59811724486233,"cityname":"深圳市","adname":"南山区"},{"id":"B0FFH87A60","name":"简·阅书吧","type":"科教文化服务;图书馆;图书馆","typecode":"140500","address":"怀德南路52号","location":"113.821197,22.664156","transed_lng":113.81615759634425,"transed_lat":22.667088236211672,"cityname":"深圳市","adname":"宝安区"},{"id":"B0FFG8UYS3","name":"陶吓社区图书室","type":"科教文化服务;图书馆;图书馆","typecode":"140500","address":"陶吓村260-5","location":"114.004300,22.650252","transed_lng":113.99928747979385,"transed_lat":22.65309159216174,"cityname":"深圳市","adname":"龙华区"},{"id":"B0FFF4GHXH","name":"南山图书馆·分馆","type":"科教文化服务;图书馆;图书馆","typecode":"140500","address":"塘兴路与祥瑞二路交叉口南50米","location":"113.983676,22.586757","transed_lng":113.97871919835207,"transed_lat":22.58966895992022,"cityname":"深圳市","adname":"南山区"},{"id":"B0FFFV4ARK","name":"赤湾胜宝旺阅览室","type":"科教文化服务;图书馆;图书馆","typecode":"140500","address":"兴南路7-10号附近","location":"113.929558,22.508304","transed_lng":113.92469621126399,"transed_lat":22.511341774332585,"cityname":"深圳市","adname":"南山区"},{"id":"B0FFG8TR83","name":"册之丘","type":"科教文化服务;图书馆;图书馆","typecode":"140500","address":"留仙大道宝能城3层","location":"113.997235,22.589547","transed_lng":113.99224428517464,"transed_lat":22.592418080503407,"cityname":"深圳市","adname":"南山区"},{"id":"B0FFFPXYF2","name":"城市街区自助图书馆","type":"科教文化服务;图书馆;图书馆","typecode":"140500","address":"星丰路华润万家东北30米","location":"114.055660,22.592700","transed_lng":114.05054549328362,"transed_lat":22.595416244060875,"cityname":"深圳市","adname":"龙华区"},{"id":"B0FFHKJNUD","name":"信息学院-图书馆","type":"科教文化服务;图书馆;图书馆","typecode":"140500","address":"龙格路299号","location":"114.214401,22.684787","transed_lng":114.20952200577685,"transed_lat":22.687607287009182,"cityname":"深圳市","adname":"龙岗区"},{"id":"B0FFGU8Z7I","name":"大浪图书馆(石凹分馆)","type":"科教文化服务;图书馆;图书馆","typecode":"140500","address":"大浪北路29号龙华区劳务工图书馆附近","location":"113.997816,22.698311","transed_lng":113.9928168121933,"transed_lat":22.701159198460623,"cityname":"深圳市","adname":"龙华区"},{"id":"B0FFJ0E9ED","name":"图书馆","type":"科教文化服务;图书馆;图书馆","typecode":"140500","address":"深圳硅谷大学城创业园A座2层219室","location":"113.965038,22.588483","transed_lng":113.96012275903962,"transed_lat":22.59144604640259,"cityname":"深圳市","adname":"南山区"},{"id":"B0FFG7NT3U","name":"龙华区宝安区民治办事处图书馆","type":"科教文化服务;图书馆;图书馆","typecode":"140500","address":"民田路29号","location":"114.035576,22.620794","transed_lng":114.03049268868622,"transed_lat":22.623550306176913,"cityname":"深圳市","adname":"龙华区"},{"id":"B02F37VHAS","name":"深圳图书馆","type":"科教文化服务;图书馆;图书馆","typecode":"140500","address":"福中一路2001号","location":"114.057271,22.545714","transed_lng":114.05215757436501,"transed_lat":22.548432118344053,"cityname":"深圳市","adname":"福田区"},{"id":"B02F38IOZV","name":"龙岗书城","type":"科教文化服务;图书馆;图书馆","typecode":"140500","address":"龙翔大道文化中心C区1-2层","location":"114.250489,22.720013","transed_lng":114.24565526707067,"transed_lat":22.72284693868849,"cityname":"深圳市","adname":"龙岗区"},{"id":"B0FFGDYBJ8","name":"宝安区图书馆","type":"科教文化服务;图书馆;图书馆","typecode":"140500","address":"宝兴路1号","location":"113.882718,22.548703","transed_lng":113.87783069306798,"transed_lat":22.551748191776255,"cityname":"深圳市","adname":"宝安区"},{"id":"B02F37UCU0","name":"福田区图书馆","type":"科教文化服务;图书馆;图书馆","typecode":"140500","address":"景田路70号图书馆大厦","location":"114.045573,22.551077","transed_lng":114.04047596319947,"transed_lat":22.553818181623985,"cityname":"深圳市","adname":"福田区"},{"id":"B02F37VFR6","name":"南山图书馆","type":"科教文化服务;图书馆;图书馆","typecode":"140500","address":"常兴路176号","location":"113.922428,22.534944","transed_lng":113.91756772119939,"transed_lat":22.53798841443805,"cityname":"深圳市","adname":"南山区"},{"id":"B02F37W4YV","name":"深圳大学-图书馆(南馆)","type":"科教文化服务;图书馆;图书馆","typecode":"140500","address":"南山大道3688号","location":"113.935911,22.53153","transed_lng":113.93104290972754,"transed_lat":22.53455817739281,"cityname":"深圳市","adname":"南山区"},{"id":"B02F37VI5W","name":"深圳龙岗图书馆","type":"科教文化服务;图书馆;图书馆","typecode":"140500","address":"龙岗中心城龙城广场东侧龙岗文化中心D区","location":"114.250967,22.719143","transed_lng":114.24613359988997,"transed_lat":22.721977164470022,"cityname":"深圳市","adname":"龙岗区"},{"id":"B02F37V7KB","name":"深圳市科技图书馆","type":"科教文化服务;图书馆;图书馆","typecode":"140500","address":"西丽镇丽水路深圳大学城西校区","location":"113.973127,22.590351","transed_lng":113.96819450704668,"transed_lat":22.593292432507347,"cityname":"深圳市","adname":"南山区"},{"id":"B02F37VH71","name":"深圳少年儿童图书馆","type":"科教文化服务;图书馆;图书馆","typecode":"140500","address":"红荔路1011号","location":"114.099356,22.548496","transed_lng":114.09423290355957,"transed_lat":22.551176846055178,"cityname":"深圳市","adname":"福田区"},{"id":"B02F37VA7O","name":"罗湖区图书馆","type":"科教文化服务;图书馆;图书馆","typecode":"140500","address":"怡景路1014号","location":"114.140895,22.556109","transed_lng":114.13583915072233,"transed_lat":22.558824849297267,"cityname":"深圳市","adname":"罗湖区"},{"id":"B02F37VAXS","name":"盐田区图书馆","type":"科教文化服务;图书馆;图书馆","typecode":"140500","address":"沙头角深盐路","location":"114.237788,22.556129","transed_lng":114.23295380327976,"transed_lat":22.558990753833946,"cityname":"深圳市","adname":"盐田区"},{"id":"B0FFFRKSRT","name":"龙华文化艺术中心图书馆","type":"科教文化服务;图书馆;图书馆","typecode":"140500","address":"龙华办事处梅龙路与东环二路交汇处","location":"114.040194,22.654185","transed_lng":114.0350996695916,"transed_lat":22.65692370323305,"cityname":"深圳市","adname":"龙华区"},{"id":"B02F38JDVS","name":"坪山区图书馆","type":"科教文化服务;图书馆;图书馆","typecode":"140500","address":"金牛西路16号华瀚科技大厦1层、3层","location":"114.353295,22.699935","transed_lng":114.34836885773608,"transed_lat":22.702633434480497,"cityname":"深圳市","adname":"坪山区"},{"id":"B02F37U131","name":"水围图书馆","type":"科教文化服务;图书馆;图书馆","typecode":"140500","address":"金田路1029号水围文化楼","location":"114.063842,22.522281","transed_lng":114.0587231810874,"transed_lat":22.52498957041065,"cityname":"深圳市","adname":"福田区"},{"id":"B02F37VU2D","name":"下沙图书馆","type":"科教文化服务;图书馆;图书馆","typecode":"140500","address":"下沙大道下沙博物馆2层","location":"114.025066,22.526722","transed_lng":114.0200111500366,"transed_lat":22.529516351996204,"cityname":"深圳市","adname":"福田区"},{"id":"B02F38PGAA","name":"新桥图书馆","type":"科教文化服务;图书馆;图书馆","typecode":"140500","address":"大围六路与新和大道交叉口南100米","location":"113.839311,22.740253","transed_lng":113.83431539835765,"transed_lat":22.743199559581747,"cityname":"深圳市","adname":"宝安区"},{"id":"B02F37VPAV","name":"平湖街道图书馆","type":"科教文化服务;图书馆;图书馆","typecode":"140500","address":"双拥街1号5层","location":"114.12924,22.69666","transed_lng":114.12414966460395,"transed_lat":22.699335619674216,"cityname":"深圳市","adname":"龙岗区"},{"id":"B02F37RVEO","name":"步涌图书馆","type":"科教文化服务;图书馆;图书馆","typecode":"140500","address":"沙井镇步涌村前大路101号铺","location":"113.811954,22.749463","transed_lng":113.80688473678717,"transed_lat":22.752355670348482,"cityname":"深圳市","adname":"宝安区"},{"id":"B02F37VAP3","name":"深圳市盐田区沙头角图书馆","type":"科教文化服务;图书馆;图书馆","typecode":"140500","address":"官下路63号","location":"114.23242,22.55106","transed_lng":114.22757955104659,"transed_lat":22.553919213624216,"cityname":"深圳市","adname":"盐田区"},{"id":"B02F37VI9O","name":"南山图书馆百旺信分馆","type":"科教文化服务;图书馆;图书馆","typecode":"140500","address":"百旺信工业区综合楼附楼3层","location":"113.938138,22.630542","transed_lng":113.93326151486288,"transed_lat":22.633555134781272,"cityname":"深圳市","adname":"南山区"},{"id":"B02F37TA50","name":"深圳地铁技术资料室","type":"科教文化服务;图书馆;图书馆","typecode":"140500","address":"福中一路1016地铁大厦4层","location":"114.063662,22.547277","transed_lng":114.0585417177085,"transed_lat":22.549984412974293,"cityname":"深圳市","adname":"福田区"},{"id":"B02F37VIXO","name":"宝安区劳务工图书馆","type":"科教文化服务;图书馆;图书馆","typecode":"140500","address":"大浪北路29号","location":"113.997805,22.698249","transed_lng":113.99280584407731,"transed_lat":22.701097247698495,"cityname":"深圳市","adname":"龙华区"},{"id":"B02F37VJ5C","name":"合水口图书馆","type":"科教文化服务;图书馆;图书馆","typecode":"140500","address":"松白路5096号","location":"113.88228,22.781497","transed_lng":113.87737721285916,"transed_lat":22.784491806979478,"cityname":"深圳市","adname":"宝安区"},{"id":"B02F37UQFL","name":"福强社区图书馆","type":"科教文化服务;图书馆;图书馆","typecode":"140500","address":"振华路31号富怡雅居B栋3层","location":"114.094136,22.543995","transed_lng":114.08900979340406,"transed_lat":22.546676488373432,"cityname":"深圳市","adname":"福田区"},{"id":"B02F37WE4F","name":"光明新区光明办事处图书馆","type":"科教文化服务;图书馆;图书馆","typecode":"140500","address":"光明大街100光明影剧院","location":"113.944572,22.763147","transed_lng":113.93967971674643,"transed_lat":22.766115446078672,"cityname":"深圳市","adname":"宝安区"},{"id":"B0FFGHCZX9","name":"紫岸阁图书馆","type":"科教文化服务;图书馆;图书馆","typecode":"140500","address":"新安街道7区甲岸村65号","location":"113.904312,22.561363","transed_lng":113.89944721361896,"transed_lat":22.564414745133654,"cityname":"深圳市","adname":"宝安区"},{"id":"B02F38PGV8","name":"莲花北社区图书馆","type":"科教文化服务;图书馆;图书馆","typecode":"140500","address":"莲花北村53栋1层","location":"114.050766,22.557687","transed_lng":114.04566043939568,"transed_lat":22.560416596636284,"cityname":"深圳市","adname":"福田区"},{"id":"B0FFHGYCXD","name":"深圳市少年儿童图书馆","type":"科教文化服务;图书馆;图书馆","typecode":"140500","address":"振中路40号附近","location":"114.094644,22.542811","transed_lng":114.08951814525115,"transed_lat":22.545492485941875,"cityname":"深圳市","adname":"福田区"},{"id":"B0FFHGR8ZM","name":"光明新区图书馆会堂","type":"科教文化服务;图书馆;图书馆","typecode":"140500","address":"振明路9号附近","location":"113.903316,22.774174","transed_lng":113.898437102439,"transed_lat":22.777179285803154,"cityname":"深圳市","adname":"宝安区"},{"id":"B0FFHSBS11","name":"光明区图书馆伯尼分馆","type":"科教文化服务;图书馆;图书馆","typecode":"140500","address":"金安路伯尼大厦1楼","location":"113.887275,22.768527","transed_lng":113.88238034043353,"transed_lat":22.77152963109902,"cityname":"深圳市","adname":"宝安区"},{"id":"B0FFF4N4Q2","name":"红荔社区阅览室","type":"科教文化服务;图书馆;图书馆","typecode":"140500","address":"园岭六街1-1号附近","location":"114.098324,22.554579","transed_lng":114.0931997322665,"transed_lat":22.55725933078105,"cityname":"深圳市","adname":"福田区"},{"id":"B0FFGIBYE7","name":"南山图书馆-亲子阅览室","type":"科教文化服务;图书馆;图书馆","typecode":"140500","address":"常兴路","location":"113.922370,22.534781","transed_lng":113.91750974755773,"transed_lat":22.53782547715184,"cityname":"深圳市","adname":"南山区"},{"id":"B0FFF0675F","name":"福山社区图书馆","type":"科教文化服务;图书馆;图书馆","typecode":"140500","address":"福华新村福源大厦2栋B1层","location":"114.069634,22.532076","transed_lng":114.0645100430752,"transed_lat":22.5347760215562,"cityname":"深圳市","adname":"福田区"},{"id":"B0FFHOTL2I","name":"水斗新围劳务工图书馆","type":"科教文化服务;图书馆;图书馆","typecode":"140500","address":"东环二路与水斗新围村二巷交叉口北150米","location":"114.050508,22.637401","transed_lng":114.04539762435905,"transed_lat":22.64012011505918,"cityname":"深圳市","adname":"龙华区"},{"id":"B0FFFE4PG2","name":"青青书阁","type":"科教文化服务;图书馆;图书馆","typecode":"140500","address":"月亮湾青青路1号青青世界酒店5层","location":"113.901120,22.499269","transed_lng":113.8962570086332,"transed_lat":22.502324040950956,"cityname":"深圳市","adname":"南山区"},{"id":"B0FFF4FA29","name":"宝安图书馆新安街道分馆","type":"科教文化服务;图书馆;图书馆","typecode":"140500","address":"大宝路8号","location":"113.915462,22.576400","transed_lng":113.91059987883125,"transed_lat":22.579446236963022,"cityname":"深圳市","adname":"宝安区"},{"id":"B02F38PGYH","name":"彩虹社区图书馆","type":"科教文化服务;图书馆;图书馆","typecode":"140500","address":"彩云路1号","location":"114.065838,22.561637","transed_lng":114.06071489370976,"transed_lat":22.564339997294372,"cityname":"深圳市","adname":"福田区"},{"id":"B0FFHFTXCX","name":"大浪办事处图书馆","type":"科教文化服务;图书馆;图书馆","typecode":"140500","address":"大浪街道华旺路龙飞培训二楼","location":"113.994482,22.673678","transed_lng":113.98949283441056,"transed_lat":22.676542275773887,"cityname":"深圳市","adname":"龙华区"},{"id":"B0FFG35PUJ","name":"大浪·羊台山文化名人图书馆","type":"科教文化服务;图书馆;图书馆","typecode":"140500","address":"福龙路西100米","location":"113.985252,22.669546","transed_lng":113.98028606480295,"transed_lat":22.672438788830977,"cityname":"深圳市","adname":"龙华区"},{"id":"B0FFG4EAGV","name":"福安社区图书馆","type":"科教文化服务;图书馆;图书馆","typecode":"140500","address":"福华三路星河国际M层C2架空层","location":"114.053471,22.531455","transed_lng":114.04836334213819,"transed_lat":22.53418107322244,"cityname":"深圳市","adname":"福田区"},{"id":"B0FFH0913H","name":"宝安中心区图书馆","type":"科教文化服务;图书馆;图书馆","typecode":"140500","address":"兴华一路与宝兴路交汇处","location":"113.882715,22.548705","transed_lng":113.87782768831282,"transed_lat":22.55175018926156,"cityname":"深圳市","adname":"宝安区"},{"id":"B0FFIDAJAN","name":"易力声图书馆","type":"科教文化服务;图书馆;图书馆","typecode":"140500","address":"塘尾村","location":"113.797495,22.701501","transed_lng":113.7923934299055,"transed_lat":22.704383012201482,"cityname":"深圳市","adname":"宝安区"},{"id":"B0FFF4EEY1","name":"香蜜社区图书馆","type":"科教文化服务;图书馆;图书馆","typecode":"140500","address":"香蜜湖度假村家属楼11栋底层","location":"114.039049,22.541114","transed_lng":114.03396414945959,"transed_lat":22.54387104413781,"cityname":"深圳市","adname":"福田区"},{"id":"B0FFF4ML2U","name":"下梅社区图书馆","type":"科教文化服务;图书馆;图书馆","typecode":"140500","address":"梅华路363号附近","location":"114.040935,22.561160","transed_lng":114.03584536438224,"transed_lat":22.563910949243777,"cityname":"深圳市","adname":"福田区"},{"id":"B0FFGLCZTW","name":"龙华区24小时自助图书馆","type":"科教文化服务;图书馆;图书馆","typecode":"140500","address":"观澜街道招商澜园小区7栋1楼商铺","location":"114.046822,22.685091","transed_lng":114.04171419316802,"transed_lat":22.68780762533315,"cityname":"深圳市","adname":"龙华区"},{"id":"B0FFFTUVA6","name":"锦龙社区图书馆","type":"科教文化服务;图书馆;图书馆","typecode":"140500","address":"华发南路锦花新居1栋首层","location":"114.089970,22.536980","transed_lng":114.08484246380104,"transed_lat":22.539663065100335,"cityname":"深圳市","adname":"福田区"},{"id":"B0FFH90V3W","name":"畅鸿图书馆","type":"科教文化服务;图书馆;图书馆","typecode":"140500","address":"沙井街道沙井镇共和向兴路恒明珠时尚广场14栋1区1楼","location":"113.801397,22.766054","transed_lng":113.7963003650392,"transed_lat":22.768923343497935,"cityname":"深圳市","adname":"宝安区"},{"id":"B0FFIP6PG9","name":"架空层图书馆","type":"科教文化服务;图书馆;图书馆","typecode":"140500","address":"利锦社区锦绣花园11栋1楼","location":"113.840935,22.638161","transed_lng":113.83595026099827,"transed_lat":22.6411356024398,"cityname":"深圳市","adname":"宝安区"},{"id":"B0FFI6JZ49","name":"宝安社区阅读中心","type":"科教文化服务;图书馆;图书馆","typecode":"140500","address":"步涌一路与步涌村前大路交叉口西南50米","location":"113.811958,22.749390","transed_lng":113.80688875184624,"transed_lat":22.75228269995692,"cityname":"深圳市","adname":"宝安区"},{"id":"B0FFHSMV87","name":"城市街区自助图书馆","type":"科教文化服务;图书馆;图书馆","typecode":"140500","address":"怀德南路52号附近","location":"113.821008,22.664049","transed_lng":113.81596809787945,"transed_lat":22.666980905134853,"cityname":"深圳市","adname":"宝安区"},{"id":"B0FFGWUJQJ","name":"宝安社区阅读中心","type":"科教文化服务;图书馆;图书馆","typecode":"140500","address":"银田工业区银田西发雍启科技园附近","location":"113.861194,22.590344","transed_lng":113.85626255149758,"transed_lat":22.593360143973438,"cityname":"深圳市","adname":"宝安区"},{"id":"B0FFGTHBZP","name":"光明区图书馆(河堤路)","type":"科教文化服务;图书馆;图书馆","typecode":"140500","address":"公明街道公明办事处","location":"113.884485,22.798601","transed_lng":113.87958446884394,"transed_lat":22.80159162727059,"cityname":"深圳市","adname":"宝安区"},{"id":"B0FFHLM7H4","name":"龙岗图书馆(微谷分馆)","type":"科教文化服务;图书馆;图书馆","typecode":"140500","address":"坂田贝尔路本丰商务酒店北100米","location":"114.061839,22.641117","transed_lng":114.05671433962428,"transed_lat":22.643814713401497,"cityname":"深圳市","adname":"龙岗区"},{"id":"B0FFGWDFAD","name":"塘下涌图书馆","type":"科教文化服务;图书馆;图书馆","typecode":"140500","address":"和通路与塘下涌大道交叉口西南50米","location":"113.842111,22.800392","transed_lng":113.83711892491822,"transed_lat":22.803324101927732,"cityname":"深圳市","adname":"宝安区"},{"id":"B0FFFA215M","name":"龙光社区图书室","type":"科教文化服务;图书馆;图书馆","typecode":"140500","address":"龙井村东区80-2号","location":"113.975195,22.559507","transed_lng":113.9702598362331,"transed_lat":22.562446106484725,"cityname":"深圳市","adname":"南山区"},{"id":"B0FFGIB66F","name":"南山图书馆专题咨询室","type":"科教文化服务;图书馆;图书馆","typecode":"140500","address":"常兴路176-6号","location":"113.922070,22.534962","transed_lng":113.91720981669516,"transed_lat":22.538006740436177,"cityname":"深圳市","adname":"南山区"},{"id":"B0FFGIB664","name":"南山图书馆监控中心","type":"科教文化服务;图书馆;图书馆","typecode":"140500","address":"常兴路176-4号","location":"113.921646,22.534920","transed_lng":113.91678592586366,"transed_lat":22.53796512274373,"cityname":"深圳市","adname":"南山区"},{"id":"B0FFFRZYCV","name":"美康百货二层图书专柜","type":"科教文化服务;图书馆;图书馆","typecode":"140500","address":"西丽镇平山村美康百货二层图书专柜","location":"113.965398,22.583583","transed_lng":113.96048234607056,"transed_lat":22.58654573709014,"cityname":"深圳市","adname":"南山区"},{"id":"B0FFGDHYKQ","name":"建安社区阅读中心","type":"科教文化服务;图书馆;图书馆","typecode":"140500","address":"安富路与建安一路交叉口西南200米","location":"113.901078,22.564681","transed_lng":113.89621084875282,"transed_lat":22.567732548606017,"cityname":"深圳市","adname":"宝安区"},{"id":"B0FFH28DZ1","name":"英泰书屋","type":"科教文化服务;图书馆;图书馆","typecode":"140500","address":"英泰路8号附近","location":"114.009742,22.673840","transed_lng":114.00471428218025,"transed_lat":22.676658103599344,"cityname":"深圳市","adname":"龙华区"},{"id":"B02F38MEIO","name":"光明新区图书馆","type":"科教文化服务;图书馆;图书馆","typecode":"140500","address":"振明路9号","location":"113.903462,22.774567","transed_lng":113.89858317006828,"transed_lat":22.7775721465099,"cityname":"深圳市","adname":"宝安区"},{"id":"B02F38JEG6","name":"布吉街道图书馆","type":"科教文化服务;图书馆;图书馆","typecode":"140500","address":"东西干道3号","location":"114.133507,22.619655","transed_lng":114.12843049867371,"transed_lat":22.622352291555366,"cityname":"深圳市","adname":"龙岗区"},{"id":"B0FFGDH903","name":"固戍宝安社区阅读中心","type":"科教文化服务;图书馆;图书馆","typecode":"140500","address":"固戍综合楼3栋","location":"113.844689,22.591702","transed_lng":113.83971706470366,"transed_lat":22.594690818541583,"cityname":"深圳市","adname":"宝安区"},{"id":"B0FFFVFRJR","name":"宝安区图书馆(中心馆)","type":"科教文化服务;图书馆;图书馆","typecode":"140500","address":"海秀路与宝兴路交汇处","location":"113.882715,22.548705","transed_lng":113.87782768831282,"transed_lat":22.55175018926156,"cityname":"深圳市","adname":"宝安区"},{"id":"B0FFH0YZ6C","name":"城市自助图书馆","type":"科教文化服务;图书馆;图书馆","typecode":"140500","address":"建兴路与黄峰岭工业大道交叉口东北150米","location":"113.933749,22.667520","transed_lng":113.92887415092423,"transed_lat":22.670532328740666,"cityname":"深圳市","adname":"宝安区"},{"id":"B0FFFE6FO4","name":"城市街区自助图书馆","type":"科教文化服务;图书馆;图书馆","typecode":"140500","address":"新沙路166号附近","location":"113.831300,22.729200","transed_lng":113.82628361882817,"transed_lat":22.732134804206833,"cityname":"深圳市","adname":"宝安区"},{"id":"B0FFFE8K23","name":"沙井壆岗图书馆","type":"科教文化服务;图书馆;图书馆","typecode":"140500","address":"村前路100号2号楼","location":"113.821810,22.731365","transed_lng":113.81676789320105,"transed_lat":22.73428123533702,"cityname":"深圳市","adname":"宝安区"},{"id":"B02F37UCVC","name":"景田社区图书馆","type":"科教文化服务;图书馆;图书馆","typecode":"140500","address":"回雁路41号附近","location":"114.046578,22.555543","transed_lng":114.04147902790129,"transed_lat":22.558281607906906,"cityname":"深圳市","adname":"福田区"},{"id":"B0FFGYKFFH","name":"楼村图书馆","type":"科教文化服务;图书馆;图书馆","typecode":"140500","address":"公常路1181号附近","location":"113.926389,22.780008","transed_lng":113.9215117029846,"transed_lat":22.78299795356186,"cityname":"深圳市","adname":"宝安区"},{"id":"B0FFFTK8ZV","name":"城市街区自助图书馆","type":"科教文化服务;图书馆;图书馆","typecode":"140500","address":"振明路公明红花山公园南门东北侧","location":"113.899214,22.778936","transed_lng":113.89433178747196,"transed_lat":22.781939597620333,"cityname":"深圳市","adname":"宝安区"},{"id":"B0FFGOF433","name":"蚝业社区图书馆","type":"科教文化服务;图书馆;图书馆","typecode":"140500","address":"兴业路豪业华庭D栋2楼","location":"113.866691,22.560366","transed_lng":113.86177348826021,"transed_lat":22.563393125775335,"cityname":"深圳市","adname":"宝安区"},{"id":"B02F38PH82","name":"新二宝安社区阅读中心","type":"科教文化服务;图书馆;图书馆","typecode":"140500","address":"新二路66号","location":"113.839480,22.729595","transed_lng":113.83448553356618,"transed_lat":22.7325450001396,"cityname":"深圳市","adname":"宝安区"},{"id":"B0FFFZ8Z4J","name":"西田图书馆","type":"科教文化服务;图书馆;图书馆","typecode":"140500","address":"西田路19号","location":"113.900620,22.800000","transed_lng":113.89573756553952,"transed_lat":22.802996509892612,"cityname":"深圳市","adname":"宝安区"},{"id":"B02F38PHI4","name":"李松蓢图书馆","type":"科教文化服务;图书馆;图书馆","typecode":"140500","address":"松明路与河堤路交叉口西150米","location":"113.888910,22.799110","transed_lng":113.8840155535207,"transed_lat":22.80210325691299,"cityname":"深圳市","adname":"宝安区"},{"id":"B0FFFG0BW4","name":"艺术书店","type":"科教文化服务;图书馆;图书馆","typecode":"140500","address":"雅昌大厦","location":"113.987446,22.552489","transed_lng":113.98248218376014,"transed_lat":22.555393374156978,"cityname":"深圳市","adname":"南山区"},{"id":"B0FFHMULNY","name":"宝安区图书馆","type":"科教文化服务;图书馆;图书馆","typecode":"140500","address":"怀德南路与翠岗西路交叉口东南100米","location":"113.820995,22.664069","transed_lng":113.81595506183592,"transed_lat":22.667000876394372,"cityname":"深圳市","adname":"宝安区"},{"id":"B0FFIR8RJA","name":"光明新区图书馆","type":"科教文化服务;图书馆;图书馆","typecode":"140500","address":"田园路与科裕四路交叉口西北150米","location":"113.861984,22.784899","transed_lng":113.85704190112374,"transed_lat":22.787869387314103,"cityname":"深圳市","adname":"宝安区"},{"id":"B02F38PHM3","name":"金碧社区图书馆","type":"科教文化服务;图书馆;图书馆","typecode":"140500","address":"福荣路68号金域蓝湾裙楼","location":"114.025382,22.523162","transed_lng":114.02032666828042,"transed_lat":22.52595563355667,"cityname":"深圳市","adname":"福田区"},{"id":"B0FFGDRZ1U","name":"皇岗社区图书馆(皇岗一街)","type":"科教文化服务;图书馆;图书馆","typecode":"140500","address":"皇岗广场市场北楼1层","location":"114.061633,22.525150","transed_lng":114.05651610946525,"transed_lat":22.527861904381503,"cityname":"深圳市","adname":"福田区"},{"id":"B0FFJ64N41","name":"贝贝兔玩具图书馆","type":"科教文化服务;图书馆;图书馆","typecode":"140500","address":"凤凰大道凤凰城购物中心二楼","location":"114.143105,22.696791","transed_lng":114.13804523943412,"transed_lat":22.699485944462978,"cityname":"深圳市","adname":"龙岗区"},{"id":"B0FFIX99N6","name":"贝贝猴图书馆","type":"科教文化服务;图书馆;图书馆","typecode":"140500","address":"(民治龙华)龙华梅龙路汇食街三巷12号一楼","location":"114.036345,22.643801","transed_lng":114.03125867364149,"transed_lat":22.646551205042144,"cityname":"深圳市","adname":"龙华区"},{"id":"B0FFJ37BUG","name":"同富邨图书馆","type":"科教文化服务;图书馆;图书馆","typecode":"140500","address":"大浪北路石凹水库同富邨工业区21栋303","location":"113.997940,22.699821","transed_lng":113.9929404004287,"transed_lat":22.702668434206164,"cityname":"深圳市","adname":"龙华区"},{"id":"B0FFIQISIQ","name":"沙企社区图书馆","type":"科教文化服务;图书馆;图书馆","typecode":"140500","address":"富通路25号","location":"113.830107,22.715835","transed_lng":113.82508825955382,"transed_lat":22.7187713066018,"cityname":"深圳市","adname":"宝安区"},{"id":"B0FFIBVTOG","name":"翠海工业区图书馆","type":"科教文化服务;图书馆;图书馆","typecode":"140500","address":"塘尾村","location":"113.809219,22.705776","transed_lng":113.80414557405378,"transed_lat":22.708676316357394,"cityname":"深圳市","adname":"宝安区"},{"id":"B02F37SF97","name":"马山头图书馆","type":"科教文化服务;图书馆;图书馆","typecode":"140500","address":"马山头路22号","location":"113.880661,22.778733","transed_lng":113.8757558079245,"transed_lat":22.781727381414118,"cityname":"深圳市","adname":"宝安区"},{"id":"B02F38U94V","name":"平山社区图书室","type":"科教文化服务;图书馆;图书馆","typecode":"140500","address":"平山村294号","location":"113.967094,22.584234","transed_lng":113.96217484007522,"transed_lat":22.587192296002,"cityname":"深圳市","adname":"南山区"},{"id":"B0FFHFA1RH","name":"上梅社区图书馆","type":"科教文化服务;图书馆;图书馆","typecode":"140500","address":"梅林街道上梅林福新阁F单元四楼","location":"114.056303,22.566649","transed_lng":114.05118938757789,"transed_lat":22.569367078207172,"cityname":"深圳市","adname":"福田区"},{"id":"B0FFI9NY83","name":"益田村图书馆","type":"科教文化服务;图书馆;图书馆","typecode":"140500","address":"益田中心广场","location":"114.050165,22.514727","transed_lng":114.04506311554083,"transed_lat":22.517460364357305,"cityname":"深圳市","adname":"福田区"},{"id":"B0FFJ4AWDW","name":"辛养社区阅读中心","type":"科教文化服务;图书馆;图书馆","typecode":"140500","address":"辛安路2号2层","location":"113.810910,22.738824","transed_lng":113.80583874251217,"transed_lat":22.741718021923006,"cityname":"深圳市","adname":"宝安区"},{"id":"B0FFGFAZ2N","name":"福永街道塘尾社区图书馆","type":"科教文化服务;图书馆;图书馆","typecode":"140500","address":"福永街道塘尾社区塘尾西路67号","location":"113.812434,22.704988","transed_lng":113.80736886196017,"transed_lat":22.707894242328646,"cityname":"深圳市","adname":"宝安区"},{"id":"B0FFHGISTF","name":"龙华区24小时自助图书馆","type":"科教文化服务;图书馆;图书馆","typecode":"140500","address":"东环二路6号附近","location":"114.040718,22.654122","transed_lng":114.03562271281461,"transed_lat":22.656859468963738,"cityname":"深圳市","adname":"龙华区"},{"id":"B0FFGY4E5A","name":"石岩文化艺术中心图书馆","type":"科教文化服务;图书馆;图书馆","typecode":"140500","address":"吉祥路与龙腾路交叉口东200米石岩文化艺术中心博物馆","location":"113.943844,22.671681","transed_lng":113.93895846368684,"transed_lat":22.674675974351505,"cityname":"深圳市","adname":"宝安区"},{"id":"B0FFFEAQ5F","name":"洪桥头宝安社区阅读中心","type":"科教文化服务;图书馆;图书馆","typecode":"140500","address":"洪桥头路与鱼塘边路交叉口西南50米","location":"113.840950,22.784364","transed_lng":113.83595589815494,"transed_lat":22.787299506343334,"cityname":"深圳市","adname":"宝安区"},{"id":"B0FFG8ZU12","name":"罗湖桥社区图书室","type":"科教文化服务;图书馆;图书馆","typecode":"140500","address":"人民南路1015广东省银行大厦北座4层H室","location":"114.118434,22.535174","transed_lng":114.11333467167434,"transed_lat":22.537864376787883,"cityname":"深圳市","adname":"罗湖区"},{"id":"B0FFH0Z6YN","name":"光明人民医院自助图书馆","type":"科教文化服务;图书馆;图书馆","typecode":"140500","address":"松白路4249号附近","location":"113.902574,22.764237","transed_lng":113.89769524881902,"transed_lat":22.767245552489022,"cityname":"深圳市","adname":"宝安区"},{"id":"B02F38JP3D","name":"红星图书馆","type":"科教文化服务;图书馆;图书馆","typecode":"140500","address":"星湖路36号","location":"113.906233,22.706779","transed_lng":113.90136004889087,"transed_lat":22.709804027556146,"cityname":"深圳市","adname":"宝安区"},{"id":"B02F37S0TR","name":"福田区沙头街道翠湾社区图书馆","type":"科教文化服务;图书馆;图书馆","typecode":"140500","address":"金地十路6号","location":"114.042958,22.515675","transed_lng":114.0378677106148,"transed_lat":22.518424048852285,"cityname":"深圳市","adname":"福田区"},{"id":"B0FFGZFURR","name":"清林径自助图书馆","type":"科教文化服务;图书馆;图书馆","typecode":"140500","address":"千林山居1区1号楼(煌上煌楼上)","location":"114.230030,22.748949","transed_lng":114.22517368006496,"transed_lat":22.751767119060247,"cityname":"深圳市","adname":"龙岗区"},{"id":"B0FFGZE2BP","name":"龙岗清林径自助图书馆","type":"科教文化服务;图书馆;图书馆","typecode":"140500","address":"连心路","location":"114.232578,22.747183","transed_lng":114.22772530046771,"transed_lat":22.750003411481703,"cityname":"深圳市","adname":"龙岗区"},{"id":"B0FFHEZRKD","name":"城市街区自助图书馆","type":"科教文化服务;图书馆;图书馆","typecode":"140500","address":"莲塘尾二路10号附近","location":"114.229501,22.684230","transed_lng":114.22464804426846,"transed_lat":22.68706553821356,"cityname":"深圳市","adname":"龙岗区"},{"id":"B0FFIEQSJ8","name":"乐狮文创(中海康城校区)","type":"科教文化服务;图书馆;图书馆","typecode":"140500","address":"龙岗中心城飞扬路中海塞纳时光华润2楼","location":"114.208906,22.710196","transed_lng":114.20401402656375,"transed_lat":22.713002577333366,"cityname":"深圳市","adname":"龙岗区"},{"id":"B0FFF4JODL","name":"城市街区自助图书馆(川安路)","type":"科教文化服务;图书馆;图书馆","typecode":"140500","address":"川安路与川安路步行街交叉口西150米","location":"113.886915,22.564590","transed_lng":113.88203280626473,"transed_lat":22.567636798303695,"cityname":"深圳市","adname":"宝安区"},{"id":"B0FFH4SWVC","name":"怡景社区读书阅览室","type":"科教文化服务;图书馆;图书馆","typecode":"140500","address":"怡景地铁站B口南200米","location":"114.140148,22.553535","transed_lng":114.13509057994844,"transed_lat":22.556249935229147,"cityname":"深圳市","adname":"罗湖区"},{"id":"B0FFGLCX3P","name":"宝安社区阅读中心(洪浪南路)","type":"科教文化服务;图书馆;图书馆","typecode":"140500","address":"洪浪南路14号","location":"113.914310,22.567712","transed_lng":113.90944833095465,"transed_lat":22.570759827187793,"cityname":"深圳市","adname":"宝安区"},{"id":"B0FFG8FIJU","name":"松泉社区图书室","type":"科教文化服务;图书馆;图书馆","typecode":"140500","address":"翠竹北路松泉公寓16栋近","location":"114.129036,22.576855","transed_lng":114.12395306285441,"transed_lat":22.579552612483138,"cityname":"深圳市","adname":"罗湖区"},{"id":"B02F38PH60","name":"宝安区图书馆(西乡分馆)","type":"科教文化服务;图书馆;图书馆","typecode":"140500","address":"宝民二路110号","location":"113.883452,22.581358","transed_lng":113.87856374682035,"transed_lat":22.58440060110771,"cityname":"深圳市","adname":"宝安区"},{"id":"B0FFF2JEIT","name":"宝安流动图书馆西乡利锦分馆","type":"科教文化服务;图书馆;图书馆","typecode":"140500","address":"翠湖花园小区内宝安流动图书馆","location":"113.841371,22.638019","transed_lng":113.83638741998583,"transed_lat":22.640994426029003,"cityname":"深圳市","adname":"宝安区"},{"id":"B02F37VNE5","name":"深圳市龙岗区大鹏街道图书馆","type":"科教文化服务;图书馆;图书馆","typecode":"140500","address":"公园路与迎宾路交叉口北150米","location":"114.481223,22.58959","transed_lng":114.47644839796692,"transed_lat":22.592393347530102,"cityname":"深圳市","adname":"龙岗区"},{"id":"B02F38SJVW","name":"永安社区图书室","type":"科教文化服务;图书馆;图书馆","typecode":"140500","address":"明珠大道附近","location":"114.246589,22.592859","transed_lng":114.2417607143963,"transed_lat":22.595719279194213,"cityname":"深圳市","adname":"盐田区"},{"id":"B0FFHM6HF4","name":"柏亚阅读(优城购物中心店)","type":"科教文化服务;图书馆;图书馆","typecode":"140500","address":"民治大道567号优城商业广场F5","location":"114.036751,22.628819","transed_lng":114.0316648535719,"transed_lat":22.63157097922758,"cityname":"深圳市","adname":"龙华区"},{"id":"B0FFH0YC1L","name":"光明区图书馆玉律社区分馆","type":"科教文化服务;图书馆;图书馆","typecode":"140500","address":"玉泉西路与环玉路交叉口西南150米","location":"113.897270,22.716760","transed_lng":113.89239004559813,"transed_lat":22.719782284644367,"cityname":"深圳市","adname":"宝安区"},{"id":"B0FFGIB665","name":"南山图书馆24小时自助图书馆","type":"科教文化服务;图书馆;图书馆","typecode":"140500","address":"常兴路176号","location":"113.921898,22.534870","transed_lng":113.91703786674825,"transed_lat":22.537914900795208,"cityname":"深圳市","adname":"南山区"},{"id":"B0FFH33KVT","name":"城市街区自助图书馆(平山村东)","type":"科教文化服务;图书馆;图书馆","typecode":"140500","address":"平山一路128号附近","location":"113.968537,22.584268","transed_lng":113.96361482747695,"transed_lat":22.58722252171426,"cityname":"深圳市","adname":"南山区"},{"id":"B0FFF4BZCS","name":"福田区少儿英语主题图书馆","type":"科教文化服务;图书馆;图书馆","typecode":"140500","address":"景田路70西门","location":"114.045257,22.551126","transed_lng":114.04016048485236,"transed_lat":22.553867879457048,"cityname":"深圳市","adname":"福田区"},{"id":"B0FFH0Z3Y5","name":"城市街区24小时自助图书馆","type":"科教文化服务;图书馆;图书馆","typecode":"140500","address":"侨香路侨香村8号门","location":"114.014693,22.552664","transed_lng":114.00966089286193,"transed_lat":22.555486430903056,"cityname":"深圳市","adname":"福田区"},{"id":"B0FFI6GVR7","name":"智升玩具图书馆","type":"科教文化服务;图书馆;图书馆","typecode":"140500","address":"龙园山庄20栋J5号","location":"114.112055,22.588609","transed_lng":114.10694278701283,"transed_lat":22.591289893004564,"cityname":"深圳市","adname":"罗湖区"},{"id":"B0FFGDHUAS","name":"金港华庭(西乡)社区阅读中心","type":"科教文化服务;图书馆;图书馆","typecode":"140500","address":"银田路1-2号附近","location":"113.860438,22.582779","transed_lng":113.85550531348038,"transed_lat":22.585794966734458,"cityname":"深圳市","adname":"宝安区"},{"id":"B02F38SRJW","name":"新港社区图书馆","type":"科教文化服务;图书馆;图书馆","typecode":"140500","address":"福强路福田花园高发佳苑1层","location":"114.047176,22.516842","transed_lng":114.04207858029137,"transed_lat":22.51958159701788,"cityname":"深圳市","adname":"福田区"},{"id":"B0FFH0YFX6","name":"自助图书馆(098长虹科技大厦)","type":"科教文化服务;图书馆;图书馆","typecode":"140500","address":"科技南十二路18长虹科技大厦1层","location":"113.957749,22.538197","transed_lng":113.95285077173895,"transed_lat":22.541182547481274,"cityname":"深圳市","adname":"南山区"},{"id":"B0FFFFJH8T","name":"宝安社区阅读中心(水井路)","type":"科教文化服务;图书馆;图书馆","typecode":"140500","address":"三围三巷10","location":"113.845702,22.614331","transed_lng":113.8407312387502,"transed_lat":22.6173183374672,"cityname":"深圳市","adname":"宝安区"},{"id":"B02F38K4BE","name":"竹林社区图书馆","type":"科教文化服务;图书馆;图书馆","typecode":"140500","address":"紫竹四道8号","location":"114.009603,22.537505","transed_lng":114.00458442358988,"transed_lat":22.54034362606207,"cityname":"深圳市","adname":"福田区"},{"id":"B0FFFA2BQU","name":"宝安流动图书馆(西乡钟屋分馆)","type":"科教文化服务;图书馆;图书馆","typecode":"140500","address":"钟屋沙边七巷一号","location":"113.845447,22.623520","transed_lng":113.84047499196234,"transed_lat":22.626505370066802,"cityname":"深圳市","adname":"宝安区"},{"id":"B0FFIR926F","name":"龙岗图书馆龙岗墟自助分馆","type":"科教文化服务;图书馆;图书馆","typecode":"140500","address":"沙坪街8号附近","location":"114.276498,22.732753","transed_lng":114.2716649609293,"transed_lat":22.735570072373132,"cityname":"深圳市","adname":"龙岗区"},{"id":"B02F38PGB9","name":"南山图书馆(蛇口育才分馆)","type":"科教文化服务;图书馆;图书馆","typecode":"140500","address":"育才路7号","location":"113.921678,22.493406","transed_lng":113.91682053597903,"transed_lat":22.496452332409056,"cityname":"深圳市","adname":"南山区"},{"id":"B0FFFCOC1K","name":"城市街区自助图书馆(空港八道)","type":"科教文化服务;图书馆;图书馆","typecode":"140500","address":"GTC地面交通中心2层","location":"113.814029,22.623589","transed_lng":113.80897326867847,"transed_lat":22.626515876749526,"cityname":"深圳市","adname":"宝安区"},{"id":"B0FFFEB2ET","name":"深圳图书馆城市街区24小时自助图书馆","type":"科教文化服务;图书馆;图书馆","typecode":"140500","address":"桂月路与章阁路交叉口东南100米","location":"114.019303,22.743930","transed_lng":114.01424741766976,"transed_lat":22.74670125493542,"cityname":"深圳市","adname":"龙华区"},{"id":"B02F38SPCA","name":"福田区图书馆狮岭社区分馆","type":"科教文化服务;图书馆;图书馆","typecode":"140500","address":"机场小区7栋1层","location":"114.040441,22.550095","transed_lng":114.03535298403801,"transed_lat":22.55284805821198,"cityname":"深圳市","adname":"福田区"},{"id":"B02F38PH1L","name":"沙头街道图书馆、职工书屋","type":"科教文化服务;图书馆;图书馆","typecode":"140500","address":"新沙路49号","location":"114.043050,22.528691","transed_lng":114.03795870575556,"transed_lat":22.531439309005304,"cityname":"深圳市","adname":"福田区"},{"id":"B0FFFA28MW","name":"深圳市福田区图书馆梅林街道分馆","type":"科教文化服务;图书馆;图书馆","typecode":"140500","address":"中康路29-3号","location":"114.058683,22.565489","transed_lng":114.05356664194922,"transed_lat":22.568202962987485,"cityname":"深圳市","adname":"福田区"},{"id":"B0FFH15N05","name":"自助图书馆(018福永文体中心服务点)","type":"科教文化服务;图书馆;图书馆","typecode":"140500","address":"福永大道福永文化艺术中心1楼","location":"113.824982,22.671083","transed_lng":113.81995231272546,"transed_lat":22.674020827477822,"cityname":"深圳市","adname":"宝安区"},{"id":"B0FFI0D05O","name":"秀新社区图书馆","type":"科教文化服务;图书馆;图书馆","typecode":"140500","address":"坑梓横路东一段22号","location":"114.380758,22.744997","transed_lng":114.375803776205,"transed_lat":22.747646853907256,"cityname":"深圳市","adname":"坪山区"},{"id":"B02F37U96C","name":"光华社区锦绣图书室","type":"科教文化服务;图书馆;图书馆","typecode":"140500","address":"深南大道9002-8号","location":"113.994154,22.534274","transed_lng":113.98917461250507,"transed_lat":22.537159523917662,"cityname":"深圳市","adname":"南山区"},{"id":"B0FFFV25WL","name":"深圳信息职业技术学院-图书馆","type":"科教文化服务;图书馆;图书馆","typecode":"140500","address":"龙翔大道2188号","location":"114.214401,22.684787","transed_lng":114.20952200577685,"transed_lat":22.687607287009182,"cityname":"深圳市","adname":"龙岗区"},{"id":"B0FFFE4UB2","name":"龙岗区龙岗街道龙新社区图书室","type":"科教文化服务;图书馆;图书馆","typecode":"140500","address":"沙背坜二路12-1号附近","location":"114.301637,22.732539","transed_lng":114.29678242705296,"transed_lat":22.735322607884527,"cityname":"深圳市","adname":"龙岗区"},{"id":"B0FFH0YZNZ","name":"自助图书馆(044宝安春华四季园)","type":"科教文化服务;图书馆;图书馆","typecode":"140500","address":"春华四季园小区内","location":"114.053506,22.622343","transed_lng":114.04839237564745,"transed_lat":22.625058843004936,"cityname":"深圳市","adname":"龙华区"},{"id":"B0FFH23BQ2","name":"城市街区自助图书馆(洪湖路)","type":"科教文化服务;图书馆;图书馆","typecode":"140500","address":"洪湖东路田贝花园C座楼下","location":"114.121623,22.563381","transed_lng":114.11652714678415,"transed_lat":22.566072056868588,"cityname":"深圳市","adname":"罗湖区"},{"id":"B0FFFRTMAG","name":"自助图书馆(162国家高技术产业创新中心)","type":"科教文化服务;图书馆;图书馆","typecode":"140500","address":"科技南路与高新南七道交叉口西50米(近深圳软件园)","location":"113.949335,22.533840","transed_lng":113.944450735745,"transed_lat":22.536844176174586,"cityname":"深圳市","adname":"南山区"},{"id":"B0FFH3AH58","name":"深圳图书馆城市街区自助图书馆(打石一路)","type":"科教文化服务;图书馆;图书馆","typecode":"140500","address":"打石一路22号附近","location":"113.938072,22.572801","transed_lng":113.93319923948691,"transed_lat":22.575822518372544,"cityname":"深圳市","adname":"南山区"},{"id":"B02F37VLNK","name":"宝安流动图书馆民治樟坑分馆","type":"科教文化服务;图书馆;图书馆","typecode":"140500","address":"樟坑二区一巷5栋附近","location":"114.036224,22.615835","transed_lng":114.03113973015675,"transed_lat":22.618590491683502,"cityname":"深圳市","adname":"龙华区"},{"id":"B0FFI64Z23","name":"观澜文化艺术中心","type":"科教文化服务;图书馆;图书馆","typecode":"140500","address":"广场沿河路6-3号附近","location":"114.047799,22.698336","transed_lng":114.04268877122925,"transed_lat":22.701047216837846,"cityname":"深圳市","adname":"龙华区"},{"id":"B0FFH15H7U","name":"城市街区自助图书馆","type":"科教文化服务;图书馆;图书馆","typecode":"140500","address":"公园里华润万家B1层","location":"114.156276,22.607440","transed_lng":114.15125523455538,"transed_lat":22.610175526104047,"cityname":"深圳市","adname":"龙岗区"},{"id":"B02F38JGIF","name":"大浪街道公共图书馆电子阅览室","type":"科教文化服务;图书馆;图书馆","typecode":"140500","address":"华旺路108号临附近","location":"113.994504,22.673641","transed_lng":113.98951478128134,"transed_lat":22.67650521780964,"cityname":"深圳市","adname":"龙华区"},{"id":"B02F38UF5A","name":"宝安社区阅读中心(紫岸阁西南)","type":"科教文化服务;图书馆;图书馆","typecode":"140500","address":"甲岸村65","location":"113.904088,22.561539","transed_lng":113.89922306907404,"transed_lat":22.564590751820514,"cityname":"深圳市","adname":"宝安区"},{"id":"B0FFH15FWI","name":"城市街区自助图书馆(147西乡体育中心)","type":"科教文化服务;图书馆;图书馆","typecode":"140500","address":"银田路与宝源路交叉口东北侧100米","location":"113.854481,22.577971","transed_lng":113.84953457995276,"transed_lat":22.580978247041767,"cityname":"深圳市","adname":"宝安区"},{"id":"B02F38JGUK","name":"宝安区图书馆大浪街道分馆","type":"科教文化服务;图书馆;图书馆","typecode":"140500","address":"大浪街道华旺路","location":"113.994508,22.673645","transed_lng":113.98951877093056,"transed_lat":22.67650920480962,"cityname":"深圳市","adname":"龙华区"},{"id":"B0FFG7BG1Y","name":"罗湖图书馆(长岭社区分馆)","type":"科教文化服务;图书馆;图书馆","typecode":"140500","address":"罗沙路2031-13号附近","location":"114.183977,22.555144","transed_lng":114.17903419189719,"transed_lat":22.557937444892488,"cityname":"深圳市","adname":"罗湖区"},{"id":"B0FFF4BBPD","name":"罗湖桥社区工作站电子阅览室","type":"科教文化服务;图书馆;图书馆","typecode":"140500","address":"人民南路2063号3层","location":"114.118302,22.538462","transed_lng":114.11320224660845,"transed_lat":22.541152070089908,"cityname":"深圳市","adname":"罗湖区"},{"id":"B0FFF5TTH7","name":"深圳图书馆城市街区自助图书馆(上沙商业步行街)","type":"科教文化服务;图书馆;图书馆","typecode":"140500","address":[],"location":"114.031040,22.525135","transed_lng":114.02597219250187,"transed_lat":22.527913232504126,"cityname":"深圳市","adname":"福田区"},{"id":"B02F38TAC6","name":"罗湖图书馆文锦社区分馆","type":"科教文化服务;图书馆;图书馆","typecode":"140500","address":"新安路4-9号4层","location":"114.12994,22.540226","transed_lng":114.12486125361096,"transed_lat":22.5429279450524,"cityname":"深圳市","adname":"罗湖区"},{"id":"B0FFFQ0I9U","name":"城市街区自助图书馆(福田黄木岗服务点)","type":"科教文化服务;图书馆;图书馆","typecode":"140500","address":"梅岗南街6号附近","location":"114.086077,22.558211","transed_lng":114.08094716320792,"transed_lat":22.5608942443292,"cityname":"深圳市","adname":"福田区"},{"id":"B0FFGVYZ8G","name":"翠竹苑图书馆","type":"科教文化服务;图书馆;图书馆","typecode":"140500","address":"四季花城3期","location":"114.057599,22.624439","transed_lng":114.05248005285065,"transed_lat":22.627146902839804,"cityname":"深圳市","adname":"龙岗区"},{"id":"B0FFH919W2","name":"翠柏苑图书馆","type":"科教文化服务;图书馆;图书馆","typecode":"140500","address":"坂田街道万科四季花城6期","location":"114.057561,22.620305","transed_lng":114.0524423676511,"transed_lat":22.623013669847968,"cityname":"深圳市","adname":"龙岗区"},{"id":"B0FFH84ZNC","name":"南约图书馆(植物园路)","type":"科教文化服务;图书馆;图书馆","typecode":"140500","address":"植物园路6号(水一小区东北)","location":"114.277334,22.695420","transed_lng":114.27250294551986,"transed_lat":22.698246442713586,"cityname":"深圳市","adname":"龙岗区"},{"id":"B02F37VX1P","name":"福田区图书馆(南园街道分馆)","type":"科教文化服务;图书馆;图书馆","typecode":"140500","address":"滨河大道3001-27(南苑街道文体中心2层)","location":"114.085761,22.532251","transed_lng":114.08063281425393,"transed_lat":22.53493626114595,"cityname":"深圳市","adname":"福田区"},{"id":"B0FFHDBE81","name":"宿舍图书馆","type":"科教文化服务;图书馆;图书馆","typecode":"140500","address":"南湾街道布澜路联创科技园六栋","location":"114.130409,22.631467","transed_lng":114.12532527301593,"transed_lat":22.63415827312788,"cityname":"深圳市","adname":"龙岗区"},{"id":"B02F38PH1R","name":"安乐图书馆","type":"科教文化服务;图书馆;图书馆","typecode":"140500","address":"40区安乐大厦后停车场2层","location":"113.900594,22.554616","transed_lng":113.89572712009253,"transed_lat":22.55766843029843,"cityname":"深圳市","adname":"宝安区"},{"id":"B0FFHQQ06Z","name":"同富裕工业城外来工图书馆","type":"科教文化服务;图书馆;图书馆","typecode":"140500","address":"塘兴路与祥瑞二路交叉口东50米","location":"113.983860,22.586909","transed_lng":113.9789027435967,"transed_lat":22.589820402954416,"cityname":"深圳市","adname":"南山区"},{"id":"B0FFGWJJQ2","name":"城市街区24小时自助图书馆","type":"科教文化服务;图书馆;图书馆","typecode":"140500","address":"广场路与碧眼路交叉口东100米","location":"113.936728,22.749866","transed_lng":113.93184530356152,"transed_lat":22.752851967770148,"cityname":"深圳市","adname":"宝安区"},{"id":"B0FFF2VPSG","name":"深圳南山图书馆设计图书馆","type":"科教文化服务;图书馆;图书馆","typecode":"140500","address":"南山大道3838号设计产业园M栋(绿色)二楼","location":"113.925544,22.547562","transed_lng":113.92068182549555,"transed_lat":22.55060249694089,"cityname":"深圳市","adname":"南山区"},{"id":"B02F37UAXN","name":"石厦社区图书馆","type":"科教文化服务;图书馆;图书馆","typecode":"140500","address":"石厦西村98号3层","location":"114.050696,22.521507","transed_lng":114.04559289344638,"transed_lat":22.524239039886265,"cityname":"深圳市","adname":"福田区"},{"id":"B0FFGOF3XT","name":"明德阁图书馆","type":"科教文化服务;图书馆;图书馆","typecode":"140500","address":"龙城街道五联社区将军帽路一号深圳技师学院","location":"114.229861,22.746114","transed_lng":114.2250046193291,"transed_lat":22.74893286212018,"cityname":"深圳市","adname":"龙岗区"},{"id":"B0FFFTSYWH","name":"城市街区自助图书馆131号机","type":"科教文化服务;图书馆;图书馆","typecode":"140500","address":"南天路20-1附近","location":"113.956600,22.585067","transed_lng":113.95170081639783,"transed_lat":22.588050868895834,"cityname":"深圳市","adname":"南山区"},{"id":"B0FFFP51JF","name":"坪山办事处图书馆","type":"科教文化服务;图书馆;图书馆","typecode":"140500","address":"团结路与建设路交叉口北150米","location":"114.345779,22.691718","transed_lng":114.34086351822083,"transed_lat":22.694431502379313,"cityname":"深圳市","adname":"坪山区"},{"id":"B0FFGH9ZK4","name":"龙岗执法队大院图书馆","type":"科教文化服务;图书馆;图书馆","typecode":"140500","address":"碧新路2032号","location":"114.271744,22.713059","transed_lng":114.26691393908892,"transed_lat":22.715885855336513,"cityname":"深圳市","adname":"龙岗区"},{"id":"B0FFGNEIZT","name":"竹坑社区图书室","type":"科教文化服务;图书馆;图书馆","typecode":"140500","address":"金牛东路13号附近","location":"114.399712,22.710793","transed_lng":114.39475849917791,"transed_lat":22.71344314157288,"cityname":"深圳市","adname":"坪山区"},{"id":"B0FFHZS0YD","name":"龙华区龙华街道龙园社区图书室","type":"科教文化服务;图书馆;图书馆","typecode":"140500","address":"花园路与龙园花园路交叉口东南50米","location":"114.020259,22.660865","transed_lng":114.01520655328656,"transed_lat":22.663655109314547,"cityname":"深圳市","adname":"龙华区"},{"id":"B0FFHV684B","name":"沙井街道图书馆(装修中)","type":"科教文化服务;图书馆;图书馆","typecode":"140500","address":"中心路沙井文化艺术中心3-4层","location":"113.829720,22.725567","transed_lng":113.82469958604058,"transed_lat":22.72849985397241,"cityname":"深圳市","adname":"宝安区"},{"id":"B0FFHMVKBB","name":"和平社区少儿公益图书馆","type":"科教文化服务;图书馆;图书馆","typecode":"140500","address":"松福大道与永和路交叉口东150米","location":"113.790676,22.687071","transed_lng":113.78556033370816,"transed_lat":22.689946684445616,"cityname":"深圳市","adname":"宝安区"},{"id":"B0FFH15OWE","name":"自助图书馆(090振业城)","type":"科教文化服务;图书馆;图书馆","typecode":"140500","address":"振业城会所1层","location":"114.179082,22.634720","transed_lng":114.17412099878166,"transed_lat":22.637493614836604,"cityname":"深圳市","adname":"龙岗区"},{"id":"B0FFFE7P3E","name":"深圳图书馆城市街区自助图书馆","type":"科教文化服务;图书馆;图书馆","typecode":"140500","address":"民治街道致远南路龙悦居","location":"114.030550,22.603370","transed_lng":114.02547816244002,"transed_lat":22.60614204901528,"cityname":"深圳市","adname":"龙华区"},{"id":"B0FFIBWA69","name":"沙井文化艺术中心图书馆","type":"科教文化服务;图书馆;图书馆","typecode":"140500","address":"中心路与敬老一路交叉口东南100米","location":"113.829727,22.725567","transed_lng":113.82470660495173,"transed_lat":22.728499867228024,"cityname":"深圳市","adname":"宝安区"},{"id":"B02F38P6ZT","name":"深圳市弘法寺图书馆","type":"科教文化服务;图书馆;图书馆","typecode":"140500","address":"莲塘仙湖路160号仙湖植物园内","location":"114.181411,22.577985","transed_lng":114.17645989496722,"transed_lat":22.580771439710375,"cityname":"深圳市","adname":"罗湖区"},{"id":"B0FFF43HI4","name":"梅林街道梅亭社区图书馆","type":"科教文化服务;图书馆;图书馆","typecode":"140500","address":"梅林先科花园11栋1层","location":"114.061183,22.564416","transed_lng":114.05606400978978,"transed_lat":22.567125868229503,"cityname":"深圳市","adname":"福田区"},{"id":"B0FFFA28H9","name":"龙华区劳务工图书馆(清湖东一巷)","type":"科教文化服务;图书馆;图书馆","typecode":"140500","address":"清湖新村西二巷20号附近","location":"114.048657,22.667106","transed_lng":114.04354747416961,"transed_lat":22.66982287186038,"cityname":"深圳市","adname":"龙华区"},{"id":"B02F38J426","name":"城市街区图书馆(富士康服务店)","type":"科教文化服务;图书馆;图书馆","typecode":"140500","address":"龙华镇油松二路2号","location":"114.050161,22.663859","transed_lng":114.04504941001888,"transed_lat":22.666573455682947,"cityname":"深圳市","adname":"龙华区"},{"id":"B0FFF4779Q","name":"罗湖图书馆(百仕达社区分馆)","type":"科教文化服务;图书馆;图书馆","typecode":"140500","address":"太安路217附近","location":"114.133925,22.572081","transed_lng":114.12885248382716,"transed_lat":22.574785332401618,"cityname":"深圳市","adname":"罗湖区"},{"id":"B02F38PH6D","name":"福田区图书馆孖岭社区图书馆","type":"科教文化服务;图书馆;图书馆","typecode":"140500","address":"凯丰路30号汇龙花园会馆2层","location":"114.063690,22.573371","transed_lng":114.05856799129717,"transed_lat":22.57607600197455,"cityname":"深圳市","adname":"福田区"},{"id":"B0FFH20DKN","name":"自助图书馆(111李松蓢社区体育活动中心)","type":"科教文化服务;图书馆;图书馆","typecode":"140500","address":"金朗路与屋园路交口东南120米","location":"113.887823,22.806106","transed_lng":113.88292668017179,"transed_lat":22.809096172081038,"cityname":"深圳市","adname":"宝安区"},{"id":"B0FFHLUPVH","name":"自助图书馆(231布吉中海怡翠山庄)","type":"科教文化服务;图书馆;图书馆","typecode":"140500","address":"布吉街道中海怡翠山庄20栋超市门口","location":"114.109574,22.623851","transed_lng":114.1044562870996,"transed_lat":22.626525301672647,"cityname":"深圳市","adname":"龙岗区"},{"id":"B0FFF3WH82","name":"宝安社区阅读中心–西乡永丰(香缇湾)阅读中心","type":"科教文化服务;图书馆;图书馆","typecode":"140500","address":"金海路25-77号2层","location":"113.859562,22.576135","transed_lng":113.8546277254968,"transed_lat":22.57915041957917,"cityname":"深圳市","adname":"宝安区"},{"id":"B0FFH0Z7RV","name":"自助图书馆(055坪山新区碧岭小学店)","type":"科教文化服务;图书馆;图书馆","typecode":"140500","address":"坪山街道碧岭社区坑边路123号","location":"114.288563,22.664372","transed_lng":114.2837263501568,"transed_lat":22.667192649371884,"cityname":"深圳市","adname":"坪山区"},{"id":"B0FFH15IXH","name":"自助图书馆(054坪山比亚迪工业园)","type":"科教文化服务;图书馆;图书馆","typecode":"140500","address":"比亚迪23号厂房1层","location":"114.364586,22.678375","transed_lng":114.35964822943619,"transed_lat":22.68106141876345,"cityname":"深圳市","adname":"坪山区"},{"id":"B0FFH2EGEF","name":"城市街区24小时自助图书馆民治碧水龙庭服务点","type":"科教文化服务;图书馆;图书馆","typecode":"140500","address":"民丰路与民康路交叉口东50米","location":"114.046209,22.616569","transed_lng":114.04110665708994,"transed_lat":22.619300865373322,"cityname":"深圳市","adname":"龙华区"},{"id":"B0FFF4I6TM","name":"城市街区24小时自助图书馆南山前海小学服务点","type":"科教文化服务;图书馆;图书馆","typecode":"140500","address":"前海花园二期(前星路南)","location":"113.911870,22.534174","transed_lng":113.90701003209821,"transed_lat":22.53722567874306,"cityname":"深圳市","adname":"南山区"},{"id":"B02F38U3WR","name":"深圳市福田区华强北街道荔村社区图书馆","type":"科教文化服务;图书馆;图书馆","typecode":"140500","address":"华发北路56号","location":"114.089286,22.547002","transed_lng":114.08415759640964,"transed_lat":22.54968465417172,"cityname":"深圳市","adname":"福田区"},{"id":"B0FFGTHI4M","name":"城市街区24小时自助图书馆中海西岸华府服务点","type":"科教文化服务;图书馆;图书馆","typecode":"140500","address":"朗碧路西岸华府北区管理处华润万家北侧30米","location":"113.821867,22.771990","transed_lng":113.81682241490033,"transed_lat":22.774893780015226,"cityname":"深圳市","adname":"宝安区"},{"id":"B0FFGWENAH","name":"龙岗墟社区职工之家","type":"科教文化服务;图书馆;图书馆|生活服务;生活服务场所;生活服务场所","typecode":"140500|070000","address":"龙岗街道龙岗社区沙坪街8号","location":"114.276472,22.732817","transed_lng":114.27163896857134,"transed_lat":22.735634078873677,"cityname":"深圳市","adname":"龙岗区"},{"id":"B0FFFYU5LI","name":"城市街区24小时自助图书馆(玉律社区服务点)","type":"科教文化服务;图书馆;图书馆","typecode":"140500","address":"环玉路66号附近","location":"113.893908,22.716311","transed_lng":113.88902472985284,"transed_lat":22.719332496241943,"cityname":"深圳市","adname":"宝安区"},{"id":"B0FFH0YTFA","name":"自助图书馆(174金色年华家园)","type":"科教文化服务;图书馆;图书馆","typecode":"140500","address":"金色年华家园2栋","location":"114.171856,22.562290","transed_lng":114.16688006446499,"transed_lat":22.565060073862032,"cityname":"深圳市","adname":"罗湖区"},{"id":"B02F38JDYU","name":"自助图书馆蛇口新街服务点","type":"科教文化服务;图书馆;图书馆","typecode":"140500","address":"蛇口新街110号附近","location":"113.928847,22.488022","transed_lng":113.92398691554878,"transed_lat":22.491060815218194,"cityname":"深圳市","adname":"南山区"},{"id":"B0FFG6F01M","name":"深圳图书馆城市街区自助图书馆(福中一路)","type":"科教文化服务;图书馆;图书馆","typecode":"140500","address":"福中路2001号","location":"114.057064,22.546487","transed_lng":114.05195077225383,"transed_lat":22.549205433044943,"cityname":"深圳市","adname":"福田区"},{"id":"B02F37VUC8","name":"沙嘴社区图书馆","type":"科教文化服务;图书馆;图书馆","typecode":"140500","address":"沙嘴中心街72-1号2层","location":"114.037121,22.518333","transed_lng":114.03204130498354,"transed_lat":22.521095922432025,"cityname":"深圳市","adname":"福田区"},{"id":"B0FFGZ0EMJ","name":"深圳图书馆城市街区自助图书馆(华龙路)","type":"科教文化服务;图书馆;图书馆","typecode":"140500","address":"布吉街道翠枫学校门口","location":"114.104567,22.609431","transed_lng":114.0994445909236,"transed_lat":22.61210572484785,"cityname":"深圳市","adname":"龙岗区"},{"id":"B0FFG4GAQR","name":"城市街区自助图书馆(皇岗社区上围服务点)","type":"科教文化服务;图书馆;图书馆","typecode":"140500","address":"皇岗三街与皇岗二街交叉口西南100米","location":"114.061711,22.525586","transed_lng":114.05659400272933,"transed_lat":22.528297759362047,"cityname":"深圳市","adname":"福田区"},{"id":"B02F38PGWZ","name":"金地社区图书馆","type":"科教文化服务;图书馆;图书馆","typecode":"140500","address":"沙嘴路金海湾花园1栋空架层","location":"114.034299,22.519212","transed_lng":114.02922483721392,"transed_lat":22.52198199917776,"cityname":"深圳市","adname":"福田区"},{"id":"B02F38P71K","name":"罗湖区图书馆(弘法寺分馆)","type":"科教文化服务;图书馆;图书馆","typecode":"140500","address":"莲塘仙湖路160号仙湖植物园内","location":"114.181405,22.577968","transed_lng":114.17645388000375,"transed_lat":22.58075443048765,"cityname":"深圳市","adname":"罗湖区"},{"id":"B0FFFQ0GYW","name":"深圳图书馆自助图书馆渔民村服务点","type":"科教文化服务;图书馆;图书馆","typecode":"140500","address":"渔民村路39号附近","location":"114.112883,22.533447","transed_lng":114.10777550644919,"transed_lat":22.536133445759397,"cityname":"深圳市","adname":"罗湖区"},{"id":"B0FFG8ICG1","name":"安妮花阅读馆(天悦馆)","type":"科教文化服务;图书馆;图书馆","typecode":"140500","address":"宝安中心区雅兰路19号天悦龙庭A区商业街04号","location":"113.886718,22.557379","transed_lng":113.88183599160263,"transed_lat":22.5604263341088,"cityname":"深圳市","adname":"宝安区"},{"id":"B02F38K4KI","name":"城市街区24小时自助图书馆公明文化体育中心服务点","type":"科教文化服务;图书馆;图书馆","typecode":"140500","address":"迎福街与集美路交叉口西北50米公明文化体育中心","location":"113.891440,22.783319","transed_lng":113.88654968503441,"transed_lat":22.78631893762818,"cityname":"深圳市","adname":"宝安区"},{"id":"B0FFHZB9T2","name":"深圳少年儿童图书馆蒲公英劳务工子女大浪分馆","type":"科教文化服务;图书馆;图书馆","typecode":"140500","address":"元芬路1元芬大厦","location":"114.007174,22.652748","transed_lng":114.00215407432651,"transed_lat":22.65557840580328,"cityname":"深圳市","adname":"龙华区"},{"id":"B0FFHDEK5L","name":"龙岗图书馆(布吉自助分馆)","type":"科教文化服务;图书馆;图书馆","typecode":"140500","address":"星火路","location":"114.133310,22.619669","transed_lng":114.12823307832387,"transed_lat":22.622366028236556,"cityname":"深圳市","adname":"龙岗区"},{"id":"B02F38SYAE","name":"福田社区图书馆","type":"科教文化服务;图书馆;图书馆","typecode":"140500","address":"福祥路89号环庆文化广场室内活动中心","location":"114.079745,22.534348","transed_lng":114.07461679383401,"transed_lat":22.53703728656139,"cityname":"深圳市","adname":"福田区"},{"id":"B0FFGK1IEB","name":"深圳城市街区自助图书馆59号机","type":"科教文化服务;图书馆;图书馆","typecode":"140500","address":"暨南大学深圳旅游学院内","location":"113.985789,22.539450","transed_lng":113.98083008510096,"transed_lat":22.542360214966912,"cityname":"深圳市","adname":"南山区"},{"id":"B0FFFTA189","name":"美斯学谷爱心图书馆","type":"科教文化服务;图书馆;图书馆","typecode":"140500","address":"梅龙路绿景1866美斯学谷2层","location":"114.030519,22.626170","transed_lng":114.02544574853111,"transed_lat":22.62893848653373,"cityname":"深圳市","adname":"龙华区"},{"id":"B0FFHHTRIS","name":"布心社区自助图书馆","type":"科教文化服务;图书馆;图书馆","typecode":"140500","address":"布心村111号布心大厦","location":"114.139196,22.574943","transed_lng":114.13413499860451,"transed_lat":22.577654461884528,"cityname":"深圳市","adname":"罗湖区"},{"id":"B0FFGOGPXC","name":"宝安图书馆(宝安区政务信息查询中心北)","type":"科教文化服务;图书馆;图书馆","typecode":"140500","address":"宝城4区新安二路72号(近环星电影院)","location":"113.910943,22.559289","transed_lng":113.9060812133452,"transed_lat":22.56233924139537,"cityname":"深圳市","adname":"宝安区"},{"id":"B02F38J5ZC","name":"黄沙坑居民小组图书室","type":"科教文化服务;图书馆;图书馆","typecode":"140500","address":"黄沙坑西八巷1号","location":"114.339348,22.675041","transed_lng":114.33444288699643,"transed_lat":22.677770252951944,"cityname":"深圳市","adname":"坪山区"},{"id":"B02F38TE8W","name":"深圳市城市街区自助图书馆","type":"科教文化服务;图书馆;图书馆","typecode":"140500","address":"贝丽南路48号附近","location":"114.127718,22.565492","transed_lng":114.12263320844677,"transed_lat":22.56818925838066,"cityname":"深圳市","adname":"罗湖区"},{"id":"B0FFH3SVZZ","name":"深圳市福田区福保街道图书馆","type":"科教文化服务;图书馆;图书馆","typecode":"140500","address":"海虹道与绒花路交叉口西北50米","location":"114.052108,22.508299","transed_lng":114.04700372630914,"transed_lat":22.51102861079098,"cityname":"深圳市","adname":"福田区"},{"id":"B02F37VLNJ","name":"宝安区图书馆民治樟坑分馆","type":"科教文化服务;图书馆;图书馆","typecode":"140500","address":"樟坑二区一巷樟坑2区1巷03栋附近","location":"114.036473,22.615698","transed_lng":114.03138825024469,"transed_lat":22.618452890915673,"cityname":"深圳市","adname":"龙华区"},{"id":"B0FFH84633","name":"龙·岗图书馆南坑自助分馆","type":"科教文化服务;图书馆;图书馆","typecode":"140500","address":"坂田南坑老村八巷1号(五和大道东)","location":"114.062863,22.614305","transed_lng":114.05773909250598,"transed_lat":22.617005805051175,"cityname":"深圳市","adname":"龙岗区"},{"id":"B0FFFA1XQA","name":"宝安流动图书馆(西乡福中福分馆)","type":"科教文化服务;图书馆;图书馆","typecode":"140500","address":"宝源路1026号附近","location":"113.872949,22.564021","transed_lng":113.86804383207652,"transed_lat":22.567055471907956,"cityname":"深圳市","adname":"宝安区"},{"id":"B0FFH8UC5W","name":"深圳图书馆城市街区自助图书馆","type":"科教文化服务;图书馆;图书馆","typecode":"140500","address":"浪宁路与浪静路交叉口南200米","location":"113.986790,22.696844","transed_lng":113.98181854240735,"transed_lat":22.69972569907385,"cityname":"深圳市","adname":"龙华区"},{"id":"B0FFIR8GU3","name":"深圳市龙华区人民医院图书馆","type":"科教文化服务;图书馆;图书馆","typecode":"140500","address":"建设路45号附近","location":"114.034372,22.655406","transed_lng":114.02928885091953,"transed_lat":22.658158852458996,"cityname":"深圳市","adname":"龙华区"},{"id":"B02F38PH2D","name":"天安社区图书馆","type":"科教文化服务;图书馆;图书馆","typecode":"140500","address":"天安数码城h4.8栋顺泰公寓1楼","location":"114.033008,22.528835","transed_lng":114.02793584860973,"transed_lat":22.53160790913151,"cityname":"深圳市","adname":"福田区"},{"id":"B0FFG7NDV2","name":"城市街区24小时自助图书馆(民福路)","type":"科教文化服务;图书馆;图书馆","typecode":"140500","address":"民福路31-4号","location":"114.035702,22.620515","transed_lng":114.03061845677908,"transed_lat":22.62327103513497,"cityname":"深圳市","adname":"龙华区"},{"id":"B0FFH0YW48","name":"自助图书馆(汇泰大厦北)","type":"科教文化服务;图书馆;图书馆","typecode":"140500","address":"沿河南路与南湖路交叉口西北角","location":"114.122021,22.534684","transed_lng":114.11692770259528,"transed_lat":22.537377619079262,"cityname":"深圳市","adname":"罗湖区"},{"id":"B0FFGJ8YCF","name":"深圳市第六人民医院南山医院图书馆","type":"科教文化服务;图书馆;图书馆","typecode":"140500","address":"桃园路95号附近","location":"113.922873,22.531009","transed_lng":113.91801284087772,"transed_lat":22.53405321564382,"cityname":"深圳市","adname":"南山区"},{"id":"B0FFG8V914","name":"深圳市龙岗区图书馆坂田分馆","type":"科教文化服务;图书馆;图书馆","typecode":"140500","address":"发达路与环城路交叉口西南100米","location":"114.078586,22.630738","transed_lng":114.07345172149807,"transed_lat":22.633416802684817,"cityname":"深圳市","adname":"龙岗区"},{"id":"B0FFH27E6D","name":"城市街区自助图书馆(泰然一路)","type":"科教文化服务;图书馆;图书馆","typecode":"140500","address":"泰然四路4号","location":"114.032751,22.535456","transed_lng":114.02767895000358,"transed_lat":22.538229219935058,"cityname":"深圳市","adname":"福田区"},{"id":"B02F38PHC2","name":"宝安图书馆(新安大浪分馆)","type":"科教文化服务;图书馆;图书馆","typecode":"140500","address":"新安三路与新安三路一巷交叉口东北50米","location":"113.909047,22.576716","transed_lng":113.90418350652601,"transed_lat":22.57976517246864,"cityname":"深圳市","adname":"宝安区"},{"id":"B0FFH4VEUH","name":"南湖街道·新南社区图书馆","type":"科教文化服务;图书馆;图书馆","typecode":"140500","address":"春风路2010-1号附近","location":"114.129985,22.542610","transed_lng":114.12490618976933,"transed_lat":22.54531184248908,"cityname":"深圳市","adname":"罗湖区"},{"id":"B0FFH20CL0","name":"自助图书馆(201大鹏文体中心)","type":"科教文化服务;图书馆;图书馆","typecode":"140500","address":"中山路大鹏文化广场内","location":"114.476121,22.595679","transed_lng":114.47132869311868,"transed_lat":22.598467099596682,"cityname":"深圳市","adname":"龙岗区"},{"id":"B0FFHKG5NH","name":"宝安社区阅读中心(沙四高新园)","type":"科教文化服务;图书馆;图书馆","typecode":"140500","address":"帝堂路沙四高新科技园内","location":"113.788443,22.745240","transed_lng":113.78331890076566,"transed_lat":22.748096712868765,"cityname":"深圳市","adname":"宝安区"},{"id":"B0FFH2EMXM","name":"深圳图书馆城市街区自助图书馆","type":"科教文化服务;图书馆;图书馆","typecode":"140500","address":"愉龙路138號附近","location":"114.223723,22.723494","transed_lng":114.21885855466287,"transed_lat":22.726314327796704,"cityname":"深圳市","adname":"龙岗区"},{"id":"B0FFG8F2X9","name":"简.阅书吧","type":"科教文化服务;图书馆;图书馆","typecode":"140500","address":"光明新区光明街道华夏路群众体育中心","location":"113.947968,22.748076","transed_lng":113.94307209350399,"transed_lat":22.751042636245266,"cityname":"深圳市","adname":"宝安区"},{"id":"B02F38SW2Z","name":"滨河社区图书馆","type":"科教文化服务;图书馆;图书馆","typecode":"140500","address":"滨河大道3099号汇港名苑北2栋4层","location":"114.083680,22.530103","transed_lng":114.0785517967691,"transed_lat":22.532789621771162,"cityname":"深圳市","adname":"福田区"},{"id":"B0FFFYTUY0","name":"深圳市丹坑图书室","type":"科教文化服务;图书馆;图书馆","typecode":"140500","address":"泗黎路东200米深港莫氏联谊会附近","location":"114.042978,22.714841","transed_lng":114.03787471124022,"transed_lat":22.71755854830759,"cityname":"深圳市","adname":"龙华区"},{"id":"B02F38SXT2","name":"梅岭社区图书馆","type":"科教文化服务;图书馆;图书馆","typecode":"140500","address":"香梅路1026号","location":"114.042572,22.542364","transed_lng":114.03748065620982,"transed_lat":22.545112614861964,"cityname":"深圳市","adname":"福田区"},{"id":"B0FFG0JFXF","name":"城市街区24小时自助图书馆西乡街道F518时尚创意园服务点","type":"科教文化服务;图书馆;图书馆","typecode":"140500","address":"劳动路536号附近","location":"113.862106,22.566188","transed_lng":113.85717814302554,"transed_lat":22.569208222817696,"cityname":"深圳市","adname":"宝安区"},{"id":"B0FFF4N4P6","name":"深圳图书馆城市街区自助图书馆(南山南油社区公园服务点)","type":"科教文化服务;图书馆;图书馆","typecode":"140500","address":"华明路与南商路交叉口西100米","location":"113.927124,22.507522","transed_lng":113.92226361922343,"transed_lat":22.5105626719474,"cityname":"深圳市","adname":"南山区"},{"id":"B02F38JKZU","name":"蒲公英劳务工子女图书馆(大浪分馆)","type":"科教文化服务;图书馆;图书馆","typecode":"140500","address":"元芬路1元芬大厦","location":"114.007069,22.652737","transed_lng":114.00204933889506,"transed_lat":22.655567724327806,"cityname":"深圳市","adname":"龙华区"},{"id":"B02F38I801","name":"深圳南山图书馆·赤湾分馆","type":"科教文化服务;图书馆;图书馆","typecode":"140500","address":"招商街道赤湾六路南开综合楼3层","location":"113.889791,22.480149","transed_lng":113.88491791018066,"transed_lat":22.483200863359077,"cityname":"深圳市","adname":"南山区"},{"id":"B0FFH1X2SO","name":"自助图书馆(115龙城国际)","type":"科教文化服务;图书馆;图书馆","typecode":"140500","address":"龙城国际10栋架空层","location":"114.232475,22.724099","transed_lng":114.22762363502027,"transed_lat":22.726926144643365,"cityname":"深圳市","adname":"龙岗区"},{"id":"B0FFHEXBKL","name":"城市街区24小时自助图书馆(市工人文化宫服务点)","type":"科教文化服务;图书馆;图书馆","typecode":"140500","address":"新园路5号深圳市工人文化宫内","location":"114.115875,22.546707","transed_lng":114.11077094954709,"transed_lat":22.549394618350018,"cityname":"深圳市","adname":"罗湖区"},{"id":"B02F38PGNF","name":"深圳职业技术学院东区图书馆","type":"科教文化服务;图书馆;图书馆","typecode":"140500","address":"西丽留仙大道2190号职业技术学院东校区内","location":"113.952688,22.585899","transed_lng":113.94779529165977,"transed_lat":22.588891459688654,"cityname":"深圳市","adname":"南山区"},{"id":"B0FFG9LVP2","name":"宝安区图书馆福永街道分馆","type":"科教文化服务;图书馆;图书馆","typecode":"140500","address":"怀德南路与翠岗西路交汇处福永群众文化艺术馆一楼","location":"113.820995,22.664069","transed_lng":113.81595506183592,"transed_lat":22.667000876394372,"cityname":"深圳市","adname":"宝安区"},{"id":"B0FFFSO0ZB","name":"宝安社区阅读中心","type":"科教文化服务;图书馆;图书馆","typecode":"140500","address":"2巷8号","location":"113.821681,22.731773","transed_lng":113.81663852116402,"transed_lat":22.734688874549047,"cityname":"深圳市","adname":"宝安区"},{"id":"B02F38SIVS","name":"福民社区图书馆(福港路)","type":"科教文化服务;图书馆;图书馆","typecode":"140500","address":"福强路星河华居西座2层","location":"114.070947,22.523647","transed_lng":114.0658227867683,"transed_lat":22.526345794756182,"cityname":"深圳市","adname":"福田区"},{"id":"B02F38PGDM","name":"梅岗社区图书馆","type":"科教文化服务;图书馆;图书馆","typecode":"140500","address":"梅岗路4号华富北市场综合楼北座3层","location":"114.083598,22.556558","transed_lng":114.0784680694448,"transed_lat":22.559242861460135,"cityname":"深圳市","adname":"福田区"},{"id":"B0FFJ28DRZ","name":"光明区图书馆(书香亭GMS032)","type":"科教文化服务;图书馆;图书馆","typecode":"140500","address":"华夏路39光明中心医院附近","location":"113.943692,22.752003","transed_lng":113.93880153868513,"transed_lat":22.754976575510263,"cityname":"深圳市","adname":"宝安区"},{"id":"B0FFJ4ZXCX","name":"光明区图书馆(书香亭GMS037)","type":"科教文化服务;图书馆;图书馆","typecode":"140500","address":"凤新路","location":"113.949500,22.776758","transed_lng":113.94460004270985,"transed_lat":22.779712394747133,"cityname":"深圳市","adname":"宝安区"},{"id":"B0FFJ5FBC7","name":"光明区图书馆(书香亭GMS009)","type":"科教文化服务;图书馆;图书馆","typecode":"140500","address":"上石家路与将裕街交叉口北150米","location":"113.901101,22.763568","transed_lng":113.89622124927743,"transed_lat":22.766576764448196,"cityname":"深圳市","adname":"宝安区"},{"id":"B0FFJ5JPO4","name":"光明区图书馆(书香亭GMS039)","type":"科教文化服务;图书馆;图书馆","typecode":"140500","address":"公常路182号","location":"113.930829,22.780920","transed_lng":113.92594910523572,"transed_lat":22.78390434067021,"cityname":"深圳市","adname":"宝安区"},{"id":"B0FFJ4KTPJ","name":"光明区图书馆(书香亭GMS043)","type":"科教文化服务;图书馆;图书馆","typecode":"140500","address":"福庄路32号","location":"113.875981,22.782871","transed_lng":113.87106751708745,"transed_lat":22.785859560598624,"cityname":"深圳市","adname":"宝安区"},{"id":"B0FFJ3RSEP","name":"光明区图书馆(书香亭GMS031)","type":"科教文化服务;图书馆;图书馆","typecode":"140500","address":"西田路56号","location":"113.900719,22.800130","transed_lng":113.89583663270915,"transed_lat":22.803126469536068,"cityname":"深圳市","adname":"宝安区"},{"id":"B02F38SSY5","name":"深圳图书馆城市街区自助图书馆(南山鼎太风华服务点)","type":"科教文化服务;图书馆;图书馆","typecode":"140500","address":"南园村新六坊3号","location":"113.912533,22.519139","transed_lng":113.90767412198682,"transed_lat":22.522191071556723,"cityname":"深圳市","adname":"南山区"},{"id":"B0FFJ1AUPL","name":"光明区图书馆(书香亭GMS049)","type":"科教文化服务;图书馆;图书馆","typecode":"140500","address":"凤新路","location":"113.952005,22.786062","transed_lng":113.94710062266388,"transed_lat":22.789008042175517,"cityname":"深圳市","adname":"宝安区"},{"id":"B02F38SUUU","name":"圩镇社区图书馆","type":"科教文化服务;图书馆;图书馆","typecode":"140500","address":"福田南路22号福滨苑3层","location":"114.078635,22.531580","transed_lng":114.07350718642383,"transed_lat":22.534270380856334,"cityname":"深圳市","adname":"福田区"},{"id":"B02F38T1HP","name":"莲花二村社区图书馆","type":"科教文化服务;图书馆;图书馆","typecode":"140500","address":"莲花二村3栋底层","location":"114.071522,22.551205","transed_lng":114.06639566346928,"transed_lat":22.553901428960454,"cityname":"深圳市","adname":"福田区"},{"id":"B02F38TEZK","name":"湖贝图书室","type":"科教文化服务;图书馆;图书馆","typecode":"140500","address":[],"location":"114.128657,22.547841","transed_lng":114.12357519623365,"transed_lat":22.55054087338989,"cityname":"深圳市","adname":"罗湖区"},{"id":"B02F38SW1B","name":"紫荆社区图书馆","type":"科教文化服务;图书馆;图书馆","typecode":"140500","address":"景田东路香蜜三村香怡阁首层","location":"114.046985,22.546406","transed_lng":114.04188596597707,"transed_lat":22.54914444097368,"cityname":"深圳市","adname":"福田区"},{"id":"B0FFF4COW3","name":"深圳图书馆城市街区自助图书馆(香蜜湖香域中央花园服务点·56号机)","type":"科教文化服务;图书馆;图书馆","typecode":"140500","address":"农园路香域中央花园小区西门","location":"114.018288,22.548480","transed_lng":114.01324749248884,"transed_lat":22.55129226028549,"cityname":"深圳市","adname":"福田区"},{"id":"B02F37ULY7","name":"福田区华富街道华航社区图书馆","type":"科教文化服务;图书馆;图书馆","typecode":"140500","address":"振华路海外装饰大院3号楼1层","location":"114.08238,22.545116","transed_lng":114.07725082564338,"transed_lat":22.54780258427648,"cityname":"深圳市","adname":"福田区"},{"id":"B02F37VPNT","name":"鹅公岭社区图书馆","type":"科教文化服务;图书馆;图书馆","typecode":"140500","address":"园岭南路1号","location":"114.155319,22.676961","transed_lng":114.15029122561795,"transed_lat":22.679681405354877,"cityname":"深圳市","adname":"龙岗区"},{"id":"B02F38JOFT","name":"城市街区24小时自助图书馆(龙城新秀新村服务点)","type":"科教文化服务;图书馆;图书馆","typecode":"140500","address":"平安里一路27号","location":"114.219387,22.723540","transed_lng":114.21451500552588,"transed_lat":22.726355903807345,"cityname":"深圳市","adname":"龙岗区"},{"id":"B0FFIIT6I2","name":"宝安社区阅读中心","type":"科教文化服务;图书馆;图书馆","typecode":"140500","address":"富通路25号附近","location":"113.830161,22.715571","transed_lng":113.8251424224465,"transed_lat":22.718507481273424,"cityname":"深圳市","adname":"宝安区"},{"id":"B02F38RTUL","name":"深圳图书馆城市街区自助图书馆尚景社区服务点","type":"科教文化服务;图书馆;图书馆","typecode":"140500","address":"松仔岭二路145号","location":"114.244894,22.727074","transed_lng":114.24005585825687,"transed_lat":22.729905492474362,"cityname":"深圳市","adname":"龙岗区"},{"id":"B02F37SOD6","name":"同乐社区图书馆","type":"科教文化服务;图书馆;图书馆","typecode":"140500","address":"龙岗街道","location":"114.313943,22.713475","transed_lng":114.30907338903063,"transed_lat":22.716242505934456,"cityname":"深圳市","adname":"龙岗区"},{"id":"B0FFH1X3H3","name":"深圳市福田区莲花街道福中社区图书馆","type":"科教文化服务;图书馆;图书馆","typecode":"140500","address":"福中路和彩田路交汇处深业花园会所二楼","location":"114.067392,22.545392","transed_lng":114.06226873559723,"transed_lat":22.54809414948088,"cityname":"深圳市","adname":"福田区"},{"id":"B0FFH15IJH","name":"深圳图书馆城市街区自助图书馆101号机","type":"科教文化服务;图书馆;图书馆","typecode":"140500","address":"创业路与前海路交口西100米路南","location":"113.912630,22.519070","transed_lng":113.90777114526462,"transed_lat":22.522122027728887,"cityname":"深圳市","adname":"南山区"},{"id":"B02F38IT89","name":"三洋湖居民小组图书室","type":"科教文化服务;图书馆;图书馆","typecode":"140500","address":"三洋湖路23-8","location":"114.353758,22.688462","transed_lng":114.34883200464041,"transed_lat":22.69116256205565,"cityname":"深圳市","adname":"坪山区"},{"id":"B02F38PHFU","name":"罗湖区图书馆(桂园街道分馆)","type":"科教文化服务;图书馆;图书馆","typecode":"140500","address":"松园路68号鸿翔花园7栋A座四楼","location":"114.105678,22.554937","transed_lng":114.10056030143807,"transed_lat":22.55761853731939,"cityname":"深圳市","adname":"罗湖区"},{"id":"B0FFG9LPVG","name":"坪山新区24小时图书馆中心小学服务点","type":"科教文化服务;图书馆;图书馆","typecode":"140500","address":"东纵路365-1号附近","location":"114.344399,22.686580","transed_lng":114.33948580315709,"transed_lat":22.68929724849917,"cityname":"深圳市","adname":"坪山区"},{"id":"B02F38JFJ3","name":"深圳市宝安区劳务工图书馆(华旺路)","type":"科教文化服务;图书馆;图书馆","typecode":"140500","address":"大浪街道赖屋山东区81栋2层","location":"113.994508,22.673646","transed_lng":113.98951877086617,"transed_lat":22.676510204580232,"cityname":"深圳市","adname":"龙华区"},{"id":"B02F38JEZS","name":"深圳市龙岗区图书馆(大鹏分馆)","type":"科教文化服务;图书馆;图书馆","typecode":"140500","address":"迎宾南路8号","location":"114.481215,22.589583","transed_lng":114.47644037091247,"transed_lat":22.592386325448555,"cityname":"深圳市","adname":"龙岗区"},{"id":"B02F37VMJB","name":"沙湖社区图书馆","type":"科教文化服务;图书馆;图书馆","typecode":"140500","address":"沙湖路沙湖市场","location":"114.321573,22.673973","transed_lng":114.31669476851657,"transed_lat":22.676736212036946,"cityname":"深圳市","adname":"坪山区"},{"id":"B02F37VQWF","name":"白泥坑村图书馆","type":"科教文化服务;图书馆;图书馆","typecode":"140500","address":"白银路81号","location":"114.156079,22.653454","transed_lng":114.1510547402544,"transed_lat":22.656180936560634,"cityname":"深圳市","adname":"龙岗区"},{"id":"B02F38RTY1","name":"东民社区图书室","type":"科教文化服务;图书馆;图书馆","typecode":"140500","address":"太安路47号","location":"114.141413,22.570568","transed_lng":114.13635742707253,"transed_lat":22.573283270066383,"cityname":"深圳市","adname":"罗湖区"},{"id":"B02F37VIMK","name":"宝安区图书馆光明迳口分馆","type":"科教文化服务;图书馆;图书馆","typecode":"140500","address":"178乡道南50米","location":"113.966857,22.764304","transed_lng":113.9619268245891,"transed_lat":22.767222010851714,"cityname":"深圳市","adname":"宝安区"},{"id":"B02F38U8VR","name":"深圳市医学信息中心电子阅览室","type":"科教文化服务;图书馆;图书馆","typecode":"140500","address":"人民医院内部","location":"114.127304,22.556375","transed_lng":114.1222189985982,"transed_lat":22.559072619605136,"cityname":"深圳市","adname":"罗湖区"},{"id":"B02F37U8DL","name":"南头城社区群众活动中心青少年科普图书室","type":"科教文化服务;图书馆;图书馆","typecode":"140500","address":"南山大道3057-1号附近","location":"113.923095,22.543837","transed_lng":113.91823396347202,"transed_lat":22.546880227075995,"cityname":"深圳市","adname":"南山区"},{"id":"B02F38JGLO","name":"大浪街道劳务工读书社","type":"科教文化服务;图书馆;图书馆","typecode":"140500","address":"华旺路73号深圳市龙华区大浪街道图书馆(华旺路)附近","location":"113.994504,22.673642","transed_lng":113.98951478121697,"transed_lat":22.676506217580258,"cityname":"深圳市","adname":"龙华区"},{"id":"B02F38IZAM","name":"固戍社区图书馆","type":"科教文化服务;图书馆;图书馆","typecode":"140500","address":"固戍一路890号","location":"113.844555,22.591376","transed_lng":113.83958273774778,"transed_lat":22.594364621636807,"cityname":"深圳市","adname":"宝安区"},{"id":"B02F38SN74","name":"竹园社区图书馆","type":"科教文化服务;图书馆;图书馆","typecode":"140500","address":"竹园小区18号","location":"114.016938,22.537308","transed_lng":114.01190144646704,"transed_lat":22.5401249405473,"cityname":"深圳市","adname":"福田区"},{"id":"B02F38IU6T","name":"龙西社区图书室","type":"科教文化服务;图书馆;图书馆","typecode":"140500","address":"龙西中路169号附近","location":"114.247973,22.747234","transed_lng":114.24313591634727,"transed_lat":22.750059918955568,"cityname":"深圳市","adname":"龙岗区"},{"id":"B02F38IPIY","name":"大万居民小组图书室","type":"科教文化服务;图书馆;图书馆","typecode":"140500","address":"同富路18号附近","location":"114.342807,22.684360","transed_lng":114.33789623064993,"transed_lat":22.687080676294944,"cityname":"深圳市","adname":"坪山区"},{"id":"B02F38U3TC","name":"宝安图书馆(新安兴东分馆)","type":"科教文化服务;图书馆;图书馆","typecode":"140500","address":"兴东社区留仙二路2巷18号2层","location":"113.917110,22.582115","transed_lng":113.91224754490278,"transed_lat":22.58515951579195,"cityname":"深圳市","adname":"宝安区"},{"id":"B02F38JEEA","name":"龙岗区图书馆(南澳分馆)","type":"科教文化服务;图书馆;图书馆","typecode":"140500","address":"人民路2号","location":"114.493424,22.533999","transed_lng":114.48869569546117,"transed_lat":22.536843472262927,"cityname":"深圳市","adname":"龙岗区"},{"id":"B02F37W1YQ","name":"禾场头居民小组图书室","type":"科教文化服务;图书馆;图书馆","typecode":"140500","address":"塘岭路与禾场头路交叉口东50米","location":"114.350781,22.67955","transed_lng":114.34585944934324,"transed_lat":22.682257713184416,"cityname":"深圳市","adname":"坪山区"},{"id":"B02F38JPV9","name":"龙岗区图书馆葵涌分馆","type":"科教文化服务;图书馆;图书馆","typecode":"140500","address":"葵新南路173号","location":"114.422112,22.630374","transed_lng":114.41718286784847,"transed_lat":22.633051016367606,"cityname":"深圳市","adname":"龙岗区"},{"id":"B0FFGIB66M","name":"南山图书馆-少儿阅览室","type":"科教文化服务;图书馆;图书馆","typecode":"140500","address":"常兴路176号南山图书馆","location":"113.922096,22.534776","transed_lng":113.91723582162203,"transed_lat":22.537820727539692,"cityname":"深圳市","adname":"南山区"},{"id":"B0FFGIB66A","name":"南山图书馆法律咨询室","type":"科教文化服务;图书馆;图书馆","typecode":"140500","address":"常兴路176-5号","location":"113.921946,22.534875","transed_lng":113.91708585422707,"transed_lat":22.537919857363775,"cityname":"深圳市","adname":"南山区"}]
