[{"id":"B02F38U5JT","name":"深圳南山青铜博物馆","type":"科教文化服务;博物馆;博物馆","typecode":"140100","address":"景行路与沿湖道交叉口东北100米","location":"113.920901,22.548159","transed_lng":113.9160402564913,"transed_lat":22.551203895524104,"cityname":"深圳市","adname":"南山区"},{"id":"B02F38IRTR","name":"深圳博物馆(福中路)","type":"科教文化服务;博物馆;博物馆","typecode":"140100","address":"福中路市民中心A区","location":"114.061622,22.544005","transed_lng":114.05650389311782,"transed_lat":22.546715847205533,"cityname":"深圳市","adname":"福田区"},{"id":"B02F37UQH8","name":"钢琴博物馆","type":"科教文化服务;博物馆;博物馆","typecode":"140100","address":"东园路152号国企大厦裙楼4层","location":"114.096738,22.538356","transed_lng":114.09161369702336,"transed_lat":22.541037551113963,"cityname":"深圳市","adname":"福田区"},{"id":"B02F37VJ2Y","name":"深圳(宝安)劳务工博物馆","type":"科教文化服务;博物馆;博物馆","typecode":"140100","address":"永和路6号","location":"113.932787,22.684725","transed_lng":113.92791181543616,"transed_lat":22.68773467922254,"cityname":"深圳市","adname":"宝安区"},{"id":"B02F37SHBK","name":"南头古城博物馆","type":"科教文化服务;博物馆;博物馆","typecode":"140100","address":"南头较场2号","location":"113.920018,22.540863","transed_lng":113.91515787975425,"transed_lat":22.54390914211065,"cityname":"深圳市","adname":"南山区"},{"id":"B02F38IHJ8","name":"天后博物馆(赤湾六路)","type":"科教文化服务;博物馆;博物馆","typecode":"140100","address":"蛇口赤湾六路9号","location":"113.892438,22.478105","transed_lng":113.88756819309454,"transed_lat":22.48115804076251,"cityname":"深圳市","adname":"南山区"},{"id":"B02F37SQ4S","name":"下沙博物馆","type":"科教文化服务;博物馆;博物馆","typecode":"140100","address":"大围路与1路交叉口","location":"114.02505,22.526705","transed_lng":114.01999518722904,"transed_lat":22.529499397193,"cityname":"深圳市","adname":"福田区"},{"id":"B02F38J2NO","name":"深圳大鹏半岛国家地质公园博物馆","type":"科教文化服务;博物馆;博物馆","typecode":"140100","address":"大鹏半岛国家地质公园内","location":"114.530996,22.528941","transed_lng":114.52639697535383,"transed_lat":22.531895048228012,"cityname":"深圳市","adname":"龙岗区"},{"id":"B0FFHGNSHO","name":"深圳博物馆(装修中)","type":"科教文化服务;博物馆;博物馆","typecode":"140100","address":"同心路6号","location":"114.101613,22.542414","transed_lng":114.09649216663827,"transed_lat":22.545095513025508,"cityname":"深圳市","adname":"福田区"},{"id":"B0FFHK6118","name":"田黄博物馆","type":"科教文化服务;博物馆;博物馆","typecode":"140100","address":"福强路4001号文化创意园A座","location":"114.044860,22.518534","transed_lng":114.03976626513982,"transed_lat":22.521278633670338,"cityname":"深圳市","adname":"福田区"},{"id":"B02F38OXZN","name":"深圳古生物博物馆","type":"科教文化服务;博物馆;博物馆","typecode":"140100","address":"仙湖路160号","location":"114.177615,22.58445","transed_lng":114.1726532688986,"transed_lat":22.587228573544603,"cityname":"深圳市","adname":"罗湖区"},{"id":"B02F37VFSN","name":"招商局历史博物馆","type":"科教文化服务;博物馆;博物馆","typecode":"140100","address":"沿山路21招商局档案馆","location":"113.913237,22.491192","transed_lng":113.90838001049191,"transed_lat":22.49424422417612,"cityname":"深圳市","adname":"南山区"},{"id":"B02F37VRWA","name":"大鹏所城博物馆","type":"科教文化服务;博物馆;博物馆","typecode":"140100","address":"大鹏镇鹏城村赖府巷10号","location":"114.513259,22.595091","transed_lng":114.50859716554943,"transed_lat":22.597989091542466,"cityname":"深圳市","adname":"龙岗区"},{"id":"B0FFH70SRK","name":"藏乐阁博物馆","type":"科教文化服务;博物馆;博物馆","typecode":"140100","address":"侨香路1011号深圳1979","location":"114.031155,22.552757","transed_lng":114.02608516189726,"transed_lat":22.555533195885083,"cityname":"深圳市","adname":"福田区"},{"id":"B0FFH0JQ0W","name":"至正艺术博物馆","type":"科教文化服务;博物馆;博物馆","typecode":"140100","address":"新世界中心5层","location":"114.055539,22.545228","transed_lng":114.05042773810565,"transed_lat":22.5479493047656,"cityname":"深圳市","adname":"福田区"},{"id":"B02F37VRWH","name":"中英街历史博物馆(装修中)","type":"科教文化服务;博物馆;博物馆","typecode":"140100","address":"沙头角镇内环城路9号","location":"114.231087,22.541682","transed_lng":114.22624533527309,"transed_lat":22.54454100032431,"cityname":"深圳市","adname":"盐田区"},{"id":"B02F38IGTV","name":"深圳南山法律文化博物馆","type":"科教文化服务;博物馆;博物馆","typecode":"140100","address":"玉泉路26号","location":"113.931474,22.546942","transed_lng":113.92660850838179,"transed_lat":22.549975481765472,"cityname":"深圳市","adname":"南山区"},{"id":"B02F37U134","name":"水围雅石艺术博物馆","type":"科教文化服务;博物馆;博物馆","typecode":"140100","address":"金田路1029号水围文化楼","location":"114.062941,22.52046","transed_lng":114.05782313611329,"transed_lat":22.523170027699813,"cityname":"深圳市","adname":"福田区"},{"id":"B02F37TJA3","name":"玺宝楼中国青瓷博物馆","type":"科教文化服务;博物馆;博物馆","typecode":"140100","address":"宝安南路与广场北街交叉口","location":"114.109847,22.546372","transed_lng":114.1047346800346,"transed_lat":22.549055922839077,"cityname":"深圳市","adname":"罗湖区"},{"id":"B0FFFTS6UN","name":"中国版画博物馆","type":"科教文化服务;博物馆;博物馆","typecode":"140100","address":"观澜牛湖裕新路(维重厂公交站台附近)","location":"114.086353,22.735908","transed_lng":114.08121156825433,"transed_lat":22.73855620372854,"cityname":"深圳市","adname":"龙华区"},{"id":"B0FFGAQIJ9","name":"和畅园博物馆","type":"科教文化服务;博物馆;博物馆","typecode":"140100","address":"中粮一品澜山花园8栋","location":"114.374507,22.731057","transed_lng":114.3695573249358,"transed_lat":22.733717157230927,"cityname":"深圳市","adname":"坪山区"},{"id":"B02F37VH9J","name":"龙岗客家民俗博物馆","type":"科教文化服务;博物馆;博物馆","typecode":"140100","address":"罗瑞合北街1号","location":"114.266219,22.727767","transed_lng":114.26138892272087,"transed_lat":22.730593675727818,"cityname":"深圳市","adname":"龙岗区"},{"id":"B02F37VKH1","name":"中华龙文化艺术博物馆","type":"科教文化服务;博物馆;博物馆","typecode":"140100","address":"南门围二巷8号","location":"114.514577,22.593804","transed_lng":114.50991981001586,"transed_lat":22.59670613790818,"cityname":"深圳市","adname":"龙岗区"},{"id":"B0FFH3QH6R","name":"深圳市大鹏古城博物馆","type":"科教文化服务;博物馆;博物馆","typecode":"140100","address":"鹏飞路大鹏所城(南门)旁大鹏古城小区附近","location":"114.513134,22.595484","transed_lng":114.50847170694072,"transed_lat":22.598381669775137,"cityname":"深圳市","adname":"龙岗区"},{"id":"B02F38NJNK","name":"中国茶宫茶博物馆","type":"科教文化服务;博物馆;博物馆","typecode":"140100","address":"景田北路82号中国茶宫6层","location":"114.042514,22.555041","transed_lng":114.0374219353884,"transed_lat":22.557788790871648,"cityname":"深圳市","adname":"福田区"},{"id":"B0FFFWHAMD","name":"华夏联合文化博物馆","type":"科教文化服务;博物馆;博物馆","typecode":"140100","address":"东滨路4082号","location":"113.917391,22.510791","transed_lng":113.91253303903797,"transed_lat":22.513840486475743,"cityname":"深圳市","adname":"南山区"},{"id":"B02F38IRTR","name":"深圳博物馆(福中路)","type":"科教文化服务;博物馆;博物馆","typecode":"140100","address":"福中路市民中心A区","location":"114.061622,22.544005","transed_lng":114.05650389311782,"transed_lat":22.546715847205533,"cityname":"深圳市","adname":"福田区"},{"id":"B02F37UQH8","name":"钢琴博物馆","type":"科教文化服务;博物馆;博物馆","typecode":"140100","address":"东园路152号国企大厦裙楼4层","location":"114.096738,22.538356","transed_lng":114.09161369702336,"transed_lat":22.541037551113963,"cityname":"深圳市","adname":"福田区"},{"id":"B02F37VJ2Y","name":"深圳(宝安)劳务工博物馆","type":"科教文化服务;博物馆;博物馆","typecode":"140100","address":"永和路6号","location":"113.932787,22.684725","transed_lng":113.92791181543616,"transed_lat":22.68773467922254,"cityname":"深圳市","adname":"宝安区"},{"id":"B02F37SHBK","name":"南头古城博物馆","type":"科教文化服务;博物馆;博物馆","typecode":"140100","address":"南头较场2号","location":"113.920018,22.540863","transed_lng":113.91515787975425,"transed_lat":22.54390914211065,"cityname":"深圳市","adname":"南山区"},{"id":"B02F38IHJ8","name":"天后博物馆(赤湾六路)","type":"科教文化服务;博物馆;博物馆","typecode":"140100","address":"蛇口赤湾六路9号","location":"113.892438,22.478105","transed_lng":113.88756819309454,"transed_lat":22.48115804076251,"cityname":"深圳市","adname":"南山区"},{"id":"B02F37SQ4S","name":"下沙博物馆","type":"科教文化服务;博物馆;博物馆","typecode":"140100","address":"大围路与1路交叉口","location":"114.02505,22.526705","transed_lng":114.01999518722904,"transed_lat":22.529499397193,"cityname":"深圳市","adname":"福田区"},{"id":"B02F38J2NO","name":"深圳大鹏半岛国家地质公园博物馆","type":"科教文化服务;博物馆;博物馆","typecode":"140100","address":"大鹏半岛国家地质公园内","location":"114.530996,22.528941","transed_lng":114.52639697535383,"transed_lat":22.531895048228012,"cityname":"深圳市","adname":"龙岗区"},{"id":"B0FFHGNSHO","name":"深圳博物馆(装修中)","type":"科教文化服务;博物馆;博物馆","typecode":"140100","address":"同心路6号","location":"114.101613,22.542414","transed_lng":114.09649216663827,"transed_lat":22.545095513025508,"cityname":"深圳市","adname":"福田区"},{"id":"B0FFHK6118","name":"田黄博物馆","type":"科教文化服务;博物馆;博物馆","typecode":"140100","address":"福强路4001号文化创意园A座","location":"114.044860,22.518534","transed_lng":114.03976626513982,"transed_lat":22.521278633670338,"cityname":"深圳市","adname":"福田区"},{"id":"B02F38OXZN","name":"深圳古生物博物馆","type":"科教文化服务;博物馆;博物馆","typecode":"140100","address":"仙湖路160号","location":"114.177615,22.58445","transed_lng":114.1726532688986,"transed_lat":22.587228573544603,"cityname":"深圳市","adname":"罗湖区"},{"id":"B02F37VFSN","name":"招商局历史博物馆","type":"科教文化服务;博物馆;博物馆","typecode":"140100","address":"沿山路21招商局档案馆","location":"113.913237,22.491192","transed_lng":113.90838001049191,"transed_lat":22.49424422417612,"cityname":"深圳市","adname":"南山区"},{"id":"B02F37VRWA","name":"大鹏所城博物馆","type":"科教文化服务;博物馆;博物馆","typecode":"140100","address":"大鹏镇鹏城村赖府巷10号","location":"114.513259,22.595091","transed_lng":114.50859716554943,"transed_lat":22.597989091542466,"cityname":"深圳市","adname":"龙岗区"},{"id":"B0FFH70SRK","name":"藏乐阁博物馆","type":"科教文化服务;博物馆;博物馆","typecode":"140100","address":"侨香路1011号深圳1979","location":"114.031155,22.552757","transed_lng":114.02608516189726,"transed_lat":22.555533195885083,"cityname":"深圳市","adname":"福田区"},{"id":"B0FFH0JQ0W","name":"至正艺术博物馆","type":"科教文化服务;博物馆;博物馆","typecode":"140100","address":"新世界中心5层","location":"114.055539,22.545228","transed_lng":114.05042773810565,"transed_lat":22.5479493047656,"cityname":"深圳市","adname":"福田区"},{"id":"B02F37VRWH","name":"中英街历史博物馆(装修中)","type":"科教文化服务;博物馆;博物馆","typecode":"140100","address":"沙头角镇内环城路9号","location":"114.231087,22.541682","transed_lng":114.22624533527309,"transed_lat":22.54454100032431,"cityname":"深圳市","adname":"盐田区"},{"id":"B02F38IGTV","name":"深圳南山法律文化博物馆","type":"科教文化服务;博物馆;博物馆","typecode":"140100","address":"玉泉路26号","location":"113.931474,22.546942","transed_lng":113.92660850838179,"transed_lat":22.549975481765472,"cityname":"深圳市","adname":"南山区"},{"id":"B02F37U134","name":"水围雅石艺术博物馆","type":"科教文化服务;博物馆;博物馆","typecode":"140100","address":"金田路1029号水围文化楼","location":"114.062941,22.52046","transed_lng":114.05782313611329,"transed_lat":22.523170027699813,"cityname":"深圳市","adname":"福田区"},{"id":"B02F37TJA3","name":"玺宝楼中国青瓷博物馆","type":"科教文化服务;博物馆;博物馆","typecode":"140100","address":"宝安南路与广场北街交叉口","location":"114.109847,22.546372","transed_lng":114.1047346800346,"transed_lat":22.549055922839077,"cityname":"深圳市","adname":"罗湖区"},{"id":"B0FFFTS6UN","name":"中国版画博物馆","type":"科教文化服务;博物馆;博物馆","typecode":"140100","address":"观澜牛湖裕新路(维重厂公交站台附近)","location":"114.086353,22.735908","transed_lng":114.08121156825433,"transed_lat":22.73855620372854,"cityname":"深圳市","adname":"龙华区"},{"id":"B0FFGAQIJ9","name":"和畅园博物馆","type":"科教文化服务;博物馆;博物馆","typecode":"140100","address":"中粮一品澜山花园8栋","location":"114.374507,22.731057","transed_lng":114.3695573249358,"transed_lat":22.733717157230927,"cityname":"深圳市","adname":"坪山区"},{"id":"B02F37VH9J","name":"龙岗客家民俗博物馆","type":"科教文化服务;博物馆;博物馆","typecode":"140100","address":"罗瑞合北街1号","location":"114.266219,22.727767","transed_lng":114.26138892272087,"transed_lat":22.730593675727818,"cityname":"深圳市","adname":"龙岗区"},{"id":"B02F37VKH1","name":"中华龙文化艺术博物馆","type":"科教文化服务;博物馆;博物馆","typecode":"140100","address":"南门围二巷8号","location":"114.514577,22.593804","transed_lng":114.50991981001586,"transed_lat":22.59670613790818,"cityname":"深圳市","adname":"龙岗区"},{"id":"B0FFH3QH6R","name":"深圳市大鹏古城博物馆","type":"科教文化服务;博物馆;博物馆","typecode":"140100","address":"鹏飞路大鹏所城(南门)旁大鹏古城小区附近","location":"114.513134,22.595484","transed_lng":114.50847170694072,"transed_lat":22.598381669775137,"cityname":"深圳市","adname":"龙岗区"},{"id":"B02F38NJNK","name":"中国茶宫茶博物馆","type":"科教文化服务;博物馆;博物馆","typecode":"140100","address":"景田北路82号中国茶宫6层","location":"114.042514,22.555041","transed_lng":114.0374219353884,"transed_lat":22.557788790871648,"cityname":"深圳市","adname":"福田区"},{"id":"B0FFFWHAMD","name":"华夏联合文化博物馆","type":"科教文化服务;博物馆;博物馆","typecode":"140100","address":"东滨路4082号","location":"113.917391,22.510791","transed_lng":113.91253303903797,"transed_lat":22.513840486475743,"cityname":"深圳市","adname":"南山区"},{"id":"B0FFF2TNUJ","name":"石岩文化艺术中心博物馆","type":"科教文化服务;博物馆;博物馆","typecode":"140100","address":"育才路附近","location":"113.943488,22.671233","transed_lng":113.93860293443608,"transed_lat":22.67422872485437,"cityname":"深圳市","adname":"宝安区"},{"id":"B0FFFWU059","name":"蚝业博物馆","type":"科教文化服务;博物馆;博物馆","typecode":"140100","address":"南新路1173号北头豪苑内","location":"113.919010,22.520700","transed_lng":113.91415129182695,"transed_lat":22.52374798561073,"cityname":"深圳市","adname":"南山区"},{"id":"B0FFG7E981","name":"独木舟博物馆","type":"科教文化服务;博物馆;博物馆","typecode":"140100","address":"南门东路与南门西路交叉口西北200米","location":"114.512874,22.595293","transed_lng":114.50821081527955,"transed_lat":22.598189929171124,"cityname":"深圳市","adname":"龙岗区"},{"id":"B0FFH6OKSI","name":"鹏城公馆","type":"科教文化服务;博物馆;博物馆","typecode":"140100","address":"西门新街5号附近","location":"114.511993,22.594007","transed_lng":114.50732682742853,"transed_lat":22.596901500173338,"cityname":"深圳市","adname":"龙岗区"},{"id":"B0FFG1Q52A","name":"华颐园臻藏馆","type":"科教文化服务;博物馆;博物馆","typecode":"140100","address":"沿河路10号观澜文化体育中心二楼","location":"114.047966,22.697908","transed_lng":114.04285553670596,"transed_lat":22.700618969796878,"cityname":"深圳市","adname":"龙华区"},{"id":"B0FFHLKYVB","name":"深圳毕昇印刷文化博物馆","type":"科教文化服务;博物馆;博物馆","typecode":"140100","address":"悦民路109号附近","location":"114.204291,22.642464","transed_lng":114.19939314471257,"transed_lat":22.645279633764666,"cityname":"深圳市","adname":"龙岗区"},{"id":"B0FFH5BI9Z","name":"深圳金石艺术博物馆","type":"科教文化服务;博物馆;博物馆","typecode":"140100","address":"望桐新路附近","location":"114.181823,22.597562","transed_lng":114.17687174129647,"transed_lat":22.600346734543734,"cityname":"深圳市","adname":"罗湖区"},{"id":"B0FFGSS3VW","name":"美联红木艺术博物馆","type":"科教文化服务;博物馆;博物馆","typecode":"140100","address":"观澜观兰牛湖裕新路口观天路330号","location":"114.081685,22.723910","transed_lng":114.0765441618754,"transed_lat":22.726564616865232,"cityname":"深圳市","adname":"龙华区"},{"id":"B0FFG9KT05","name":"珍稀奇文博馆","type":"科教文化服务;博物馆;博物馆","typecode":"140100","address":"中心路19号","location":"113.828640,22.725315","transed_lng":113.82361668442931,"transed_lat":22.728245879876336,"cityname":"深圳市","adname":"宝安区"},{"id":"B0FFH32LFA","name":"本土文化艺术研究中心深圳市博物馆","type":"科教文化服务;博物馆;博物馆","typecode":"140100","address":[],"location":"113.939944,22.582882","transed_lng":113.93506864972565,"transed_lat":22.585899312301734,"cityname":"深圳市","adname":"南山区"},{"id":"B0FFGETSLS","name":"华夏军装博物馆","type":"科教文化服务;博物馆;博物馆","typecode":"140100","address":"浪宁路与石凹路交叉口北100米","location":"113.987077,22.700868","transed_lng":113.98210457717931,"transed_lat":22.703747814893337,"cityname":"深圳市","adname":"龙华区"},{"id":"B0FFGMEY9X","name":"国瓷博览馆","type":"科教文化服务;博物馆;博物馆","typecode":"140100","address":"下围工业区一路东50米","location":"114.073663,22.694807","transed_lng":114.06852619026047,"transed_lat":22.6974767701678,"cityname":"深圳市","adname":"龙华区"},{"id":"B0FFG4J8TJ","name":"深圳市潮汕民俗博物馆","type":"科教文化服务;博物馆;博物馆","typecode":"140100","address":"西乡大道280号文化潮汕博览园6层","location":"113.866013,22.575674","transed_lng":113.86109307892109,"transed_lat":22.57869868257593,"cityname":"深圳市","adname":"宝安区"},{"id":"B0FFGH2B4N","name":"大浪麒麟博物馆","type":"科教文化服务;博物馆;博物馆","typecode":"140100","address":"康发工业园路与永乐路交叉口南200米","location":"113.999242,22.693482","transed_lng":113.99423950745772,"transed_lat":22.696327100102362,"cityname":"深圳市","adname":"龙华区"},{"id":"B0FFI5RNMW","name":"关爷文化博物馆","type":"科教文化服务;博物馆;博物馆","typecode":"140100","address":"清湖工业区清华东路120号C座302","location":"114.043570,22.673151","transed_lng":114.03846840403482,"transed_lat":22.67587768201896,"cityname":"深圳市","adname":"龙华区"},{"id":"B0FFHXWKAZ","name":"深圳市锦舟紫砂博物馆","type":"科教文化服务;博物馆;博物馆","typecode":"140100","address":"建安一路一巷与25区商业步行街交叉口南50米","location":"113.901857,22.568303","transed_lng":113.89699018381619,"transed_lat":22.57135420527134,"cityname":"深圳市","adname":"宝安区"},{"id":"B0FFIKA9KA","name":"FUNMAX-EXPO(壹方城)","type":"科教文化服务;博物馆;博物馆","typecode":"140100","address":"新湖路99号壹方城","location":"113.887535,22.553495","transed_lng":113.88265435060653,"transed_lat":22.556543166588586,"cityname":"深圳市","adname":"宝安区"},{"id":"B0FFFTQHJ8","name":"宋代陶瓷博物馆","type":"科教文化服务;博物馆;博物馆","typecode":"140100","address":"爱联社区嶂背桥头4号","location":"114.237924,22.688878","transed_lng":114.23308153473805,"transed_lat":22.691717463689194,"cityname":"深圳市","adname":"龙岗区"},{"id":"B0FFFQ0HFP","name":"聚瑞德国粹文化收藏馆","type":"科教文化服务;博物馆;博物馆","typecode":"140100","address":"科苑大道深圳湾段2263","location":"113.943577,22.502613","transed_lng":113.93870251039186,"transed_lat":22.505629384493755,"cityname":"深圳市","adname":"南山区"},{"id":"B0FFG2VQCO","name":"深圳市宝安区华夏龙泉青瓷博物馆","type":"科教文化服务;博物馆;博物馆","typecode":"140100","address":"新安二路46之1-2","location":"113.908021,22.557746","transed_lng":113.90315830539963,"transed_lat":22.56079736580144,"cityname":"深圳市","adname":"宝安区"},{"id":"B0FFFE81H9","name":"深圳望野博物馆","type":"科教文化服务;博物馆;博物馆","typecode":"140100","address":"梅龙大道与东环二路交汇处龙华文化艺术中心三楼","location":"114.040991,22.654338","transed_lng":114.03589520173183,"transed_lat":22.65707477771701,"cityname":"深圳市","adname":"龙华区"},{"id":"B0FFHIG2D2","name":"深圳合正艺术博物馆","type":"科教文化服务;博物馆;博物馆","typecode":"140100","address":"裕安二路184号","location":"113.903193,22.574074","transed_lng":113.89832672018461,"transed_lat":22.57712456287979,"cityname":"深圳市","adname":"宝安区"},{"id":"B02F38UMEI","name":"深圳市当代名家文房四宝精粹博物馆","type":"科教文化服务;博物馆;博物馆","typecode":"140100","address":"建安一路1巷6号宝安艺术城5层","location":"113.902323,22.568584","transed_lng":113.8974564898741,"transed_lat":22.57163517254943,"cityname":"深圳市","adname":"宝安区"},{"id":"B02F38NJC6","name":"沙井蠔民俗文化研究会","type":"科教文化服务;博物馆;博物馆","typecode":"140100","address":"沙井大街342号附近","location":"113.806831,22.740060","transed_lng":113.80174933649417,"transed_lat":22.742946510659515,"cityname":"深圳市","adname":"宝安区"},{"id":"B02F38SJNP","name":"南水村史博物馆","type":"科教文化服务;博物馆;博物馆","typecode":"140100","address":"蛇口公园南路11号","location":"113.924341,22.488399","transed_lng":113.9194830364152,"transed_lat":22.49144280336248,"cityname":"深圳市","adname":"南山区"}]
