[{"id":"B02F30AEE4","name":"阳光广场","type":"商务住宅;住宅区;住宅小区","typecode":"120302","address":"龙平东路381","location":"114.253464,22.731254","transed_lng":114.24863112362512,"transed_lat":22.73408449224609,"cityname":"深圳市","adname":"龙岗区"},{"id":"B02F30A4GJ","name":"美丽365花园","type":"商务住宅;住宅区;住宅小区","typecode":"120302","address":"龙华街道东环二路东侧","location":"114.03175,22.663318","transed_lng":114.02667173520621,"transed_lat":22.666075957348152,"cityname":"深圳市","adname":"龙华区"},{"id":"B02F37TQBR","name":"福华村小区","type":"商务住宅;住宅区;住宅小区","typecode":"120302","address":"福田福华路253号","location":"114.070615,22.533044","transed_lng":114.06549037065963,"transed_lat":22.5357427420953,"cityname":"深圳市","adname":"福田区"},{"id":"B02F37UFU1","name":"蔚蓝海岸(蔚蓝一路)","type":"商务住宅;住宅区;住宅小区","typecode":"120302","address":"华明路1号","location":"113.935521,22.508066","transed_lng":113.93065474098879,"transed_lat":22.511095638798658,"cityname":"深圳市","adname":"南山区"},{"id":"B02F37VG62","name":"振业城","type":"商务住宅;住宅区;住宅小区","typecode":"120302","address":"横岗街道深惠路与梧桐路交汇处","location":"114.179393,22.639223","transed_lng":114.17443254698004,"transed_lat":22.641996355474223,"cityname":"深圳市","adname":"龙岗区"},{"id":"B02F37UKDB","name":"莲花北村","type":"商务住宅;住宅区;住宅小区","typecode":"120302","address":"莲花路1116号","location":"114.050744,22.559254","transed_lng":114.04563836958386,"transed_lat":22.561983502899885,"cityname":"深圳市","adname":"福田区"},{"id":"B02F37WB23","name":"鸿景春天","type":"商务住宅;住宅区;住宅小区","typecode":"120302","address":"龙岗龙岗镇龙东义乌小商品批发市场旁","location":"114.291498,22.724707","transed_lng":114.28665486798535,"transed_lat":22.72750839906148,"cityname":"深圳市","adname":"龙岗区"},{"id":"B02F37VDMC","name":"新天地名居(北斗路)","type":"商务住宅;住宅区;住宅小区","typecode":"120302","address":"北斗路9号","location":"114.134079,22.544389","transed_lng":114.12900861110421,"transed_lat":22.547095978732425,"cityname":"深圳市","adname":"罗湖区"},{"id":"B02F37WRRI","name":"万科金域缇香","type":"商务住宅;住宅区;住宅小区","typecode":"120302","address":"行政一路深圳市坪山实验学校斜对面","location":"114.341292,22.707702","transed_lng":114.33638193350723,"transed_lat":22.71041951916881,"cityname":"深圳市","adname":"坪山区"},{"id":"B02F37VMV8","name":"花园城","type":"商务住宅;住宅区;住宅小区","typecode":"120302","address":"南海大道1145号","location":"113.922494,22.503179","transed_lng":113.91763570624744,"transed_lat":22.506224508163385,"cityname":"深圳市","adname":"南山区"},{"id":"B02F309Y2G","name":"华新村","type":"商务住宅;住宅区;住宅小区","typecode":"120302","address":"红荔路3008号","location":"114.084316,22.550233","transed_lng":114.07918650996564,"transed_lat":22.552917923338917,"cityname":"深圳市","adname":"福田区"},{"id":"B02F38I7XU","name":"彩世界家园","type":"商务住宅;住宅区;住宅小区","typecode":"120302","address":"东湖路与太白路交汇处","location":"114.142962,22.579164","transed_lng":114.13790953686892,"transed_lat":22.581880729583634,"cityname":"深圳市","adname":"罗湖区"},{"id":"B02F37VFKF","name":"莲花山庄","type":"商务住宅;住宅区;住宅小区","typecode":"120302","address":"莲花路130号","location":"114.109297,22.598998","transed_lng":114.10418056915054,"transed_lat":22.60167604017269,"cityname":"深圳市","adname":"龙岗区"},{"id":"B02F37VG36","name":"金茂礼都B座","type":"商务住宅;住宅区;住宅小区","typecode":"120302","address":"兰天路32号","location":"114.091605,22.545796","transed_lng":114.0864774911032,"transed_lat":22.548477950046877,"cityname":"深圳市","adname":"福田区"},{"id":"B02F37W6X3","name":"东方花园(深南大道)","type":"商务住宅;住宅区;住宅小区","typecode":"120302","address":"华侨城东方花园","location":"113.979418,22.532474","transed_lng":113.97447481498969,"transed_lat":22.535403141620673,"cityname":"深圳市","adname":"南山区"},{"id":"B02F37VFPN","name":"鸿荣源·尚都","type":"商务住宅;住宅区;住宅小区","typecode":"120302","address":"裕安一路3016号","location":"113.885516,22.557849","transed_lng":113.88063227340942,"transed_lat":22.56089550254123,"cityname":"深圳市","adname":"宝安区"},{"id":"B02F37UI6E","name":"惠鑫公寓","type":"商务住宅;住宅区;住宅小区","typecode":"120302","address":"梅龙公路47号","location":"114.045851,22.600774","transed_lng":114.04075027248909,"transed_lat":22.60350905906914,"cityname":"深圳市","adname":"龙华区"},{"id":"B02F37TV4W","name":"星河国际花园","type":"商务住宅;住宅区;住宅小区","typecode":"120302","address":"福华三路269号","location":"114.054114,22.53163","transed_lng":114.04900547000342,"transed_lat":22.53435482922413,"cityname":"深圳市","adname":"福田区"},{"id":"B02F37VNES","name":"麻布新村","type":"商务住宅;住宅区;住宅小区","typecode":"120302","address":"麻布大道与麻布新村一巷交汇处北150米","location":"113.900479,22.674321","transed_lng":113.89560445221602,"transed_lat":22.67735444900453,"cityname":"深圳市","adname":"宝安区"},{"id":"B02F37U4Q5","name":"渔民村","type":"商务住宅;住宅区;住宅小区","typecode":"120302","address":"渔村路77号附近","location":"114.112274,22.532958","transed_lng":114.10716570752265,"transed_lat":22.535644103372455,"cityname":"深圳市","adname":"罗湖区"},{"id":"B02F37VG5R","name":"红岗花园","type":"商务住宅;住宅区;住宅小区","typecode":"120302","address":"泥岗东路与泥岗路入口交叉口西北100米","location":"114.109906,22.572142","transed_lng":114.10479207446585,"transed_lat":22.574823648121352,"cityname":"深圳市","adname":"罗湖区"},{"id":"B02F37RKZG","name":"国企大厦","type":"商务住宅;住宅区;住宅小区","typecode":"120302","address":"东园路152号","location":"114.096818,22.538071","transed_lng":114.09169376790129,"transed_lat":22.540752564020348,"cityname":"深圳市","adname":"福田区"},{"id":"B02F37VKDA","name":"滢水山庄","type":"商务住宅;住宅区;住宅小区","typecode":"120302","address":"梅坂大道91号","location":"114.051268,22.602445","transed_lng":114.04615879743102,"transed_lat":22.60516838152648,"cityname":"深圳市","adname":"龙华区"},{"id":"B02F37WLDT","name":"和谐家园(布澜路)","type":"商务住宅;住宅区;住宅小区","typecode":"120302","address":"龙岗大道与布澜路交汇处","location":"114.140533,22.619152","transed_lng":114.13547221811987,"transed_lat":22.621859370651787,"cityname":"深圳市","adname":"龙岗区"},{"id":"B02F37UAE1","name":"阳光棕榈园","type":"商务住宅;住宅区;住宅小区","typecode":"120302","address":"前海路2057","location":"113.912792,22.525985","transed_lng":113.90793273974185,"transed_lat":22.529036666119975,"cityname":"深圳市","adname":"南山区"},{"id":"B02F37VFZ4","name":"益田村小区","type":"商务住宅;住宅区;住宅小区","typecode":"120302","address":"福荣路","location":"114.053333,22.514505","transed_lng":114.04822663064263,"transed_lat":22.517232046166985,"cityname":"深圳市","adname":"福田区"},{"id":"B02F37VG1D","name":"莲花一村","type":"商务住宅;住宅区;住宅小区","typecode":"120302","address":"笋岗西路4001号","location":"114.070297,22.553634","transed_lng":114.06517122124247,"transed_lat":22.556331723572743,"cityname":"深圳市","adname":"福田区"},{"id":"B02F38IYU0","name":"万科·红悦","type":"商务住宅;住宅区;住宅小区","typecode":"120302","address":"龙岗布吉锦龙路与惠康路交汇处(地铁5号线百鸽笼站A出口)","location":"114.12809,22.598461","transed_lng":114.12300379052675,"transed_lat":22.60115477520951,"cityname":"深圳市","adname":"龙岗区"},{"id":"B02F30085F","name":"金城大厦","type":"商务住宅;住宅区;住宅小区","typecode":"120302","address":"深南东路3001号","location":"114.121829,22.543001","transed_lng":114.11673482849551,"transed_lat":22.545693913919,"cityname":"深圳市","adname":"罗湖区"},{"id":"B02F37UU72","name":"莲花二村(红荔路)","type":"商务住宅;住宅区;住宅小区","typecode":"120302","address":"红荔路5002号","location":"114.070836,22.550226","transed_lng":114.06571011969868,"transed_lat":22.55292333195349,"cityname":"深圳市","adname":"福田区"},{"id":"B02F37VFYG","name":"阳光花园(长龙路)","type":"商务住宅;住宅区;住宅小区","typecode":"120302","address":"布吉长龙路120号","location":"114.116423,22.61555","transed_lng":114.1113152923216,"transed_lat":22.618229941620264,"cityname":"深圳市","adname":"龙岗区"},{"id":"B02F37VG6D","name":"南山村","type":"商务住宅;住宅区;住宅小区","typecode":"120302","address":"南新路1025号","location":"113.911858,22.51407","transed_lng":113.90699929736752,"transed_lat":22.517122550014733,"cityname":"深圳市","adname":"南山区"},{"id":"B02F37SWRC","name":"月亮湾花园","type":"商务住宅;住宅区;住宅小区","typecode":"120302","address":"兴海大道22号","location":"113.889982,22.492902","transed_lng":113.88510834348502,"transed_lat":22.495954050711724,"cityname":"深圳市","adname":"南山区"},{"id":"B02F37U1LE","name":"现代城华庭","type":"商务住宅;住宅区;住宅小区","typecode":"120302","address":"创业路28号","location":"113.924427,22.517259","transed_lng":113.91956718509228,"transed_lat":22.520302291462137,"cityname":"深圳市","adname":"南山区"},{"id":"B02F37UJQG","name":"半岛·城邦","type":"商务住宅;住宅区;住宅小区","typecode":"120302","address":"金世纪路与望海路交汇处","location":"113.931810,22.482710","transed_lng":113.92694832269622,"transed_lat":22.485745006021062,"cityname":"深圳市","adname":"南山区"},{"id":"B02F37VM2B","name":"中城康桥花园北区","type":"商务住宅;住宅区;住宅小区","typecode":"120302","address":"布吉街康乐社区","location":"114.143112,22.626133","transed_lng":114.13805684887944,"transed_lat":22.628843163966142,"cityname":"深圳市","adname":"龙岗区"},{"id":"B02F37WHLH","name":"万象天成","type":"商务住宅;住宅区;住宅小区","typecode":"120302","address":"盛龙路2号","location":"114.254368,22.723858","transed_lng":114.24953599820176,"transed_lat":22.726690471682524,"cityname":"深圳市","adname":"龙岗区"},{"id":"B02F37WQZH","name":"星海名城","type":"商务住宅;住宅区;住宅小区","typecode":"120302","address":"前海路3101号","location":"113.912749,22.53762","transed_lng":113.90788899767772,"transed_lat":22.54067106741997,"cityname":"深圳市","adname":"南山区"},{"id":"B02F37WA8Q","name":"振业峦山谷","type":"商务住宅;住宅区;住宅小区","typecode":"120302","address":"宝荷大道81","location":"114.266279,22.686879","transed_lng":114.26145151764517,"transed_lat":22.689716513555098,"cityname":"深圳市","adname":"龙岗区"},{"id":"B02F309TR2","name":"福民新村","type":"商务住宅;住宅区;住宅小区","typecode":"120302","address":"福强路1031-3号附近","location":"114.069359,22.522882","transed_lng":114.06423582076663,"transed_lat":22.5255828108755,"cityname":"深圳市","adname":"福田区"},{"id":"B02F37W9GJ","name":"万科第五园","type":"商务住宅;住宅区;住宅小区","typecode":"120302","address":"雅园路26-3附近","location":"114.071310,22.612186","transed_lng":114.06617980154302,"transed_lat":22.614875475677103,"cityname":"深圳市","adname":"龙岗区"},{"id":"B02F37WHUH","name":"招商观园","type":"商务住宅;住宅区;住宅小区","typecode":"120302","address":"观澜街道环观南路北侧","location":"114.061923,22.690405","transed_lng":114.05679503110485,"transed_lat":22.693091720878133,"cityname":"深圳市","adname":"龙华区"},{"id":"B02F37VMHP","name":"万科·清林径","type":"商务住宅;住宅区;住宅小区","typecode":"120302","address":"协力路","location":"114.230422,22.750325","transed_lng":114.22556614841015,"transed_lat":22.75314297975569,"cityname":"深圳市","adname":"龙岗区"},{"id":"B02F37VFHH","name":"锦绣江南(人民路)","type":"商务住宅;住宅区;住宅小区","typecode":"120302","address":"人民路","location":"114.028429,22.636404","transed_lng":114.0233595857736,"transed_lat":22.639176242853036,"cityname":"深圳市","adname":"龙华区"},{"id":"B02F37VQ1T","name":"布吉一村","type":"商务住宅;住宅区;住宅小区","typecode":"120302","address":"布吉街","location":"114.114491,22.601777","transed_lng":114.10938132329645,"transed_lat":22.60445765227904,"cityname":"深圳市","adname":"龙岗区"},{"id":"B02F300F8D","name":"都市花园(新沙路)","type":"商务住宅;住宅区;住宅小区","typecode":"120302","address":"新洲路4003号","location":"114.048513,22.530659","transed_lng":114.0434125826277,"transed_lat":22.533395150143654,"cityname":"深圳市","adname":"福田区"},{"id":"B02F37VK3X","name":"风和日丽","type":"商务住宅;住宅区;住宅小区","typecode":"120302","address":[],"location":"114.029904,22.640868","transed_lng":114.02483110717073,"transed_lat":22.643635437937462,"cityname":"深圳市","adname":"龙华区"},{"id":"B02F37WQYE","name":"碧海云天","type":"商务住宅;住宅区;住宅小区","typecode":"120302","address":"白石路68号","location":"113.995329,22.528823","transed_lng":113.99034699865985,"transed_lat":22.53170526235466,"cityname":"深圳市","adname":"福田区"},{"id":"B02F37VXYY","name":"红树林海景花园","type":"商务住宅;住宅区;住宅小区","typecode":"120302","address":"深南大道8008号","location":"114.001061,22.534426","transed_lng":113.99606413075227,"transed_lat":22.53729059330371,"cityname":"深圳市","adname":"福田区"},{"id":"B02F37U3M9","name":"凤凰岗村","type":"商务住宅;住宅区;住宅小区","typecode":"120302","address":"凤凰岗东九巷","location":"113.879349,22.596438","transed_lng":113.87445324685108,"transed_lat":22.599475247902443,"cityname":"深圳市","adname":"宝安区"},{"id":"B0FFFDX6ND","name":"佳兆业·城市广场","type":"商务住宅;住宅区;住宅小区","typecode":"120302","address":"坂李大道与宝吉路交汇处","location":"114.076442,22.660149","transed_lng":114.07130637902259,"transed_lat":22.662823993501075,"cityname":"深圳市","adname":"龙岗区"},{"id":"B02F37UIF1","name":"桃源居","type":"商务住宅;住宅区;住宅小区","typecode":"120302","address":"西乡镇前进二路","location":"113.863996,22.615408","transed_lng":113.85906919586202,"transed_lat":22.618424528468985,"cityname":"深圳市","adname":"宝安区"},{"id":"B02F301C6D","name":"大益广场","type":"商务住宅;住宅区;住宅小区","typecode":"120302","address":"西乡大道258-4","location":"113.869147,22.579931","transed_lng":113.8642333315191,"transed_lat":22.582959262295635,"cityname":"深圳市","adname":"宝安区"},{"id":"B02F37WLDK","name":"共和花园(东环一路)","type":"商务住宅;住宅区;住宅小区","typecode":"120302","address":"新区东环一路","location":"114.036261,22.648297","transed_lng":114.03117454612592,"transed_lat":22.651046526686,"cityname":"深圳市","adname":"龙华区"},{"id":"B02F38I8YX","name":"龙军花园","type":"商务住宅;住宅区;住宅小区","typecode":"120302","address":"龙华福龙路与和平西路交汇处","location":"114.001919,22.640005","transed_lng":113.99691316730963,"transed_lat":22.642853817961292,"cityname":"深圳市","adname":"龙华区"},{"id":"B02F37VLZE","name":"金地梅陇镇","type":"商务住宅;住宅区;住宅小区","typecode":"120302","address":"梅龙大道与布龙公路交汇处","location":"114.032527,22.630611","transed_lng":114.02744924185096,"transed_lat":22.633373422914364,"cityname":"深圳市","adname":"龙华区"},{"id":"B02F38IZ85","name":"龙华·花半里","type":"商务住宅;住宅区;住宅小区","typecode":"120302","address":"华清大道与大和路交叉口","location":"114.048103,22.673487","transed_lng":114.04299391770827,"transed_lat":22.67620360563827,"cityname":"深圳市","adname":"龙华区"},{"id":"B0FFFH16AA","name":"福安雅园","type":"商务住宅;住宅区;住宅小区","typecode":"120302","address":"水庆街","location":"114.030265,22.720926","transed_lng":114.02518612613582,"transed_lat":22.72367351107838,"cityname":"深圳市","adname":"龙华区"},{"id":"B02F37VKVD","name":"万科城(贝尔路)","type":"商务住宅;住宅区;住宅小区","typecode":"120302","address":"坂雪岗大道东侧","location":"114.06989,22.645141","transed_lng":114.06475849775053,"transed_lat":22.647826395342943,"cityname":"深圳市","adname":"龙岗区"},{"id":"B02F38TFJX","name":"新围新村","type":"商务住宅;住宅区;住宅小区","typecode":"120302","address":"大浪街道华宁路","location":"113.994851,22.691735","transed_lng":113.98985973991819,"transed_lat":22.69459383732089,"cityname":"深圳市","adname":"龙华区"},{"id":"B02F37VMO5","name":"桃源村","type":"商务住宅;住宅区;住宅小区","typecode":"120302","address":"龙珠大道33号","location":"113.976302,22.557818","transed_lng":113.97136442363112,"transed_lat":22.560754166076972,"cityname":"深圳市","adname":"南山区"},{"id":"B02F37VBZN","name":"水库新村","type":"商务住宅;住宅区;住宅小区","typecode":"120302","address":"爱国路3013号","location":"114.138598,22.564291","transed_lng":114.13353632327359,"transed_lat":22.56700267752584,"cityname":"深圳市","adname":"罗湖区"},{"id":"B0FFFQ73YF","name":"龙海家园","type":"商务住宅;住宅区;住宅小区","typecode":"120302","address":"桂湾三路","location":"113.904416,22.529881","transed_lng":113.89955326250958,"transed_lat":22.53293498265564,"cityname":"深圳市","adname":"南山区"},{"id":"B02F37W9H8","name":"万家灯火(梅坂大道)","type":"商务住宅;住宅区;住宅小区","typecode":"120302","address":"梅坂大道172号","location":"114.05475,22.600343","transed_lng":114.04963616114112,"transed_lat":22.60305989411493,"cityname":"深圳市","adname":"龙华区"},{"id":"B02F30A9GT","name":"笋岗村","type":"商务住宅;住宅区;住宅小区","typecode":"120302","address":"宝岗路90号","location":"114.114235,22.564313","transed_lng":114.10912739691992,"transed_lat":22.56699797667132,"cityname":"深圳市","adname":"罗湖区"},{"id":"B02F37VN9F","name":"梅林一村","type":"商务住宅;住宅区;住宅小区","typecode":"120302","address":"梅林路148号","location":"114.037464,22.566647","transed_lng":114.032380509626,"transed_lat":22.56940581912988,"cityname":"深圳市","adname":"福田区"},{"id":"B02F30A3RX","name":"龙园山庄","type":"商务住宅;住宅区;住宅小区","typecode":"120302","address":"清水河红岗路1299号","location":"114.109802,22.587588","transed_lng":114.10468693735292,"transed_lat":22.590267804058207,"cityname":"深圳市","adname":"罗湖区"},{"id":"B02F38I9IM","name":"丰滢世纪","type":"商务住宅;住宅区;住宅小区","typecode":"120302","address":"东滨路4026-4030号","location":"113.922713,22.506172","transed_lng":113.91785445476768,"transed_lat":22.509217253148126,"cityname":"深圳市","adname":"南山区"},{"id":"B02F38JN1T","name":"沙头角","type":"商务住宅;住宅区;住宅小区","typecode":"120302","address":"沙深路1号","location":"114.232352,22.545626","transed_lng":114.22751180437378,"transed_lat":22.54848557871018,"cityname":"深圳市","adname":"盐田区"},{"id":"B02F37VG1E","name":"皇岗村","type":"商务住宅;住宅区;住宅小区","typecode":"120302","address":"金田路与滨河大道交汇处","location":"114.061132,22.528045","transed_lng":114.05601543077853,"transed_lat":22.530757581770363,"cityname":"深圳市","adname":"福田区"},{"id":"B0FFF4ERO9","name":"六和城","type":"商务住宅;住宅区;住宅小区","typecode":"120302","address":"坪山新区深汕路168号","location":"114.338688,22.692762","transed_lng":114.33378272825746,"transed_lat":22.695488210392632,"cityname":"深圳市","adname":"坪山区"},{"id":"B02F30A2JJ","name":"丽湖花园","type":"商务住宅;住宅区;住宅小区","typecode":"120302","address":"信河大道","location":"114.107336,22.630122","transed_lng":114.10221521976484,"transed_lat":22.632794219862788,"cityname":"深圳市","adname":"龙岗区"},{"id":"B02F37V3O8","name":"苹果园","type":"商务住宅;住宅区;住宅小区","typecode":"120302","address":"龙胜路与人民路交叉口","location":"114.029136,22.638516","transed_lng":114.02406491346333,"transed_lat":22.641285941642685,"cityname":"深圳市","adname":"龙华区"},{"id":"B02F37VKO4","name":"万科·金域华府(新区大道)","type":"商务住宅;住宅区;住宅小区","typecode":"120302","address":[],"location":"114.042989,22.598539","transed_lng":114.0378932745293,"transed_lat":22.601280824169834,"cityname":"深圳市","adname":"龙华区"},{"id":"B02F30AAN6","name":"万科金域蓝湾","type":"商务住宅;住宅区;住宅小区","typecode":"120302","address":"福荣路68号","location":"114.02549,22.523506","transed_lng":114.02043440332208,"transed_lat":22.526299320170963,"cityname":"深圳市","adname":"福田区"},{"id":"B0FFFDX6ND","name":"佳兆业·城市广场","type":"商务住宅;住宅区;住宅小区","typecode":"120302","address":"坂李大道与宝吉路交汇处","location":"114.076442,22.660149","transed_lng":114.07130637902259,"transed_lat":22.662823993501075,"cityname":"深圳市","adname":"龙岗区"},{"id":"B02F37UIF1","name":"桃源居","type":"商务住宅;住宅区;住宅小区","typecode":"120302","address":"西乡镇前进二路","location":"113.863996,22.615408","transed_lng":113.85906919586202,"transed_lat":22.618424528468985,"cityname":"深圳市","adname":"宝安区"},{"id":"B02F301C6D","name":"大益广场","type":"商务住宅;住宅区;住宅小区","typecode":"120302","address":"西乡大道258-4","location":"113.869147,22.579931","transed_lng":113.8642333315191,"transed_lat":22.582959262295635,"cityname":"深圳市","adname":"宝安区"},{"id":"B02F37WLDK","name":"共和花园(东环一路)","type":"商务住宅;住宅区;住宅小区","typecode":"120302","address":"新区东环一路","location":"114.036261,22.648297","transed_lng":114.03117454612592,"transed_lat":22.651046526686,"cityname":"深圳市","adname":"龙华区"},{"id":"B02F38I8YX","name":"龙军花园","type":"商务住宅;住宅区;住宅小区","typecode":"120302","address":"龙华福龙路与和平西路交汇处","location":"114.001919,22.640005","transed_lng":113.99691316730963,"transed_lat":22.642853817961292,"cityname":"深圳市","adname":"龙华区"},{"id":"B02F37VLZE","name":"金地梅陇镇","type":"商务住宅;住宅区;住宅小区","typecode":"120302","address":"梅龙大道与布龙公路交汇处","location":"114.032527,22.630611","transed_lng":114.02744924185096,"transed_lat":22.633373422914364,"cityname":"深圳市","adname":"龙华区"},{"id":"B02F38IZ85","name":"龙华·花半里","type":"商务住宅;住宅区;住宅小区","typecode":"120302","address":"华清大道与大和路交叉口","location":"114.048103,22.673487","transed_lng":114.04299391770827,"transed_lat":22.67620360563827,"cityname":"深圳市","adname":"龙华区"},{"id":"B0FFFH16AA","name":"福安雅园","type":"商务住宅;住宅区;住宅小区","typecode":"120302","address":"水庆街","location":"114.030265,22.720926","transed_lng":114.02518612613582,"transed_lat":22.72367351107838,"cityname":"深圳市","adname":"龙华区"},{"id":"B02F37VKVD","name":"万科城(贝尔路)","type":"商务住宅;住宅区;住宅小区","typecode":"120302","address":"坂雪岗大道东侧","location":"114.06989,22.645141","transed_lng":114.06475849775053,"transed_lat":22.647826395342943,"cityname":"深圳市","adname":"龙岗区"},{"id":"B02F38TFJX","name":"新围新村","type":"商务住宅;住宅区;住宅小区","typecode":"120302","address":"大浪街道华宁路","location":"113.994851,22.691735","transed_lng":113.98985973991819,"transed_lat":22.69459383732089,"cityname":"深圳市","adname":"龙华区"},{"id":"B02F37VMO5","name":"桃源村","type":"商务住宅;住宅区;住宅小区","typecode":"120302","address":"龙珠大道33号","location":"113.976302,22.557818","transed_lng":113.97136442363112,"transed_lat":22.560754166076972,"cityname":"深圳市","adname":"南山区"},{"id":"B02F37VBZN","name":"水库新村","type":"商务住宅;住宅区;住宅小区","typecode":"120302","address":"爱国路3013号","location":"114.138598,22.564291","transed_lng":114.13353632327359,"transed_lat":22.56700267752584,"cityname":"深圳市","adname":"罗湖区"},{"id":"B0FFFQ73YF","name":"龙海家园","type":"商务住宅;住宅区;住宅小区","typecode":"120302","address":"桂湾三路","location":"113.904416,22.529881","transed_lng":113.89955326250958,"transed_lat":22.53293498265564,"cityname":"深圳市","adname":"南山区"},{"id":"B02F37W9H8","name":"万家灯火(梅坂大道)","type":"商务住宅;住宅区;住宅小区","typecode":"120302","address":"梅坂大道172号","location":"114.05475,22.600343","transed_lng":114.04963616114112,"transed_lat":22.60305989411493,"cityname":"深圳市","adname":"龙华区"},{"id":"B02F30A9GT","name":"笋岗村","type":"商务住宅;住宅区;住宅小区","typecode":"120302","address":"宝岗路90号","location":"114.114235,22.564313","transed_lng":114.10912739691992,"transed_lat":22.56699797667132,"cityname":"深圳市","adname":"罗湖区"},{"id":"B02F37VN9F","name":"梅林一村","type":"商务住宅;住宅区;住宅小区","typecode":"120302","address":"梅林路148号","location":"114.037464,22.566647","transed_lng":114.032380509626,"transed_lat":22.56940581912988,"cityname":"深圳市","adname":"福田区"},{"id":"B02F30A3RX","name":"龙园山庄","type":"商务住宅;住宅区;住宅小区","typecode":"120302","address":"清水河红岗路1299号","location":"114.109802,22.587588","transed_lng":114.10468693735292,"transed_lat":22.590267804058207,"cityname":"深圳市","adname":"罗湖区"},{"id":"B02F38I9IM","name":"丰滢世纪","type":"商务住宅;住宅区;住宅小区","typecode":"120302","address":"东滨路4026-4030号","location":"113.922713,22.506172","transed_lng":113.91785445476768,"transed_lat":22.509217253148126,"cityname":"深圳市","adname":"南山区"},{"id":"B02F38JN1T","name":"沙头角","type":"商务住宅;住宅区;住宅小区","typecode":"120302","address":"沙深路1号","location":"114.232352,22.545626","transed_lng":114.22751180437378,"transed_lat":22.54848557871018,"cityname":"深圳市","adname":"盐田区"},{"id":"B02F37VG1E","name":"皇岗村","type":"商务住宅;住宅区;住宅小区","typecode":"120302","address":"金田路与滨河大道交汇处","location":"114.061132,22.528045","transed_lng":114.05601543077853,"transed_lat":22.530757581770363,"cityname":"深圳市","adname":"福田区"},{"id":"B0FFF4ERO9","name":"六和城","type":"商务住宅;住宅区;住宅小区","typecode":"120302","address":"坪山新区深汕路168号","location":"114.338688,22.692762","transed_lng":114.33378272825746,"transed_lat":22.695488210392632,"cityname":"深圳市","adname":"坪山区"},{"id":"B02F30A2JJ","name":"丽湖花园","type":"商务住宅;住宅区;住宅小区","typecode":"120302","address":"信河大道","location":"114.107336,22.630122","transed_lng":114.10221521976484,"transed_lat":22.632794219862788,"cityname":"深圳市","adname":"龙岗区"},{"id":"B02F37V3O8","name":"苹果园","type":"商务住宅;住宅区;住宅小区","typecode":"120302","address":"龙胜路与人民路交叉口","location":"114.029136,22.638516","transed_lng":114.02406491346333,"transed_lat":22.641285941642685,"cityname":"深圳市","adname":"龙华区"},{"id":"B02F37VKO4","name":"万科·金域华府(新区大道)","type":"商务住宅;住宅区;住宅小区","typecode":"120302","address":[],"location":"114.042989,22.598539","transed_lng":114.0378932745293,"transed_lat":22.601280824169834,"cityname":"深圳市","adname":"龙华区"},{"id":"B02F30AAN6","name":"万科金域蓝湾","type":"商务住宅;住宅区;住宅小区","typecode":"120302","address":"福荣路68号","location":"114.02549,22.523506","transed_lng":114.02043440332208,"transed_lat":22.526299320170963,"cityname":"深圳市","adname":"福田区"},{"id":"B02F37UDLL","name":"滨海之窗","type":"商务住宅;住宅区;住宅小区","typecode":"120302","address":"海德三道36号","location":"113.935519,22.520447","transed_lng":113.93065196115364,"transed_lat":22.523476270561424,"cityname":"深圳市","adname":"南山区"},{"id":"B02F37VFO5","name":"海岸明珠","type":"商务住宅;住宅区;住宅小区","typecode":"120302","address":"海德一道223号(后海路与创业路交汇处)","location":"113.931866,22.515835","transed_lng":113.92700219318637,"transed_lat":22.518869600441114,"cityname":"深圳市","adname":"南山区"},{"id":"B02F37U4P1","name":"沙嘴","type":"商务住宅;住宅区;住宅小区|地名地址信息;普通地名;村庄级地名","typecode":"120302|190108","address":"沙嘴路与福沙路交叉口东北100米","location":"114.035343,22.519548","transed_lng":114.03026672021396,"transed_lat":22.522315331366308,"cityname":"深圳市","adname":"福田区"},{"id":"B02F37WNR7","name":"马家龙","type":"商务住宅;住宅区;住宅小区","typecode":"120302","address":"南山深圳市南山区虹步路89号","location":"113.925612,22.550491","transed_lng":113.92074961138246,"transed_lat":22.553531202277025,"cityname":"深圳市","adname":"南山区"},{"id":"B02F3006EF","name":"安居苑","type":"商务住宅;住宅区;住宅小区","typecode":"120302","address":"凯丰北路12号","location":"114.064536,22.570581","transed_lng":114.05941341476397,"transed_lat":22.573285022067058,"cityname":"深圳市","adname":"福田区"},{"id":"B02F37UU77","name":"新洲花园(新洲十一街)","type":"商务住宅;住宅区;住宅小区","typecode":"120302","address":"新洲南路3191号","location":"114.048222,22.526354","transed_lng":114.04312231371071,"transed_lat":22.529090977563996,"cityname":"深圳市","adname":"福田区"},{"id":"B02F37VLCE","name":"万科金域东郡","type":"商务住宅;住宅区;住宅小区","typecode":"120302","address":"坪山新区","location":"114.343031,22.705941","transed_lng":114.3381185217472,"transed_lat":22.708655802367506,"cityname":"深圳市","adname":"坪山区"},{"id":"B02F37VDGW","name":"梧桐山新居","type":"商务住宅;住宅区;住宅小区","typecode":"120302","address":"畔山路122号","location":"114.174572,22.567993","transed_lng":114.1696030803656,"transed_lat":22.570767663676307,"cityname":"深圳市","adname":"罗湖区"},{"id":"B02F37VFJA","name":"雪象花园新村","type":"商务住宅;住宅区;住宅小区","typecode":"120302","address":"布吉坂田","location":"114.075376,22.650751","transed_lng":114.07024136615635,"transed_lat":22.65342901603025,"cityname":"深圳市","adname":"龙岗区"},{"id":"B02F37VVFP","name":"金海湾花园","type":"商务住宅;住宅区;住宅小区","typecode":"120302","address":"福荣路46号","location":"114.032187,22.519839","transed_lng":114.02711713025094,"transed_lat":22.522614436314047,"cityname":"深圳市","adname":"福田区"},{"id":"B02F37USPY","name":"万科金色家园","type":"商务住宅;住宅区;住宅小区","typecode":"120302","address":"莲花路2018号","location":"114.044108,22.554270","transed_lng":114.03901321914125,"transed_lat":22.55701420485456,"cityname":"深圳市","adname":"福田区"},{"id":"B02F37UQYV","name":"华匀大厦","type":"商务住宅;住宅区;住宅小区","typecode":"120302","address":"振兴路101号","location":"114.083069,22.546013","transed_lng":114.0779397528262,"transed_lat":22.54869904489206,"cityname":"深圳市","adname":"福田区"},{"id":"B02F309UFB","name":"港湾丽都","type":"商务住宅;住宅区;住宅小区","typecode":"120302","address":"前海路3005号","location":"113.91452,22.531172","transed_lng":113.90966066026145,"transed_lat":22.5342225026239,"cityname":"深圳市","adname":"南山区"},{"id":"B02F38IY77","name":"万科金色领域","type":"商务住宅;住宅区;住宅小区","typecode":"120302","address":"宝安大道航空新城","location":"113.816867,22.659073","transed_lng":113.81181641746737,"transed_lat":22.66199827046537,"cityname":"深圳市","adname":"宝安区"},{"id":"B02F37VFJX","name":"天鹅堡","type":"商务住宅;住宅区;住宅小区","typecode":"120302","address":"南山华侨城香山中街1号","location":"113.979539,22.547659","transed_lng":113.97459456231017,"transed_lat":22.55058682071062,"cityname":"深圳市","adname":"南山区"},{"id":"B02F38ICJC","name":"花半里(吉福路)","type":"商务住宅;住宅区;住宅小区","typecode":"120302","address":"清林路38号","location":"114.235411,22.720577","transed_lng":114.2305635950625,"transed_lat":22.723406876826715,"cityname":"深圳市","adname":"龙岗区"},{"id":"B02F37W09F","name":"百合山庄","type":"商务住宅;住宅区;住宅小区","typecode":"120302","address":"荣华路284号","location":"114.120223,22.595289","transed_lng":114.11512268968667,"transed_lat":22.59797508711018,"cityname":"深圳市","adname":"龙岗区"},{"id":"B02F37U46O","name":"同乐社区","type":"商务住宅;住宅区;住宅小区","typecode":"120302","address":"水田路附近","location":"114.308721,22.710522","transed_lng":114.30385879667146,"transed_lat":22.713299701565795,"cityname":"深圳市","adname":"龙岗区"},{"id":"B02F37TULT","name":"京基御景华城","type":"商务住宅;住宅区;住宅小区","typecode":"120302","address":"华强南路与滨河路交汇处","location":"114.085983,22.532612","transed_lng":114.08085481987656,"transed_lat":22.53529712001657,"cityname":"深圳市","adname":"福田区"},{"id":"B02F37VG1X","name":"松泉公寓","type":"商务住宅;住宅区;住宅小区","typecode":"120302","address":"布心太白路3038号","location":"114.129295,22.577622","transed_lng":114.12421252939127,"transed_lat":22.580319836279095,"cityname":"深圳市","adname":"罗湖区"},{"id":"B02F38IFYE","name":"丰泽湖山庄","type":"商务住宅;住宅区;住宅小区","typecode":"120302","address":"星丰路梅林关口旁","location":"114.054507,22.595064","transed_lng":114.04939382244908,"transed_lat":22.597782084928205,"cityname":"深圳市","adname":"龙华区"},{"id":"B02F300A98","name":"汽车大厦","type":"商务住宅;住宅区;住宅小区","typecode":"120302","address":"振华路45","location":"114.093474,22.544098","transed_lng":114.08834744723293,"transed_lat":22.546779607597593,"cityname":"深圳市","adname":"福田区"},{"id":"B02F30A6ZK","name":"荣超花园","type":"商务住宅;住宅区;住宅小区","typecode":"120302","address":"荣华路295号","location":"114.119249,22.59335","transed_lng":114.11414720462253,"transed_lat":22.596035492203317,"cityname":"深圳市","adname":"龙岗区"},{"id":"B02F37VKJH","name":"奥林华府","type":"商务住宅;住宅区;住宅小区","typecode":"120302","address":"龙岗中心城黄阁中路与如意路交汇处","location":"114.220327,22.703903","transed_lng":114.21545795085088,"transed_lat":22.706725265611308,"cityname":"深圳市","adname":"龙岗区"},{"id":"B02F37V4SX","name":"东门天地","type":"商务住宅;住宅区;住宅小区","typecode":"120302","address":"东门中路29号(东门中路与晒布路交汇处)","location":"114.122353,22.549588","transed_lng":114.11725931386908,"transed_lat":22.552280940816,"cityname":"深圳市","adname":"罗湖区"},{"id":"B02F37UAE1","name":"阳光棕榈园","type":"商务住宅;住宅区;住宅小区","typecode":"120302","address":"前海路2057","location":"113.912792,22.525985","transed_lng":113.90793273974185,"transed_lat":22.529036666119975,"cityname":"深圳市","adname":"南山区"},{"id":"B02F37VFP2","name":"中信红树湾","type":"商务住宅;住宅区;住宅小区","typecode":"120302","address":"白石路二道8号","location":"113.965506,22.528093","transed_lng":113.96059365602345,"transed_lat":22.5310601655766,"cityname":"深圳市","adname":"南山区"},{"id":"B02F37W9PC","name":"海世界","type":"商务住宅;住宅区;住宅小区","typecode":"120302","address":"大梅沙村","location":"114.305373,22.592093","transed_lng":114.30052272854918,"transed_lat":22.59490055268889,"cityname":"深圳市","adname":"盐田区"},{"id":"B02F38JAD0","name":"百合盛世","type":"商务住宅;住宅区;住宅小区","typecode":"120302","address":"友谊路35号","location":"114.237719,22.74331","transed_lng":114.23287284115628,"transed_lat":22.74613441067432,"cityname":"深圳市","adname":"龙岗区"},{"id":"B02F37VL1W","name":"十二橡树庄园B区","type":"商务住宅;住宅区;住宅小区","typecode":"120302","address":"一号路","location":"114.065275,22.625813","transed_lng":114.06014817278131,"transed_lat":22.628508249766835,"cityname":"深圳市","adname":"龙岗区"},{"id":"B02F37VFQM","name":"凯旋城(新安西路)","type":"商务住宅;住宅区;住宅小区","typecode":"120302","address":"新安一路20号","location":"113.898207,22.547928","transed_lng":113.89333858570484,"transed_lat":22.550980699630294,"cityname":"深圳市","adname":"宝安区"},{"id":"B02F37VUT4","name":"园岭新村","type":"商务住宅;住宅区;住宅小区","typecode":"120302","address":"红岭中路2047号","location":"114.100529,22.554209","transed_lng":114.09540647171494,"transed_lat":22.55688948755328,"cityname":"深圳市","adname":"福田区"},{"id":"B02F37TKAB","name":"天然居(景田北街)","type":"商务住宅;住宅区;住宅小区","typecode":"120302","address":"香梅路","location":"114.036095,22.553905","transed_lng":114.03101500454926,"transed_lat":22.55666838240239,"cityname":"深圳市","adname":"福田区"},{"id":"B02F37VLSX","name":"世纪春城","type":"商务住宅;住宅区;住宅小区","typecode":"120302","address":"民田路203号","location":"114.033426,22.626763","transed_lng":114.02834663889769,"transed_lat":22.629523772948776,"cityname":"深圳市","adname":"龙华区"},{"id":"B02F37TM67","name":"新新家园","type":"商务住宅;住宅区;住宅小区","typecode":"120302","address":"石厦街35号","location":"114.052993,22.519043","transed_lng":114.04788679954794,"transed_lat":22.521770555541675,"cityname":"深圳市","adname":"福田区"},{"id":"B02F37VMMW","name":"金水湾(盐田路)","type":"商务住宅;住宅区;住宅小区","typecode":"120302","address":"盐田路89号金水湾","location":"114.257215,22.591243","transed_lng":114.25239246017573,"transed_lat":22.59410264911398,"cityname":"深圳市","adname":"盐田区"},{"id":"B02F37U3MI","name":"黄麻布村","type":"商务住宅;住宅区;住宅小区|地名地址信息;普通地名;村庄级地名","typecode":"120302|190108","address":"同富街附近","location":"113.861727,22.659393","transed_lng":113.85679235317508,"transed_lat":22.662398060808194,"cityname":"深圳市","adname":"宝安区"},{"id":"B02F37VFNH","name":"太子山庄","type":"商务住宅;住宅区;住宅小区","typecode":"120302","address":"前海路0308号","location":"113.907064,22.509796","transed_lng":113.90220391310386,"transed_lat":22.512850281517657,"cityname":"深圳市","adname":"南山区"},{"id":"B02F37VQYE","name":"万科四季花城北区","type":"商务住宅;住宅区;住宅小区","typecode":"120302","address":"坂田五和南路102-2号","location":"114.057496,22.624529","transed_lng":114.05237716889853,"transed_lat":22.627237070196664,"cityname":"深圳市","adname":"龙岗区"},{"id":"B02F37VLM6","name":"水晶之城","type":"商务住宅;住宅区;住宅小区","typecode":"120302","address":"龙岗大道7050号","location":"114.225134,22.669706","transed_lng":114.22027529195874,"transed_lat":22.67254131902553,"cityname":"深圳市","adname":"龙岗区"},{"id":"B02F37VMGI","name":"招商澜园北区","type":"商务住宅;住宅区;住宅小区","typecode":"120302","address":"观澜镇大和路","location":"114.047932,22.685616","transed_lng":114.04282239333037,"transed_lat":22.688330107652213,"cityname":"深圳市","adname":"龙华区"},{"id":"B02F37TMCE","name":"星河雅居","type":"商务住宅;住宅区;住宅小区","typecode":"120302","address":"新洲九街273号","location":"114.044673,22.52405","transed_lng":114.03957922210486,"transed_lat":22.52679483560915,"cityname":"深圳市","adname":"福田区"},{"id":"B02F37TV82","name":"万科城市花园","type":"商务住宅;住宅区;住宅小区","typecode":"120302","address":"香梅路2038号","location":"114.032477,22.55638","transed_lng":114.02740416195144,"transed_lat":22.559152427932847,"cityname":"深圳市","adname":"福田区"},{"id":"B02F30A31X","name":"料坑新村","type":"商务住宅;住宅区;住宅小区","typecode":"120302","address":"石岩镇洲石公路","location":"113.892086,22.66915","transed_lng":113.88720370353971,"transed_lat":22.67218259932142,"cityname":"深圳市","adname":"宝安区"},{"id":"B02F37VFNO","name":"龙辉花园(龙珠大道)","type":"商务住宅;住宅区;住宅小区","typecode":"120302","address":"龙珠大道159号","location":"113.959953,22.567087","transed_lng":113.95504893922728,"transed_lat":22.57006501804018,"cityname":"深圳市","adname":"南山区"},{"id":"B02F37VTFJ","name":"金港华庭","type":"商务住宅;住宅区;住宅小区","typecode":"120302","address":"宝安大道与金海路交汇处","location":"113.861458,22.582208","transed_lng":113.85652766642714,"transed_lat":22.58522554042055,"cityname":"深圳市","adname":"宝安区"},{"id":"B02F37UU7H","name":"皇御苑(皇岗路)","type":"商务住宅;住宅区;住宅小区","typecode":"120302","address":"福田南路7号","location":"114.075516,22.526107","transed_lng":114.07038945538976,"transed_lat":22.528800594737458,"cityname":"深圳市","adname":"福田区"},{"id":"B02F37W9ON","name":"招商果岭","type":"商务住宅;住宅区;住宅小区","typecode":"120302","address":"西乡街道宝安大道与宾隆路交汇处西南侧","location":"113.857716,22.58486","transed_lng":113.85277686944998,"transed_lat":22.587871574056177,"cityname":"深圳市","adname":"宝安区"},{"id":"B02F37VG0T","name":"彩田村","type":"商务住宅;住宅区;住宅小区","typecode":"120302","address":"莲花路1096号","location":"114.062307,22.560773","transed_lng":114.05718712125717,"transed_lat":22.563481404942156,"cityname":"深圳市","adname":"福田区"},{"id":"B02F37VL1G","name":"理想家园","type":"商务住宅;住宅区;住宅小区","typecode":"120302","address":"金稻田路1228号","location":"114.126831,22.590117","transed_lng":114.12174289532942,"transed_lat":22.592810456791028,"cityname":"深圳市","adname":"龙岗区"},{"id":"B02F30A1NF","name":"康达尔花园","type":"商务住宅;住宅区;住宅小区","typecode":"120302","address":"龙岗大道布吉段2251","location":"114.137411,22.616901","transed_lng":114.13234322521082,"transed_lat":22.61960413855595,"cityname":"深圳市","adname":"龙岗区"},{"id":"B02F37RM30","name":"桑达大厦","type":"商务住宅;住宅区;住宅小区","typecode":"120302","address":"华发北路46号","location":"114.089615,22.544865","transed_lng":114.08448683582418,"transed_lat":22.547547680987144,"cityname":"深圳市","adname":"福田区"},{"id":"B02F37VFJE","name":"英郡年华","type":"商务住宅;住宅区;住宅小区","typecode":"120302","address":"岭背路3号","location":"114.149971,22.616613","transed_lng":114.14493336362342,"transed_lat":22.61933602454879,"cityname":"深圳市","adname":"龙岗区"},{"id":"B02F37VHVU","name":"东海花园(香轩路)","type":"商务住宅;住宅区;住宅小区","typecode":"120302","address":"香林路28号","location":"114.021750,22.538179","transed_lng":114.01670200492072,"transed_lat":22.540982040190908,"cityname":"深圳市","adname":"福田区"},{"id":"B02F37WJ27","name":"潜龙曼海宁花园南区","type":"商务住宅;住宅区;住宅小区","typecode":"120302","address":"和平路潜龙曼海宁花园(南区)","location":"114.009651,22.639125","transed_lng":114.00462575289437,"transed_lat":22.641950656433206,"cityname":"深圳市","adname":"龙华区"},{"id":"B02F37WGIP","name":"花样年·花郡","type":"商务住宅;住宅区;住宅小区","typecode":"120302","address":"明玉路11号","location":"113.882082,22.564032","transed_lng":113.87719273320145,"transed_lat":22.567075372483774,"cityname":"深圳市","adname":"宝安区"},{"id":"B02F37VFM9","name":"高新公寓(科技南路)","type":"商务住宅;住宅区;住宅小区","typecode":"120302","address":"科技南路22号","location":"113.951062,22.533384","transed_lng":113.94617516901955,"transed_lat":22.536384630679706,"cityname":"深圳市","adname":"南山区"},{"id":"B02F30A8EP","name":"盛世鹏程","type":"商务住宅;住宅区;住宅小区","typecode":"120302","address":"八卦岭八卦一路123号","location":"114.097563,22.556781","transed_lng":114.092438049369,"transed_lat":22.559461149995865,"cityname":"深圳市","adname":"福田区"},{"id":"B02F37VN9V","name":"太阳新城","type":"商务住宅;住宅区;住宅小区","typecode":"120302","address":"太白路4011号","location":"114.124197,22.575963","transed_lng":114.11910489468153,"transed_lat":22.578655312811645,"cityname":"深圳市","adname":"罗湖区"},{"id":"B02F302A05","name":"海滨广场","type":"商务住宅;住宅区;住宅小区","typecode":"120302","address":"翻身路147","location":"113.891489,22.562697","transed_lng":113.88661275552879,"transed_lat":22.565746426149527,"cityname":"深圳市","adname":"宝安区"},{"id":"B02F37WH9T","name":"星河时代","type":"商务住宅;住宅区;住宅小区","typecode":"120302","address":"黄阁南路与深惠路交汇处北角(台中工业区西200米)","location":"114.227132,22.692819","transed_lng":114.222274964376,"transed_lat":22.695650548850715,"cityname":"深圳市","adname":"龙岗区"},{"id":"B02F37VM9B","name":"春华四季园","type":"商务住宅;住宅区;住宅小区","typecode":"120302","address":"民康路68号","location":"114.0527,22.621468","transed_lng":114.04758753495176,"transed_lat":22.624185559323784,"cityname":"深圳市","adname":"龙岗区"},{"id":"B02F302895","name":"碧云天","type":"商务住宅;住宅区;住宅小区","typecode":"120302","address":"梅林路156号","location":"114.037123,22.560366","transed_lng":114.03204057647294,"transed_lat":22.56312625899822,"cityname":"深圳市","adname":"福田区"},{"id":"B02F37W8RZ","name":"和平广场","type":"商务住宅;住宅区;住宅小区","typecode":"120302","address":"和平路3009","location":"114.114233,22.544178","transed_lng":114.1091267050995,"transed_lat":22.54686464433766,"cityname":"深圳市","adname":"罗湖区"},{"id":"B02F37VKBE","name":"龙城华府(余岭西路)","type":"商务住宅;住宅区;住宅小区","typecode":"120302","address":"如意路与余岭西路交汇处","location":"114.230296,22.700535","transed_lng":114.22544314376668,"transed_lat":22.703367044359567,"cityname":"深圳市","adname":"龙岗区"},{"id":"B02F30A3ZE","name":"罗湖村","type":"商务住宅;住宅区;住宅小区","typecode":"120302","address":"南湖街道人民南路1066号","location":"114.120258,22.534455","transed_lng":114.11516170720313,"transed_lat":22.537146994387246,"cityname":"深圳市","adname":"罗湖区"},{"id":"B02F30A3XZ","name":"绿茵阁(龙秋一街)","type":"商务住宅;住宅区;住宅小区","typecode":"120302","address":"福民路7号","location":"114.066798,22.521783","transed_lng":114.06167672547052,"transed_lat":22.52448728494479,"cityname":"深圳市","adname":"福田区"},{"id":"B02F38IPXZ","name":"海滨广场(吉龙三街)","type":"商务住宅;住宅区;住宅小区","typecode":"120302","address":"福强路1040号","location":"114.067430,22.526393","transed_lng":114.06230794488384,"transed_lat":22.52909621367108,"cityname":"深圳市","adname":"福田区"},{"id":"B02F37VFJU","name":"中央花园","type":"商务住宅;住宅区;住宅小区","typecode":"120302","address":"石厦北二街1号","location":"114.05289,22.52337","transed_lng":114.04778365978584,"transed_lat":22.5260975865947,"cityname":"深圳市","adname":"福田区"},{"id":"B02F37VLZ4","name":"沙湖","type":"商务住宅;住宅区;住宅小区","typecode":"120302","address":"坪山区新龙路12号","location":"114.325089,22.677968","transed_lng":114.32020522599026,"transed_lat":22.680723604572393,"cityname":"深圳市","adname":"坪山区"},{"id":"B02F37V805","name":"同和凤凰花苑","type":"商务住宅;住宅区;住宅小区","typecode":"120302","address":"福永街道白石厦107国道东侧","location":"113.83122,22.681904","transed_lng":113.82620645232508,"transed_lat":22.684851123679277,"cityname":"深圳市","adname":"宝安区"},{"id":"B02F37VJYH","name":"碧水龙庭(民丰路)","type":"商务住宅;住宅区;住宅小区","typecode":"120302","address":"民康路与民丰路交汇处","location":"114.047245,22.615822","transed_lng":114.04214103384449,"transed_lat":22.61855173185675,"cityname":"深圳市","adname":"龙华区"},{"id":"B02F37VN2T","name":"新世界·四季山水(龙尾路)","type":"商务住宅;住宅区;住宅小区","typecode":"120302","address":"梅北路9号","location":"114.045538,22.570591","transed_lng":114.040439752898,"transed_lat":22.573330475162926,"cityname":"深圳市","adname":"福田区"},{"id":"B02F30A6WP","name":"日出·印象A区","type":"商务住宅;住宅区;住宅小区","typecode":"120302","address":"人民路2142号","location":"114.026298,22.632405","transed_lng":114.02123354503954,"transed_lat":22.63518378830162,"cityname":"深圳市","adname":"龙华区"},{"id":"B02F37VAE4","name":"布心花园","type":"商务住宅;住宅区;住宅小区","typecode":"120302","address":"东晓路2018号","location":"114.139247,22.575366","transed_lng":114.13418608811216,"transed_lat":22.578077490836236,"cityname":"深圳市","adname":"罗湖区"},{"id":"B02F37ULNI","name":"玮鹏花园","type":"商务住宅;住宅区;住宅小区","typecode":"120302","address":"上步中路与深南中路交汇处","location":"114.094626,22.542192","transed_lng":114.0895001756727,"transed_lat":22.544873530489394,"cityname":"深圳市","adname":"福田区"},{"id":"B02F37W8R1","name":"阳光天地","type":"商务住宅;住宅区;住宅小区|商务住宅;楼宇;商住两用楼宇","typecode":"120302|120203","address":"田贝四路与贝丽北路交叉口东北100米","location":"114.127871,22.567302","transed_lng":114.12278638879778,"transed_lat":22.569999256323808,"cityname":"深圳市","adname":"罗湖区"},{"id":"B02F37VFZU","name":"中城康桥花园南区","type":"商务住宅;住宅区;住宅小区","typecode":"120302","address":"宝冠路","location":"114.144353,22.621857","transed_lng":114.13930110993321,"transed_lat":22.624569863495264,"cityname":"深圳市","adname":"龙岗区"},{"id":"B02F38I9K9","name":"龙珠花园(龙珠路)","type":"商务住宅;住宅区;住宅小区","typecode":"120302","address":"西乡街道龙珠路","location":"113.878326,22.580702","transed_lng":113.87342951217083,"transed_lat":22.583740294798353,"cityname":"深圳市","adname":"宝安区"},{"id":"B02F37VUM7","name":"中心花园","type":"商务住宅;住宅区;住宅小区","typecode":"120302","address":"皇岗吉龙一村3-1号","location":"114.060341,22.524885","transed_lng":114.05522546350643,"transed_lat":22.527599030715976,"cityname":"深圳市","adname":"福田区"},{"id":"B02F37VNB9","name":"翰岭院","type":"商务住宅;住宅区;住宅小区","typecode":"120302","address":"梅东二路2号","location":"114.068869,22.572121","transed_lng":114.06374293864799,"transed_lat":22.57481880349638,"cityname":"深圳市","adname":"福田区"},{"id":"B02F37V42Z","name":"金沙花园(新洲五街)","type":"商务住宅;住宅区;住宅小区","typecode":"120302","address":"新洲五街15号","location":"114.039263,22.524469","transed_lng":114.0341788275264,"transed_lat":22.527226435720905,"cityname":"深圳市","adname":"福田区"},{"id":"B02F37V384","name":"豪园(侨新路)","type":"商务住宅;住宅区;住宅小区","typecode":"120302","address":"侨新路28号","location":"113.92613,22.528644","transed_lng":113.92126876162695,"transed_lat":22.531685032929275,"cityname":"深圳市","adname":"南山区"},{"id":"B02F38IAW6","name":"园东花园","type":"商务住宅;住宅区;住宅小区","typecode":"120302","address":"园岭五街1号","location":"114.101341,22.552684","transed_lng":114.09621925969614,"transed_lat":22.55536471202173,"cityname":"深圳市","adname":"福田区"},{"id":"B02F37W70U","name":"侨香村","type":"商务住宅;住宅区;住宅小区","typecode":"120302","address":"侨香路2008号","location":"114.013656,22.552891","transed_lng":114.00862641238987,"transed_lat":22.555716471273314,"cityname":"深圳市","adname":"福田区"},{"id":"B02F37W21Q","name":"徽王府(爱地花园二期)","type":"商务住宅;住宅区;住宅小区","typecode":"120302","address":"龙平西路与爱心路交汇处","location":"114.227602,22.728076","transed_lng":114.22274343546943,"transed_lat":22.730898444581197,"cityname":"深圳市","adname":"龙岗区"},{"id":"B02F37VFM2","name":"蝴蝶谷","type":"商务住宅;住宅区;住宅小区","typecode":"120302","address":"职教街8号","location":"114.000409,22.537768","transed_lng":113.99541356816556,"transed_lat":22.54063437362589,"cityname":"深圳市","adname":"福田区"},{"id":"B02F37V7IH","name":"天骄世家","type":"商务住宅;住宅区;住宅小区","typecode":"120302","address":"锦花路与西乡大道交汇处西南角","location":"113.890842,22.587832","transed_lng":113.88596339488822,"transed_lat":22.59087836719913,"cityname":"深圳市","adname":"宝安区"},{"id":"B02F37TMI1","name":"幸福家园","type":"商务住宅;住宅区;住宅小区","typecode":"120302","address":"景田北街24号","location":"114.036608,22.556922","transed_lng":114.03152680233582,"transed_lat":22.559683844720315,"cityname":"深圳市","adname":"福田区"},{"id":"B02F302896","name":"林海山庄","type":"商务住宅;住宅区;住宅小区","typecode":"120302","address":"北环大道7020号","location":"114.032289,22.559611","transed_lng":114.02721634297187,"transed_lat":22.562383634714426,"cityname":"深圳市","adname":"福田区"},{"id":"B02F37VG6Z","name":"福中福花园","type":"商务住宅;住宅区;住宅小区","typecode":"120302","address":"宝源路1026号","location":"113.872895,22.563814","transed_lng":113.86798974222197,"transed_lat":22.56684843054558,"cityname":"深圳市","adname":"宝安区"},{"id":"B02F37VMLG","name":"中海半山溪谷","type":"商务住宅;住宅区;住宅小区","typecode":"120302","address":"盐田港后方陆域中青路8号","location":"114.241395,22.585384","transed_lng":114.23656271361264,"transed_lat":22.588244089775543,"cityname":"深圳市","adname":"盐田区"},{"id":"B02F37WLVF","name":"岸芷汀兰","type":"商务住宅;住宅区;住宅小区","typecode":"120302","address":"南山深圳市南山区高新南环路2号","location":"113.951085,22.522197","transed_lng":113.94619884197594,"transed_lat":22.5251981190592,"cityname":"深圳市","adname":"南山区"},{"id":"B02F30A776","name":"润城花园","type":"商务住宅;住宅区;住宅小区","typecode":"120302","address":"南山龙珠大道珠光村西南处","location":"113.957906,22.569622","transed_lng":113.95300549792223,"transed_lat":22.57260459506885,"cityname":"深圳市","adname":"南山区"},{"id":"B02F30ABU8","name":"香蜜二村","type":"商务住宅;住宅区;住宅小区","typecode":"120302","address":"景田南路香梅路42号","location":"114.041518,22.543891","transed_lng":114.03642843207346,"transed_lat":22.546641967131546,"cityname":"深圳市","adname":"福田区"},{"id":"B02F37W9O1","name":"深业东城御园","type":"商务住宅;住宅区;住宅小区","typecode":"120302","address":"锦绣东路与金辉路交汇处","location":"114.398596,22.73988","transed_lng":114.39364027492671,"transed_lat":22.742522014406617,"cityname":"深圳市","adname":"坪山区"},{"id":"B02F37VH3B","name":"招商·依山郡","type":"商务住宅;住宅区;住宅小区","typecode":"120302","address":"龙平西路与黄阁北路交汇处","location":"114.220212,22.729761","transed_lng":114.21534109513854,"transed_lat":22.732576011460097,"cityname":"深圳市","adname":"龙岗区"},{"id":"B02F37W5Q3","name":"南光城市花园","type":"商务住宅;住宅区;住宅小区","typecode":"120302","address":"创业路98号","location":"113.924014,22.519054","transed_lng":113.91915422214217,"transed_lat":22.522097641966088,"cityname":"深圳市","adname":"南山区"},{"id":"B02F37VFI0","name":"银泉花园","type":"商务住宅;住宅区;住宅小区","typecode":"120302","address":"龙峰二路106号","location":"114.026042,22.639643","transed_lng":114.02097764708579,"transed_lat":22.64242114869213,"cityname":"深圳市","adname":"龙华区"},{"id":"B02F300317","name":"嘉宝田花园","type":"商务住宅;住宅区;住宅小区","typecode":"120302","address":"笋岗东路2008号","location":"114.111166,22.558018","transed_lng":114.10605460449212,"transed_lat":22.560701679502905,"cityname":"深圳市","adname":"罗湖区"},{"id":"B02F37W9MZ","name":"锦绣江南3期","type":"商务住宅;住宅区;住宅小区","typecode":"120302","address":"人民路与布龙路交汇处","location":"114.028853,22.637726","transed_lng":114.02378257779046,"transed_lat":22.640496851640584,"cityname":"深圳市","adname":"龙华区"},{"id":"B02F37V8EK","name":"丽景城","type":"商务住宅;住宅区;住宅小区","typecode":"120302","address":"前进二路100号","location":"113.88726,22.588988","transed_lng":113.88237673213118,"transed_lat":22.59203228140701,"cityname":"深圳市","adname":"宝安区"},{"id":"B02F37VFVV","name":"龙城国际(白灰围一路)","type":"商务住宅;住宅区;住宅小区","typecode":"120302","address":"龙福西路138号","location":"114.231882,22.72388","transed_lng":114.22702985300857,"transed_lat":22.726706817456463,"cityname":"深圳市","adname":"龙岗区"},{"id":"B02F37VDM5","name":"海富花园","type":"商务住宅;住宅区;住宅小区","typecode":"120302","address":"深南东路1017号黄贝岭地铁口附近","location":"114.137131,22.545623","transed_lng":114.1320672232847,"transed_lat":22.548334121464517,"cityname":"深圳市","adname":"罗湖区"},{"id":"B02F38IZX0","name":"宝能太古城南区","type":"商务住宅;住宅区;住宅小区","typecode":"120302","address":"中心路2199号","location":"113.938895,22.498697","transed_lng":113.93402608434816,"transed_lat":22.501721512756067,"cityname":"深圳市","adname":"南山区"},{"id":"B0FFF5KHCQ","name":"海岸时代公寓","type":"商务住宅;楼宇;商务写字楼|商务住宅;住宅区;住宅小区","typecode":"120201|120302","address":"深南大道12069号","location":"113.915665,22.540805","transed_lng":113.91080513728313,"transed_lat":22.54385425943927,"cityname":"深圳市","adname":"南山区"},{"id":"B02F37VFPC","name":"兰园","type":"商务住宅;住宅区;住宅小区","typecode":"120302","address":"爱榕路143号","location":"113.927551,22.503583","transed_lng":113.9226906493448,"transed_lat":22.50662325775462,"cityname":"深圳市","adname":"南山区"},{"id":"B02F37WINA","name":"莱蒙·水榭春天","type":"商务住宅;住宅区;住宅小区","typecode":"120302","address":"人民路2056号","location":"114.025918,22.626629","transed_lng":114.02085476879218,"transed_lat":22.62940986221934,"cityname":"深圳市","adname":"龙华区"},{"id":"B02F37V54W","name":"前海花园","type":"商务住宅;住宅区;住宅小区","typecode":"120302","address":"桃园路288号","location":"113.912392,22.533825","transed_lng":113.90753216729499,"transed_lat":22.5368764595688,"cityname":"深圳市","adname":"南山区"},{"id":"B02F309R26","name":"翠海花园","type":"商务住宅;住宅区;住宅小区","typecode":"120302","address":"泽田路2","location":"114.016061,22.551256","transed_lng":114.01102566228272,"transed_lat":22.55407452837801,"cityname":"深圳市","adname":"福田区"},{"id":"B02F309JKQ","name":"城市主场","type":"商务住宅;住宅区;住宅小区","typecode":"120302","address":"八卦二路145号","location":"114.095885,22.558001","transed_lng":114.09075887699504,"transed_lat":22.560681146913478,"cityname":"深圳市","adname":"福田区"},{"id":"B02F30010E","name":"南岭花园","type":"商务住宅;住宅区;住宅小区","typecode":"120302","address":"岭园路101号","location":"114.141536,22.602186","transed_lng":114.1364786660438,"transed_lat":22.60489752730776,"cityname":"深圳市","adname":"龙岗区"},{"id":"B02F309VRV","name":"海滨花园","type":"商务住宅;住宅区;住宅小区","typecode":"120302","address":"蛇口兴华路1号","location":"113.917837,22.485145","transed_lng":113.91298063394964,"transed_lat":22.488194383282057,"cityname":"深圳市","adname":"南山区"},{"id":"B02F300077","name":"百合星城","type":"商务住宅;住宅区;住宅小区","typecode":"120302","address":"布吉镇京南路","location":"114.120398,22.597328","transed_lng":114.11529785024085,"transed_lat":22.600013965241146,"cityname":"深圳市","adname":"龙岗区"},{"id":"B02F37VH3I","name":"宝安山庄","type":"商务住宅;住宅区;住宅小区","typecode":"120302","address":"松岗镇江边村朗碧路","location":"113.81813,22.77149","transed_lng":113.81307547884501,"transed_lat":22.77438696187704,"cityname":"深圳市","adname":"宝安区"},{"id":"B02F37VFPD","name":"英伦名苑","type":"商务住宅;住宅区;住宅小区","typecode":"120302","address":"沙河西路2021-8号","location":"113.95641,22.548547","transed_lng":113.95151346416884,"transed_lat":22.551534921307436,"cityname":"深圳市","adname":"南山区"},{"id":"B02F37VMWO","name":"新城市花园(大浪南路)","type":"商务住宅;住宅区;住宅小区","typecode":"120302","address":"大浪南路54-56号","location":"114.021511,22.664678","transed_lng":114.01645537404798,"transed_lat":22.667463709591544,"cityname":"深圳市","adname":"龙华区"},{"id":"B02F37VKYJ","name":"龙翔花园(吉云路)","type":"商务住宅;住宅区;住宅小区","typecode":"120302","address":"吉云路与新桥西六巷交叉口","location":"114.239362,22.710205","transed_lng":114.23451973510754,"transed_lat":22.713039569362977,"cityname":"深圳市","adname":"龙岗区"},{"id":"B02F37VG6P","name":"香蜜湖1号","type":"商务住宅;住宅区;住宅小区","typecode":"120302","address":"侨香路","location":"114.034565,22.551685","transed_lng":114.0294881969952,"transed_lat":22.554452432393177,"cityname":"深圳市","adname":"福田区"},{"id":"B02F37VMBO","name":"知春里","type":"商务住宅;住宅区;住宅小区","typecode":"120302","address":"布吉大芬村深惠路康达尔花园旁","location":"114.139414,22.617423","transed_lng":114.13435074212641,"transed_lat":22.62012897767559,"cityname":"深圳市","adname":"龙岗区"},{"id":"B02F37W3QM","name":"水岸新都","type":"商务住宅;住宅区;住宅小区","typecode":"120302","address":"仙人岭路与新城路交叉口西南100米","location":"114.278634,22.74735","transed_lng":114.27379898569563,"transed_lat":22.75016056573611,"cityname":"深圳市","adname":"龙岗区"},{"id":"B02F38IU9Z","name":"富通城1期","type":"商务住宅;住宅区;住宅小区","typecode":"120302","address":"西乡大道与兴业路交汇处","location":"113.858569,22.564221","transed_lng":113.85363318117105,"transed_lat":22.567236140392122,"cityname":"深圳市","adname":"宝安区"},{"id":"B02F37VF4W","name":"畔山花园(罗沙公路辅路)","type":"商务住宅;住宅区;住宅小区","typecode":"120302","address":"罗沙路2098号","location":"114.176705,22.561572","transed_lng":114.1717422756156,"transed_lat":22.564351314007105,"cityname":"深圳市","adname":"罗湖区"},{"id":"B02F37WK58","name":"西城上筑","type":"商务住宅;住宅区;住宅小区","typecode":"120302","address":"创业一路1014号","location":"113.892369,22.556273","transed_lng":113.887494179655,"transed_lat":22.55932337516563,"cityname":"深圳市","adname":"宝安区"},{"id":"B02F37VKP2","name":"天悦龙庭","type":"商务住宅;住宅区;住宅小区","typecode":"120302","address":"雅兰路19号","location":"113.887167,22.557577","transed_lng":113.88228559436551,"transed_lat":22.560624597710223,"cityname":"深圳市","adname":"宝安区"},{"id":"B02F37UTE2","name":"友谊大厦","type":"商务住宅;住宅区;住宅小区","typecode":"120302","address":"建设路1098","location":"114.117291,22.53817","transed_lng":114.11218967044614,"transed_lat":22.540859272235085,"cityname":"深圳市","adname":"罗湖区"},{"id":"B02F302A42","name":"桂庙新村","type":"商务住宅;住宅区;住宅小区","typecode":"120302","address":"学府路北侧","location":"113.93346,22.526208","transed_lng":113.92859432964032,"transed_lat":22.529240010946385,"cityname":"深圳市","adname":"南山区"},{"id":"B02F37UU4Z","name":"海韵嘉园","type":"商务住宅;住宅区;住宅小区","typecode":"120302","address":"南山深圳市南山区望海路1088号","location":"113.925363,22.485731","transed_lng":113.92050480212808,"transed_lat":22.4887737342434,"cityname":"深圳市","adname":"南山区"},{"id":"B02F37V9ZB","name":"南国丽城","type":"商务住宅;住宅区;住宅小区","typecode":"120302","address":"西丽镇九祥岭","location":"113.957213,22.581874","transed_lng":113.95231294718349,"transed_lat":22.5848568456871,"cityname":"深圳市","adname":"南山区"},{"id":"B02F37VFMO","name":"冠城世家","type":"商务住宅;住宅区;住宅小区","typecode":"120302","address":"兴华二路73-11号","location":"113.904689,22.565751","transed_lng":113.89982415558713,"transed_lat":22.568802285206186,"cityname":"深圳市","adname":"宝安区"},{"id":"B02F30AIAI","name":"中山苑","type":"商务住宅;住宅区;住宅小区","typecode":"120302","address":"南山大道3128号","location":"113.924092,22.545534","transed_lng":113.91923052322039,"transed_lat":22.548576137187343,"cityname":"深圳市","adname":"南山区"},{"id":"B02F37WRRX","name":"金地天悦湾","type":"商务住宅;住宅区;住宅小区","typecode":"120302","address":"观澜街道梅观高速与环观南路交汇处","location":"114.060162,22.693802","transed_lng":114.0550356288735,"transed_lat":22.696490750777684,"cityname":"深圳市","adname":"龙华区"},{"id":"B02F30AIGG","name":"中央悦城","type":"商务住宅;住宅区;住宅小区","typecode":"120302","address":"龙岗中心城龙平西路与长兴北路交汇处","location":"114.24206,22.732298","transed_lng":114.23721902158613,"transed_lat":22.735127303490593,"cityname":"深圳市","adname":"龙岗区"},{"id":"B02F37WMWQ","name":"红树绿洲","type":"商务住宅;住宅区;住宅小区","typecode":"120302","address":"桂花路15号","location":"114.05178,22.508798","transed_lng":114.04667615725455,"transed_lat":22.511528252145613,"cityname":"深圳市","adname":"福田区"},{"id":"B02F37VFY7","name":"新龙岗花园","type":"商务住宅;住宅区;住宅小区","typecode":"120302","address":"龙平东路532号","location":"114.254507,22.735213","transed_lng":114.24967433505209,"transed_lat":22.738042169564235,"cityname":"深圳市","adname":"龙岗区"},{"id":"B02F37VH59","name":"金洲花园","type":"商务住宅;住宅区;住宅小区","typecode":"120302","address":"布心金洲路213号","location":"114.133998,22.58802","transed_lng":114.12892460536888,"transed_lat":22.590722576560587,"cityname":"深圳市","adname":"罗湖区"},{"id":"B02F37WRRJ","name":"创业花园","type":"商务住宅;住宅区;住宅小区","typecode":"120302","address":"民宝路","location":"114.025534,22.616556","transed_lng":114.02047228318891,"transed_lat":22.619339617544245,"cityname":"深圳市","adname":"龙华区"},{"id":"B02F300E17","name":"新洲大厦","type":"商务住宅;住宅区;住宅小区","typecode":"120302","address":"新洲南路3191","location":"114.04904,22.526756","transed_lng":114.04393902666963,"transed_lat":22.52949123335479,"cityname":"深圳市","adname":"福田区"},{"id":"B02F37TUN6","name":"鹏益花园","type":"商务住宅;住宅区;住宅小区","typecode":"120302","address":"八卦二路","location":"114.094565,22.560168","transed_lng":114.08943796955997,"transed_lat":22.56284812226155,"cityname":"深圳市","adname":"福田区"},{"id":"B02F37U0AB","name":"南油B区","type":"商务住宅;住宅区;住宅小区","typecode":"120302","address":"南油大厦后","location":"113.929618,22.51006","transed_lng":113.9247560635103,"transed_lat":22.51309765927252,"cityname":"深圳市","adname":"南山区"},{"id":"B02F37VMNN","name":"福园(荔林路)","type":"商务住宅;住宅区;住宅小区","typecode":"120302","address":"向南路67号附近","location":"113.918129,22.506547","transed_lng":113.91327126643735,"transed_lat":22.509596056922536,"cityname":"深圳市","adname":"南山区"},{"id":"B02F37VG57","name":"五洲星苑","type":"商务住宅;住宅区;住宅小区","typecode":"120302","address":"新闻路12号","location":"114.045494,22.542072","transed_lng":114.0403976789995,"transed_lat":22.54481401232276,"cityname":"深圳市","adname":"福田区"},{"id":"B02F37VMBM","name":"慢城","type":"商务住宅;住宅区;住宅小区","typecode":"120302","address":"科技园路","location":"114.129786,22.624260","transed_lng":114.12470148065076,"transed_lat":22.62695177717513,"cityname":"深圳市","adname":"龙岗区"},{"id":"B02F37VL9L","name":"丽晶国际","type":"商务住宅;住宅区;住宅小区","typecode":"120302","address":"创业一路1006号","location":"113.889882,22.555866","transed_lng":113.885004241711,"transed_lat":22.558915272244935,"cityname":"深圳市","adname":"宝安区"},{"id":"B02F37VG4Q","name":"波托菲诺-纯水岸","type":"商务住宅;住宅区;住宅小区","typecode":"120302","address":"华侨城香山街","location":"113.975075,22.546255","transed_lng":113.97014095245497,"transed_lat":22.549195513693817,"cityname":"深圳市","adname":"南山区"},{"id":"B02F37VENJ","name":"仙湖枫景","type":"商务住宅;住宅区;住宅小区","typecode":"120302","address":"聚宝路173","location":"114.169669,22.565961","transed_lng":114.16468688006819,"transed_lat":22.56872657943825,"cityname":"深圳市","adname":"罗湖区"},{"id":"B02F37VF0N","name":"百仕达花园1期","type":"商务住宅;住宅区;住宅小区","typecode":"120302","address":"太宁路28号","location":"114.1346,22.570469","transed_lng":114.12952904246612,"transed_lat":22.573174412366182,"cityname":"深圳市","adname":"罗湖区"},{"id":"B02F37UIMY","name":"英达钰龙园","type":"商务住宅;住宅区;住宅小区","typecode":"120302","address":"南新路3058号","location":"113.920828,22.539354","transed_lng":113.91596782720049,"transed_lat":22.54239956545704,"cityname":"深圳市","adname":"南山区"},{"id":"B02F30A0BA","name":"金海燕","type":"商务住宅;住宅区;住宅小区","typecode":"120302","address":"南山深南大道侨城东路1151号","location":"113.996493,22.530165","transed_lng":113.99150797193037,"transed_lat":22.53304367251097,"cityname":"深圳市","adname":"福田区"},{"id":"B02F37W9JL","name":"阳光花园1期","type":"商务住宅;住宅区;住宅小区","typecode":"120302","address":"布吉下水径路","location":"114.117133,22.615325","transed_lng":114.11202639891587,"transed_lat":22.618005523653313,"cityname":"深圳市","adname":"龙岗区"},{"id":"B02F37VFR3","name":"中南花园(新乐路三巷)","type":"商务住宅;住宅区;住宅小区","typecode":"120302","address":"宝安38区宝安道与新安一路交汇处","location":"113.901752,22.550252","transed_lng":113.89688624994297,"transed_lat":22.553304817028113,"cityname":"深圳市","adname":"宝安区"},{"id":"B02F37VDPO","name":"金域豪庭","type":"商务住宅;住宅区;住宅小区","typecode":"120302","address":[],"location":"113.808706,22.670678","transed_lng":113.80363355059175,"transed_lat":22.6735860244921,"cityname":"深圳市","adname":"宝安区"},{"id":"B02F37W3A1","name":"海景公寓","type":"商务住宅;住宅区;住宅小区","typecode":"120302","address":"赤湾四路45号附近","location":"113.88405,22.478603","transed_lng":113.87916914264753,"transed_lat":22.48165124477276,"cityname":"深圳市","adname":"南山区"},{"id":"B02F30AAQM","name":"万象新园","type":"商务住宅;住宅区;住宅小区","typecode":"120302","address":"南光路67号","location":"113.927078,22.52396","transed_lng":113.92221660526849,"transed_lat":22.52700019867999,"cityname":"深圳市","adname":"南山区"},{"id":"B02F30AA8F","name":"田心村","type":"商务住宅;住宅区;住宅小区","typecode":"120302","address":"宝岗路168号","location":"114.113484,22.567834","transed_lng":114.10837510259557,"transed_lat":22.5705181373002,"cityname":"深圳市","adname":"罗湖区"},{"id":"B02F30241F","name":"学府花园","type":"商务住宅;住宅区;住宅小区","typecode":"120302","address":"学府路103号","location":"113.926234,22.525934","transed_lng":113.92137288513453,"transed_lat":22.52897504787927,"cityname":"深圳市","adname":"南山区"},{"id":"B02F309KBP","name":"香蜜三村","type":"商务住宅;住宅区;住宅小区","typecode":"120302","address":"景田南四街30号","location":"114.047395,22.546102","transed_lng":114.0422953314428,"transed_lat":22.548839577401303,"cityname":"深圳市","adname":"福田区"},{"id":"B02F30A75L","name":"瑞和园","type":"商务住宅;住宅区;住宅小区","typecode":"120302","address":"益田路3001号","location":"114.055831,22.523671","transed_lng":114.05072077204069,"transed_lat":22.52639299035565,"cityname":"深圳市","adname":"福田区"},{"id":"B02F37VFH9","name":"金碧世家","type":"商务住宅;住宅区;住宅小区","typecode":"120302","address":"人民路与和平路交汇处","location":"114.025389,22.65176","transed_lng":114.02032532567443,"transed_lat":22.654537562595685,"cityname":"深圳市","adname":"龙华区"},{"id":"B02F37VFKX","name":"翠湖山庄(龙岗大道)","type":"商务住宅;住宅区;住宅小区","typecode":"120302","address":"横岗街道办深惠路644号","location":"114.202012,22.640703","transed_lng":114.1971090089746,"transed_lat":22.64351549315753,"cityname":"深圳市","adname":"龙岗区"},{"id":"B02F37UR8S","name":"金鼎大厦","type":"商务住宅;住宅区;住宅小区","typecode":"120302","address":"嘉宾路1001号(彭年酒店对面)","location":"114.124895,22.541381","transed_lng":114.1198064228876,"transed_lat":22.54407710938664,"cityname":"深圳市","adname":"罗湖区"},{"id":"B02F37U081","name":"南海城中心","type":"商务住宅;住宅区;住宅小区","typecode":"120302","address":"南山大道1108","location":"113.922983,22.518429","transed_lng":113.91812360127432,"transed_lat":22.521473663812618,"cityname":"深圳市","adname":"南山区"},{"id":"B02F301ADC","name":"怡翠花园","type":"商务住宅;住宅区;住宅小区","typecode":"120302","address":"广深路西乡段146号","location":"113.878103,22.584602","transed_lng":113.87320588186542,"transed_lat":22.587639616676828,"cityname":"深圳市","adname":"宝安区"},{"id":"B02F37VQSM","name":"三联村","type":"商务住宅;住宅区;住宅小区","typecode":"120302","address":"松园大道1-8号附近","location":"114.115744,22.625129","transed_lng":114.11063464197012,"transed_lat":22.627806839762528,"cityname":"深圳市","adname":"龙岗区"},{"id":"B02F37VM4M","name":"塘朗雅苑","type":"商务住宅;住宅区;住宅小区","typecode":"120302","address":"珠光路314号","location":"113.960344,22.573457","transed_lng":113.95543880827667,"transed_lat":22.57643342006936,"cityname":"深圳市","adname":"南山区"},{"id":"B02F38IAJ1","name":"华强花园(三号路)","type":"商务住宅;住宅区;住宅小区","typecode":"120302","address":"福虹路45号","location":"114.085415,22.538953","transed_lng":114.08028633657518,"transed_lat":22.54163806373393,"cityname":"深圳市","adname":"福田区"},{"id":"B02F3055NR","name":"怡景花园(爱国路)","type":"商务住宅;住宅区;住宅小区","typecode":"120302","address":"怡景路2003号","location":"114.136757,22.555002","transed_lng":114.13169178093894,"transed_lat":22.55771186007408,"cityname":"深圳市","adname":"罗湖区"},{"id":"B02F37VK8B","name":"龙园意境","type":"商务住宅;住宅区;住宅小区","typecode":"120302","address":"布吉镇景芬路2号","location":"114.124685,22.620788","transed_lng":114.11959086929912,"transed_lat":22.62347457189396,"cityname":"深圳市","adname":"龙岗区"},{"id":"B02F38J1X9","name":"侨社大院","type":"商务住宅;住宅区;住宅小区","typecode":"120302","address":"和平路1047号华侨大厦1号楼","location":"114.115645,22.528642","transed_lng":114.11054178073003,"transed_lat":22.531330554932428,"cityname":"深圳市","adname":"罗湖区"},{"id":"B02F309JM7","name":"雕塑家园","type":"商务住宅;住宅区;住宅小区","typecode":"120302","address":"中康南路8号","location":"114.059996,22.563348","transed_lng":114.05487832853957,"transed_lat":22.56605993211315,"cityname":"深圳市","adname":"福田区"},{"id":"B02F37VG15","name":"缇香名苑","type":"商务住宅;住宅区;住宅小区","typecode":"120302","address":"香梅路1072号","location":"114.041295,22.544897","transed_lng":114.03620576830893,"transed_lat":22.54764842100513,"cityname":"深圳市","adname":"福田区"},{"id":"B02F37UT1V","name":"新一代国际公寓","type":"商务住宅;住宅区;住宅小区","typecode":"120302","address":"东滨路(蛇口沃尔玛北斜对面)","location":"113.924754,22.505209","transed_lng":113.91989482026722,"transed_lat":22.508252271273886,"cityname":"深圳市","adname":"南山区"},{"id":"B02F37VRI8","name":"台湾花园","type":"商务住宅;住宅区;住宅小区","typecode":"120302","address":"东园路30号岁宝百货对面","location":"114.102545,22.537155","transed_lng":114.09742534868244,"transed_lat":22.539837009539593,"cityname":"深圳市","adname":"福田区"},{"id":"B02F3006CF","name":"碧荔花园","type":"商务住宅;住宅区;住宅小区","typecode":"120302","address":"梅林路137号","location":"114.046148,22.566566","transed_lng":114.04104901077424,"transed_lat":22.56930453789304,"cityname":"深圳市","adname":"福田区"},{"id":"B02F305MIT","name":"东方玫瑰花园","type":"商务住宅;住宅区;住宅小区","typecode":"120302","address":"香梅路","location":"114.042031,22.540166","transed_lng":114.03694075651605,"transed_lat":22.542916016035104,"cityname":"深圳市","adname":"福田区"},{"id":"B02F37VG04","name":"竹园小区(建业三街)","type":"商务住宅;住宅区;住宅小区","typecode":"120302","address":"建业三街与农林路交汇处西北方向","location":"114.015689,22.540603","transed_lng":114.01065524976823,"transed_lat":22.543423384152558,"cityname":"深圳市","adname":"福田区"},{"id":"B02F37W16G","name":"世纪华庭(东环二路)","type":"商务住宅;住宅区;住宅小区","typecode":"120302","address":"龙华街道和平路111号","location":"114.034562,22.65901","transed_lng":114.02947823271302,"transed_lat":22.66176160809248,"cityname":"深圳市","adname":"龙华区"},{"id":"B02F309X0E","name":"鸿翔花园(松园北街)","type":"商务住宅;住宅区;住宅小区","typecode":"120302","address":"松园路68号","location":"114.106417,22.553892","transed_lng":114.10130016800794,"transed_lat":22.556573875780472,"cityname":"深圳市","adname":"罗湖区"},{"id":"B02F37VFI1","name":"东方半岛花园","type":"商务住宅;住宅区;住宅小区","typecode":"120302","address":"布龙路2号","location":"114.131974,22.612109","transed_lng":114.12689475702932,"transed_lat":22.614805507658577,"cityname":"深圳市","adname":"龙岗区"},{"id":"B02F37VIXJ","name":"水围新村","type":"商务住宅;住宅区;住宅小区","typecode":"120302","address":[],"location":"114.002114,22.684238","transed_lng":113.99710482003212,"transed_lat":22.687076665960237,"cityname":"深圳市","adname":"龙华区"},{"id":"B02F37VMF1","name":"中海阳光玫瑰园","type":"商务住宅;住宅区;住宅小区","typecode":"120302","address":"前海路333号","location":"113.89618,22.502571","transed_lng":113.89131258205589,"transed_lat":22.505625306912606,"cityname":"深圳市","adname":"南山区"},{"id":"B02F37TAVT","name":"枫丹雅苑","type":"商务住宅;住宅区;住宅小区","typecode":"120302","address":"四号路1号","location":"114.023236,22.553615","transed_lng":114.01818357634014,"transed_lat":22.556412733067027,"cityname":"深圳市","adname":"福田区"},{"id":"B02F37VKPN","name":"菁英趣庭","type":"商务住宅;住宅区;住宅小区","typecode":"120302","address":"裕安一路3076号","location":"113.888708,22.559862","transed_lng":113.8838284970336,"transed_lat":22.56291029841635,"cityname":"深圳市","adname":"宝安区"},{"id":"B02F37VFND","name":"南山花园(前海路)","type":"商务住宅;住宅区;住宅小区","typecode":"120302","address":"前海路118号","location":"113.895814,22.498117","transed_lng":113.89094650607561,"transed_lat":22.50117126459814,"cityname":"深圳市","adname":"南山区"},{"id":"B02F37U3P3","name":"铁岗村","type":"商务住宅;住宅区;住宅小区","typecode":"120302","address":"宝田一路与铁岗路交叉口东北50米","location":"113.887944,22.599407","transed_lng":113.8830609906305,"transed_lat":22.60245029403858,"cityname":"深圳市","adname":"宝安区"},{"id":"B02F37W9MY","name":"锦绣江南1期","type":"商务住宅;住宅区;住宅小区","typecode":"120302","address":"人民南路与布龙公路交界处","location":"114.027676,22.636568","transed_lng":114.02260822356665,"transed_lat":22.63934225407089,"cityname":"深圳市","adname":"龙华区"},{"id":"B02F37VFO8","name":"观海台","type":"商务住宅;住宅区;住宅小区","typecode":"120302","address":"创业路4号","location":"113.937552,22.514649","transed_lng":113.93268343044097,"transed_lat":22.517675350278314,"cityname":"深圳市","adname":"南山区"},{"id":"B02F309S9S","name":"东和花园","type":"商务住宅;住宅区;住宅小区","typecode":"120302","address":"和平路156号","location":"114.032524,22.660767","transed_lng":114.02744428751069,"transed_lat":22.663523485735418,"cityname":"深圳市","adname":"龙华区"},{"id":"B02F37W0VB","name":"盛世江南","type":"商务住宅;住宅区;住宅小区","typecode":"120302","address":"龙华街道建设东路和平路与清泉路的交汇处","location":"114.039755,22.661381","transed_lng":114.03466101270205,"transed_lat":22.664119233910288,"cityname":"深圳市","adname":"龙华区"},{"id":"B02F37VMXC","name":"欧景城(宏福路)","type":"商务住宅;住宅区;住宅小区","typecode":"120302","address":"吉祥路435号","location":"114.23734,22.723899","transed_lng":114.23249464994576,"transed_lat":22.72672891517662,"cityname":"深圳市","adname":"龙岗区"},{"id":"B02F37VQ4F","name":"长龙新村(长兴路)","type":"商务住宅;住宅区;住宅小区","typecode":"120302","address":"长龙路107-1","location":"114.114584,22.611487","transed_lng":114.10947382433717,"transed_lat":22.614166260611988,"cityname":"深圳市","adname":"龙岗区"},{"id":"B02F37VVZY","name":"皇庭世纪","type":"商务住宅;住宅区;住宅小区","typecode":"120302","address":"益田路3006号","location":"114.057471,22.525952","transed_lng":114.05235862207458,"transed_lat":22.528670921254708,"cityname":"深圳市","adname":"福田区"},{"id":"B02F37VFQO","name":"新锦安雅园","type":"商务住宅;住宅区;住宅小区","typecode":"120302","address":"宝安宝安区38区翻身路","location":"113.904299,22.549527","transed_lng":113.89943495353806,"transed_lat":22.552579744565982,"cityname":"深圳市","adname":"宝安区"},{"id":"B02F37W9OQ","name":"泰华明珠","type":"商务住宅;住宅区;住宅小区","typecode":"120302","address":"建安二路与流塘路交汇处","location":"113.885018,22.581422","transed_lng":113.88013206371681,"transed_lat":22.584465737289964,"cityname":"深圳市","adname":"宝安区"},{"id":"B02F37VUTF","name":"擎天华庭","type":"商务住宅;住宅区;住宅小区","typecode":"120302","address":"景田路77号开元国际","location":"114.044463,22.55106","transed_lng":114.03936782369456,"transed_lat":22.55380366251276,"cityname":"深圳市","adname":"福田区"},{"id":"B02F37WBRI","name":"民乐花园","type":"商务住宅;住宅区;住宅小区","typecode":"120302","address":"梅观高速公路梅林关口民乐村","location":"114.054901,22.5983","transed_lng":114.04978709846756,"transed_lat":22.60101689750758,"cityname":"深圳市","adname":"龙华区"},{"id":"B02F37TIKK","name":"赛格苑","type":"商务住宅;住宅区;住宅小区","typecode":"120302","address":"华强南路3034","location":"114.088009,22.5393","transed_lng":114.08288075989721,"transed_lat":22.541983719812805,"cityname":"深圳市","adname":"福田区"},{"id":"B02F38IOP9","name":"雍景湾","type":"商务住宅;住宅区;住宅小区","typecode":"120302","address":"南山深圳市南山区爱榕路48号","location":"113.931248,22.496079","transed_lng":113.92638587670078,"transed_lat":22.499114791992834,"cityname":"深圳市","adname":"南山区"},{"id":"B02F37VAFZ","name":"百仕达花园2期","type":"商务住宅;住宅区;住宅小区","typecode":"120302","address":"罗湖东晓路南段,罗湖太安路98号","location":"114.133364,22.57312","transed_lng":114.12829021830647,"transed_lat":22.575823474450424,"cityname":"深圳市","adname":"罗湖区"},{"id":"B02F309RFC","name":"大世纪花园","type":"商务住宅;住宅区;住宅小区","typecode":"120302","address":"中兴路40号","location":"114.126011,22.610479","transed_lng":114.12092001134242,"transed_lat":22.613168656413595,"cityname":"深圳市","adname":"龙岗区"},{"id":"B02F37VKCM","name":"水岸新都3期","type":"商务住宅;住宅区;住宅小区","typecode":"120302","address":"仙人岭路","location":"114.278619,22.746568","transed_lng":114.27378404341238,"transed_lat":22.7493788201602,"cityname":"深圳市","adname":"龙岗区"},{"id":"B02F37V3BY","name":"缤纷假日","type":"商务住宅;住宅区;住宅小区","typecode":"120302","address":"南光路112号","location":"113.927818,22.520407","transed_lng":113.92295644729664,"transed_lat":22.52344649578634,"cityname":"深圳市","adname":"南山区"},{"id":"B02F300D46","name":"电影大厦","type":"商务住宅;住宅区;住宅小区","typecode":"120302","address":"桂园路4-1号","location":"114.113201,22.544947","transed_lng":114.10809319796148,"transed_lat":22.547632918207874,"cityname":"深圳市","adname":"罗湖区"},{"id":"B02F37U6MI","name":"潜龙鑫茂花园","type":"商务住宅;住宅区;住宅小区","typecode":"120302","address":"民治大道西侧(民治天虹对面)","location":"114.042870,22.610966","transed_lng":114.03777367412954,"transed_lat":22.61370626564209,"cityname":"深圳市","adname":"龙华区"},{"id":"B02F37VFQS","name":"梦想家园","type":"商务住宅;住宅区;住宅小区","typecode":"120302","address":"南海大道2536号","location":"113.927001,22.512044","transed_lng":113.92214039531326,"transed_lat":22.515084702005527,"cityname":"深圳市","adname":"南山区"},{"id":"B02F38IB80","name":"紫荆花园(金稻田路)","type":"商务住宅;住宅区;住宅小区","typecode":"120302","address":"布心金稻田路","location":"114.117112,22.587089","transed_lng":114.11200720736227,"transed_lat":22.58977354644691,"cityname":"深圳市","adname":"罗湖区"},{"id":"B02F37VFQ7","name":"松坪村","type":"商务住宅;住宅区;住宅小区","typecode":"120302","address":"松坪街8号","location":"113.954462,22.558978","transed_lng":113.94956810803293,"transed_lat":22.561969445080763,"cityname":"深圳市","adname":"南山区"},{"id":"B02F38IEX7","name":"凤凰山庄","type":"商务住宅;住宅区;住宅小区","typecode":"120302","address":"爱国路4002东湖公园(游乐场对面)","location":"114.146070,22.571145","transed_lng":114.14102557973834,"transed_lat":22.573867589904655,"cityname":"深圳市","adname":"罗湖区"},{"id":"B02F37VK7O","name":"下水径新村北区","type":"商务住宅;住宅区;住宅小区","typecode":"120302","address":"布吉街","location":"114.107731,22.615469","transed_lng":114.10261163024069,"transed_lat":22.618143866494208,"cityname":"深圳市","adname":"龙岗区"},{"id":"B02F37WK55","name":"宝安新村","type":"商务住宅;住宅区;住宅小区","typecode":"120302","address":"流塘路333","location":"113.892865,22.587976","transed_lng":113.88798873275212,"transed_lat":22.5910232139174,"cityname":"深圳市","adname":"宝安区"},{"id":"B02F37UU5J","name":"比华利山庄(稻花路)","type":"商务住宅;住宅区;住宅小区","typecode":"120302","address":"稻花路69号","location":"114.118976,22.587421","transed_lng":114.11387414588354,"transed_lat":22.590107026170987,"cityname":"深圳市","adname":"罗湖区"},{"id":"B02F37VL1A","name":"鸿基花园","type":"商务住宅;住宅区;住宅小区","typecode":"120302","address":"金稻田路2053号","location":"114.121458,22.582482","transed_lng":114.11636061931185,"transed_lat":22.585170854727433,"cityname":"深圳市","adname":"罗湖区"},{"id":"B02F309R10","name":"春晖苑(福彩路)","type":"商务住宅;住宅区;住宅小区","typecode":"120302","address":"彩田路3028号","location":"114.068706,22.542271","transed_lng":114.0635819964026,"transed_lat":22.544971604283482,"cityname":"深圳市","adname":"福田区"},{"id":"B02F38I8ZY","name":"世纪村(石洲中路)","type":"商务住宅;住宅区;住宅小区","typecode":"120302","address":"沙河东路118号","location":"113.965716,22.533152","transed_lng":113.96080290963322,"transed_lat":22.5361183672664,"cityname":"深圳市","adname":"南山区"},{"id":"B02F37VN7A","name":"东村","type":"商务住宅;住宅区;住宅小区","typecode":"120302","address":"泥岗红岭立交与泥岗西路交叉口北150米","location":"114.101313,22.567249","transed_lng":114.09619028548755,"transed_lat":22.569928392258195,"cityname":"深圳市","adname":"罗湖区"},{"id":"B02F37VB9O","name":"宁水花园","type":"商务住宅;住宅区;住宅小区","typecode":"120302","address":"黄贝街道沿河北路2012号","location":"114.145641,22.561802","transed_lng":114.14059613341713,"transed_lat":22.56452481428871,"cityname":"深圳市","adname":"罗湖区"},{"id":"B02F37VIXT","name":"可乐园","type":"商务住宅;住宅区;住宅小区","typecode":"120302","address":"大浪街道办石观路","location":"113.999412,22.664085","transed_lng":113.9944109720822,"transed_lat":22.666936494290837,"cityname":"深圳市","adname":"龙华区"},{"id":"B02F302571","name":"花果山大厦","type":"商务住宅;楼宇;商务写字楼|商务住宅;住宅区;住宅小区","typecode":"120201|120302","address":"公园路","location":"113.925178,22.4933","transed_lng":113.92031940169565,"transed_lat":22.496342951257848,"cityname":"深圳市","adname":"南山区"},{"id":"B02F37VDLX","name":"集浩大厦","type":"商务住宅;住宅区;住宅小区","typecode":"120302","address":"深南东路1086号","location":"114.135449,22.546401","transed_lng":114.1303814514605,"transed_lat":22.549109702657418,"cityname":"深圳市","adname":"罗湖区"},{"id":"B02F37UQCF","name":"二号大院","type":"商务住宅;住宅区;住宅小区","typecode":"120302","address":"洪湖二街2号","location":"114.122734,22.561454","transed_lng":114.11764021298879,"transed_lat":22.56414631008585,"cityname":"深圳市","adname":"罗湖区"},{"id":"B02F30AI4Y","name":"中海怡美山庄","type":"商务住宅;住宅区;住宅小区","typecode":"120302","address":"横岗街道横岗镇康乐路","location":"114.186091,22.647459","transed_lng":114.18114785402679,"transed_lat":22.650243125757164,"cityname":"深圳市","adname":"龙岗区"},{"id":"B02F37W8DH","name":"澳城花园","type":"商务住宅;住宅区;住宅小区","typecode":"120302","address":"蓝天路15-6号旁","location":"113.938459,22.487890","transed_lng":113.93359121425331,"transed_lat":22.49091524207083,"cityname":"深圳市","adname":"南山区"},{"id":"B02F37VH5F","name":"田心大厦","type":"商务住宅;住宅区;住宅小区","typecode":"120302","address":"宝岗路(宝岗路154号)","location":"114.11303,22.567281","transed_lng":114.10792050623887,"transed_lat":22.56996490521369,"cityname":"深圳市","adname":"罗湖区"},{"id":"B02F37W9OK","name":"丽湾国际公寓","type":"商务住宅;住宅区;住宅小区","typecode":"120302","address":"月亮湾片区兴海大道丽湾商务公寓B座","location":"113.891503,22.495638","transed_lng":113.88663100807733,"transed_lat":22.4986907614388,"cityname":"深圳市","adname":"南山区"},{"id":"B02F30A13F","name":"景福大厦","type":"商务住宅;住宅区;住宅小区","typecode":"120302","address":"滨河大道福祥街5号","location":"114.08295,22.531404","transed_lng":114.07782170628569,"transed_lat":22.534091038200618,"cityname":"深圳市","adname":"福田区"},{"id":"B02F30A5BN","name":"南海玫瑰花园2期","type":"商务住宅;住宅区;住宅小区","typecode":"120302","address":"望海路1089号","location":"113.924025,22.484791","transed_lng":113.91916737810577,"transed_lat":22.487835094197894,"cityname":"深圳市","adname":"南山区"},{"id":"B02F37VM9F","name":"阳光第五季花园","type":"商务住宅;住宅区;住宅小区","typecode":"120302","address":"坂田五和南路51号","location":"114.059631,22.618396","transed_lng":114.05451013466282,"transed_lat":22.62110139806987,"cityname":"深圳市","adname":"龙岗区"},{"id":"B02F37W5S6","name":"美丽湾","type":"商务住宅;住宅区;住宅小区","typecode":"120302","address":"粤海路15号","location":"113.920892,22.511319","transed_lng":113.91603358274516,"transed_lat":22.5143657636514,"cityname":"深圳市","adname":"南山区"},{"id":"B02F37WGXR","name":"观湖园(泗黎路)","type":"商务住宅;住宅区;住宅小区","typecode":"120302","address":"泗黎路408-1号","location":"114.036938,22.742665","transed_lng":114.03184406850518,"transed_lat":22.745389010195336,"cityname":"深圳市","adname":"龙华区"},{"id":"B02F37VG72","name":"德福花园","type":"商务住宅;住宅区;住宅小区","typecode":"120302","address":"西环路136号","location":"114.10606,22.595263","transed_lng":114.10094008061802,"transed_lat":22.59794023438085,"cityname":"深圳市","adname":"龙岗区"},{"id":"B02F30AFMS","name":"邮电大院","type":"商务住宅;住宅区;住宅小区","typecode":"120302","address":"洪湖一街10号","location":"114.122595,22.558921","transed_lng":114.11750113239145,"transed_lat":22.56161340312236,"cityname":"深圳市","adname":"罗湖区"},{"id":"B02F38IY97","name":"河滨花园","type":"商务住宅;住宅区;住宅小区","typecode":"120302","address":"石岩镇宝石南路","location":"113.934478,22.679107","transed_lng":113.92960181343258,"transed_lat":22.68211563116388,"cityname":"深圳市","adname":"宝安区"},{"id":"B02F37WQLI","name":"半山御景","type":"商务住宅;住宅区;住宅小区","typecode":"120302","address":"皇岗路(翰岭院旁)","location":"114.070661,22.572728","transed_lng":114.06553375560632,"transed_lat":22.575423469789364,"cityname":"深圳市","adname":"福田区"},{"id":"B02F37VH57","name":"星湖花园","type":"商务住宅;住宅区;住宅小区","typecode":"120302","address":"泥岗西村58号附近","location":"114.100243,22.567949","transed_lng":114.09511934019983,"transed_lat":22.570628198059428,"cityname":"深圳市","adname":"罗湖区"},{"id":"B02F37WQZ1","name":"三湘海尚","type":"商务住宅;住宅区;住宅小区","typecode":"120302","address":"南山科苑大道与东滨路西南侧(后海小学附近)","location":"113.942584,22.502665","transed_lng":113.93771071474663,"transed_lat":22.505683170722474,"cityname":"深圳市","adname":"南山区"},{"id":"B02F3028B3","name":"金色假日","type":"商务住宅;住宅区;住宅小区","typecode":"120302","address":"景田路与红荔西路交叉口南100米","location":"114.044519,22.546131","transed_lng":114.0394240489626,"transed_lat":22.54887490835338,"cityname":"深圳市","adname":"福田区"},{"id":"B02F30A48M","name":"茂业城","type":"商务住宅;住宅区;住宅小区","typecode":"120302","address":"布吉深惠路","location":"114.133928,22.611292","transed_lng":114.12885294279228,"transed_lat":22.61399119811233,"cityname":"深圳市","adname":"龙岗区"},{"id":"B02F37WG1J","name":"城市公寓(石新路)","type":"商务住宅;住宅区;住宅小区","typecode":"120302","address":"西丽镇留新大道,同沙路9栋1号楼","location":"113.950619,22.583742","transed_lng":113.94572965393493,"transed_lat":22.586739108664535,"cityname":"深圳市","adname":"南山区"},{"id":"B02F309PMO","name":"滨海春城","type":"商务住宅;住宅区;住宅小区","typecode":"120302","address":"翻身路与上川西路交汇处","location":"113.887809,22.569218","transed_lng":113.88292772279208,"transed_lat":22.572264883511682,"cityname":"深圳市","adname":"宝安区"},{"id":"B02F37VBLH","name":"景亿山庄","type":"商务住宅;住宅区;住宅小区","typecode":"120302","address":"东湖路90号","location":"114.142845,22.582266","transed_lng":114.13779205688229,"transed_lat":22.584982182779246,"cityname":"深圳市","adname":"罗湖区"},{"id":"B02F30070A","name":"碧华庭居","type":"商务住宅;住宅区;住宅小区","typecode":"120302","address":"梅华路183","location":"114.050164,22.563844","transed_lng":114.04505892464813,"transed_lat":22.566574264544645,"cityname":"深圳市","adname":"福田区"},{"id":"B02F37VFPX","name":"云海天城世家","type":"商务住宅;住宅区;住宅小区","typecode":"120302","address":"龙城路4号","location":"113.931974,22.513193","transed_lng":113.92711028169387,"transed_lat":22.516227535947515,"cityname":"深圳市","adname":"南山区"},{"id":"B02F37VWWS","name":"海馨苑","type":"商务住宅;住宅区;住宅小区","typecode":"120302","address":"华强北路4005号(近华新路)","location":"114.085513,22.552428","transed_lng":114.08038346857867,"transed_lat":22.5551120425337,"cityname":"深圳市","adname":"福田区"},{"id":"B02F37WQY3","name":"怡海花园","type":"商务住宅;住宅区;住宅小区","typecode":"120302","address":"华明路1-43号","location":"113.930612,22.507191","transed_lng":113.92574960744695,"transed_lat":22.510227470332527,"cityname":"深圳市","adname":"南山区"},{"id":"B02F37VFVL","name":"新亚洲花园","type":"商务住宅;住宅区;住宅小区","typecode":"120302","address":"吉祥路217号","location":"114.236562,22.715508","transed_lng":114.23171628818885,"transed_lat":22.71833987874829,"cityname":"深圳市","adname":"龙岗区"},{"id":"B02F37VP4U","name":"熙龙湾(海天路)","type":"商务住宅;住宅区;住宅小区","typecode":"120302","address":"甲岸路3号","location":"113.888840,22.547431","transed_lng":113.88396145397057,"transed_lat":22.550480390207714,"cityname":"深圳市","adname":"宝安区"},{"id":"B02F305XZD","name":"特发小区","type":"商务住宅;住宅区;住宅小区","typecode":"120302","address":"香梅路2003","location":"114.030278,22.554936","transed_lng":114.02520988082784,"transed_lat":22.557714339853398,"cityname":"深圳市","adname":"福田区"},{"id":"B02F305YH0","name":"翠湖花园(广深公路辅路)","type":"商务住宅;住宅区;住宅小区","typecode":"120302","address":"广深路西乡段662号","location":"113.841355,22.637293","transed_lng":113.83637142437688,"transed_lat":22.640268532968197,"cityname":"深圳市","adname":"宝安区"},{"id":"B02F37VG73","name":"鼎太风华南区","type":"商务住宅;住宅区;住宅小区","typecode":"120302","address":"前海路1083号","location":"113.910789,22.517763","transed_lng":113.90592979122947,"transed_lat":22.520815881230465,"cityname":"深圳市","adname":"南山区"},{"id":"B02F37VUEL","name":"华强花园B座","type":"商务住宅;住宅区;住宅小区","typecode":"120302","address":"深南中路与福虹路交叉口南150米","location":"114.084192,22.539236","transed_lng":114.07906322064801,"transed_lat":22.54192177464121,"cityname":"深圳市","adname":"福田区"},{"id":"B02F37U6DJ","name":"榕苑(横岭南路)","type":"商务住宅;住宅区;住宅小区","typecode":"120302","address":"民治大道29号","location":"114.045051,22.607019","transed_lng":114.03995119414779,"transed_lat":22.609754920265434,"cityname":"深圳市","adname":"龙华区"},{"id":"B02F37UMMU","name":"一品东门雅园","type":"商务住宅;住宅区;住宅小区","typecode":"120302","address":"中兴路168号(中兴路与乐园路交汇处)","location":"114.127652,22.549997","transed_lng":114.1225680868698,"transed_lat":22.552695537846635,"cityname":"深圳市","adname":"罗湖区"},{"id":"B02F37VLB7","name":"君悦龙庭","type":"商务住宅;住宅区;住宅小区","typecode":"120302","address":"夏长路46号","location":"114.222617,22.725794","transed_lng":114.2177505465988,"transed_lat":22.728612607539777,"cityname":"深圳市","adname":"龙岗区"},{"id":"B02F37VFLP","name":"圣淘沙骏园","type":"商务住宅;住宅区;住宅小区","typecode":"120302","address":"西乡大道286号","location":"113.862467,22.574064","transed_lng":113.85753944900172,"transed_lat":22.577083929500375,"cityname":"深圳市","adname":"宝安区"},{"id":"B02F3010FD","name":"中海华庭","type":"商务住宅;住宅区;住宅小区","typecode":"120302","address":"民田路89号","location":"114.052051,22.533603","transed_lng":114.04694516249204,"transed_lat":22.53633173845075,"cityname":"深圳市","adname":"福田区"},{"id":"B02F3002C6","name":"国城花园(百花一路)","type":"商务住宅;住宅区;住宅小区","typecode":"120302","address":"百花一路1号","location":"114.095083,22.550858","transed_lng":114.08995686767902,"transed_lat":22.553538833922747,"cityname":"深圳市","adname":"福田区"},{"id":"B02F37UUBB","name":"香缇雅苑","type":"商务住宅;住宅区;住宅小区","typecode":"120302","address":"东环一路","location":"114.043274,22.642649","transed_lng":114.03817490592208,"transed_lat":22.64538280696322,"cityname":"深圳市","adname":"龙华区"},{"id":"B02F37VFP9","name":"雍华府","type":"商务住宅;住宅区;住宅小区","typecode":"120302","address":"爱榕路75号","location":"113.928132,22.500644","transed_lng":113.9232715239325,"transed_lat":22.503683623334265,"cityname":"深圳市","adname":"南山区"},{"id":"B02F37VG76","name":"御景台(前进一路)","type":"商务住宅;住宅区;住宅小区","typecode":"120302","address":"前进一路53号","location":"113.912135,22.559757","transed_lng":113.90727347619931,"transed_lat":22.562806685990356,"cityname":"深圳市","adname":"宝安区"},{"id":"B02F37URG2","name":"凯悦华庭(春风路)","type":"商务住宅;住宅区;住宅小区","typecode":"120302","address":"春风路2047号","location":"114.126369,22.540057","transed_lng":114.12128326853959,"transed_lat":22.54275479326076,"cityname":"深圳市","adname":"罗湖区"},{"id":"B02F305YK7","name":"绿景蓝湾半岛","type":"商务住宅;住宅区;住宅小区","typecode":"120302","address":"福荣路20号","location":"114.040158,22.516161","transed_lng":114.03507270465481,"transed_lat":22.518916601564943,"cityname":"深圳市","adname":"福田区"},{"id":"B02F37VFO9","name":"水木华庭(龙珠六路)","type":"商务住宅;住宅区;住宅小区","typecode":"120302","address":"龙珠六路33号","location":"113.980269,22.562514","transed_lng":113.97532189390854,"transed_lat":22.56543848196005,"cityname":"深圳市","adname":"南山区"},{"id":"B02F37TS3H","name":"绿海名都","type":"商务住宅;住宅区;住宅小区","typecode":"120302","address":"学府路262号","location":"113.912759,22.529484","transed_lng":113.90789951288919,"transed_lat":22.532535514671824,"cityname":"深圳市","adname":"南山区"},{"id":"B02F309JLG","name":"大陆庄园","type":"商务住宅;住宅区;住宅小区","typecode":"120302","address":"南新路2099号","location":"113.917687,22.527677","transed_lng":113.91282796119792,"transed_lat":22.53072566096105,"cityname":"深圳市","adname":"南山区"},{"id":"B02F37VJV5","name":"九州家园(龙园路)","type":"商务住宅;住宅区;住宅小区","typecode":"120302","address":"龙园路","location":"114.263746,22.728384","transed_lng":114.25891590357953,"transed_lat":22.73121190453984,"cityname":"深圳市","adname":"龙岗区"},{"id":"B02F37VJUX","name":"沁园(翠竹路)","type":"商务住宅;住宅区;住宅小区","typecode":"120302","address":"翠竹路5号","location":"114.273689,22.721487","transed_lng":114.26885779943606,"transed_lat":22.724309888285227,"cityname":"深圳市","adname":"龙岗区"},{"id":"B02F37VFL3","name":"荟芳园","type":"商务住宅;住宅区;住宅小区","typecode":"120302","address":"南光路168号","location":"113.928686,22.527526","transed_lng":113.92382351702508,"transed_lat":22.53056416648466,"cityname":"深圳市","adname":"南山区"},{"id":"B02F38I8DC","name":"海湾花园","type":"商务住宅;住宅区;住宅小区","typecode":"120302","address":"海昌街3号","location":"113.921925,22.486037","transed_lng":113.91706793888507,"transed_lat":22.48908309125354,"cityname":"深圳市","adname":"南山区"},{"id":"B02F37VMK6","name":"中兆花园","type":"商务住宅;住宅区;住宅小区","typecode":"120302","address":"布吉镇区深惠路420号","location":"114.144325,22.618464","transed_lng":114.13927326236089,"transed_lat":22.62117738405058,"cityname":"深圳市","adname":"龙岗区"},{"id":"B02F30030D","name":"金湖花园","type":"商务住宅;住宅区;住宅小区","typecode":"120302","address":"银湖路28号","location":"114.095178,22.569224","transed_lng":114.09005072403504,"transed_lat":22.571903160551535,"cityname":"深圳市","adname":"罗湖区"},{"id":"B02F3002DD","name":"金豪花园","type":"商务住宅;住宅区;住宅小区","typecode":"120302","address":"罗湖泥岗东路1104号","location":"114.115468,22.574514","transed_lng":114.11036153141718,"transed_lat":22.577198787279432,"cityname":"深圳市","adname":"罗湖区"},{"id":"B02F37VFGX","name":"优品建筑","type":"商务住宅;住宅区;住宅小区","typecode":"120302","address":"建设路254","location":"114.022162,22.647571","transed_lng":114.017105970718,"transed_lat":22.65035844497638,"cityname":"深圳市","adname":"龙华区"},{"id":"B02F37VG6X","name":"阳光城市家园","type":"商务住宅;住宅区;住宅小区","typecode":"120302","address":"福田福民新村旁福港西路28号","location":"114.070788,22.523014","transed_lng":114.06566392124131,"transed_lat":22.52571301512375,"cityname":"深圳市","adname":"福田区"},{"id":"B02F37VKDV","name":"大信花园(中环路)","type":"商务住宅;住宅区;住宅小区","typecode":"120302","address":"龙发路215-1","location":"114.021391,22.649079","transed_lng":114.01633666544991,"transed_lat":22.651868330697535,"cityname":"深圳市","adname":"龙华区"},{"id":"B02F37V9WW","name":"官龙村","type":"商务住宅;住宅区;住宅小区","typecode":"120302","address":"好多多购物广场后面","location":"113.946342,22.588254","transed_lng":113.94145851113475,"transed_lat":22.591259125000274,"cityname":"深圳市","adname":"南山区"},{"id":"B02F37UBJB","name":"朝恒大厦","type":"商务住宅;住宅区;住宅小区","typecode":"120302","address":"福强路1024号","location":"114.06493,22.526357","transed_lng":114.0598099540598,"transed_lat":22.529063765748543,"cityname":"深圳市","adname":"福田区"},{"id":"B02F37UEGB","name":"黄埔雅苑","type":"商务住宅;住宅区;住宅小区","typecode":"120302","address":"福中路317号","location":"114.050952,22.545514","transed_lng":114.04584696025451,"transed_lat":22.548244185585254,"cityname":"深圳市","adname":"福田区"},{"id":"B02F37S6B6","name":"华联花园","type":"商务住宅;住宅区;住宅小区","typecode":"120302","address":"南山南山大道1109号","location":"113.920363,22.52026","transed_lng":113.91550412060525,"transed_lat":22.523306922172324,"cityname":"深圳市","adname":"南山区"},{"id":"B02F37U236","name":"椰风海岸","type":"商务住宅;住宅区;住宅小区","typecode":"120302","address":"桃园路305","location":"113.910892,22.5314","transed_lng":113.90603195979536,"transed_lat":22.53445224436652,"cityname":"深圳市","adname":"南山区"},{"id":"B02F309TRE","name":"福侨大厦","type":"商务住宅;住宅区;住宅小区","typecode":"120302","address":"福田福华路21号","location":"114.083645,22.537376","transed_lng":114.07851632173606,"transed_lat":22.54006223768102,"cityname":"深圳市","adname":"福田区"},{"id":"B02F37VJSY","name":"塘头又一村","type":"商务住宅;住宅区;住宅小区","typecode":"120302","address":"塘头大道","location":"113.917038,22.65271","transed_lng":113.9121710779779,"transed_lat":22.655743075783484,"cityname":"深圳市","adname":"宝安区"},{"id":"B02F37W4S2","name":"嘉年华名苑","type":"商务住宅;住宅区;住宅小区","typecode":"120302","address":"晒布路18号","location":"114.121767,22.549819","transed_lng":114.11667227781116,"transed_lat":22.552511359536922,"cityname":"深圳市","adname":"罗湖区"},{"id":"B02F37W6G1","name":"东方银座广场","type":"商务住宅;住宅区;住宅小区","typecode":"120302","address":"学府路220号","location":"113.915807,22.529078","transed_lng":113.91094788336667,"transed_lat":22.53212784455558,"cityname":"深圳市","adname":"南山区"},{"id":"B02F309XV9","name":"华美丽苑","type":"商务住宅;住宅区;住宅小区","typecode":"120302","address":"布龙路754","location":"114.042647,22.63108","transed_lng":114.03754975610292,"transed_lat":22.633817410240486,"cityname":"深圳市","adname":"龙华区"},{"id":"B02F37UK9Y","name":"合正名园","type":"商务住宅;住宅区;住宅小区","typecode":"120302","address":"新闻路29号","location":"114.044339,22.542467","transed_lng":114.03924459218445,"transed_lat":22.545211569778708,"cityname":"深圳市","adname":"福田区"},{"id":"B02F3057NC","name":"湖贝新村","type":"商务住宅;住宅区;住宅小区","typecode":"120302","address":"乐园路68号","location":"114.12899,22.548351","transed_lng":114.1239088231328,"transed_lat":22.55105123052579,"cityname":"深圳市","adname":"罗湖区"},{"id":"B02F37VFQX","name":"俊峰丽舍","type":"商务住宅;住宅区;住宅小区","typecode":"120302","address":"龙珠七路43号","location":"113.982971,22.561171","transed_lng":113.9780175345099,"transed_lat":22.5640877894792,"cityname":"深圳市","adname":"南山区"},{"id":"B02F37U3WJ","name":"宝龙新村","type":"商务住宅;住宅区;住宅小区","typecode":"120302","address":"大浪南路与华苑路交汇处东路北","location":"114.018061,22.675875","transed_lng":114.01301279402298,"transed_lat":22.678668088447573,"cityname":"深圳市","adname":"龙华区"},{"id":"B02F38IZYA","name":"圳埔岭","type":"商务住宅;住宅区;住宅小区|地名地址信息;普通地名;村庄级地名","typecode":"120302|190108","address":"南联社区","location":"114.252285,22.706502","transed_lng":114.24745311906041,"transed_lat":22.70933950935768,"cityname":"深圳市","adname":"龙岗区"},{"id":"B02F37VN9Q","name":"雍翠华府","type":"商务住宅;住宅区;住宅小区","typecode":"120302","address":"太白路4088号","location":"114.122397,22.577951","transed_lng":114.11730154602557,"transed_lat":22.580641281162944,"cityname":"深圳市","adname":"罗湖区"},{"id":"B02F37VN6T","name":"凯丰花园","type":"商务住宅;住宅区;住宅小区","typecode":"120302","address":"凯丰路8号","location":"114.064544,22.567406","transed_lng":114.05942161477545,"transed_lat":22.570110334086074,"cityname":"深圳市","adname":"福田区"},{"id":"B02F38N0UL","name":"石岩公馆","type":"商务住宅;住宅区;住宅小区","typecode":"120302","address":"坑尾大道1号","location":"113.937156,22.690416","transed_lng":113.93227667884668,"transed_lat":22.69341786885743,"cityname":"深圳市","adname":"宝安区"},{"id":"B02F37T9Q3","name":"翠景园","type":"商务住宅;住宅区;住宅小区","typecode":"120302","address":"商报路18号","location":"114.043736,22.550843","transed_lng":114.03864207937362,"transed_lat":22.553588325709022,"cityname":"深圳市","adname":"福田区"},{"id":"B02F37TGDY","name":"龙城花园(南商路)","type":"商务住宅;住宅区;住宅小区","typecode":"120302","address":"登良路18号","location":"113.927921,22.511399","transed_lng":113.92305996035657,"transed_lat":22.51443866579349,"cityname":"深圳市","adname":"南山区"},{"id":"B02F37VFOU","name":"红树西岸","type":"商务住宅;住宅区;住宅小区","typecode":"120302","address":"深湾一路3号","location":"113.965813,22.522218","transed_lng":113.96090040738981,"transed_lat":22.525184642103813,"cityname":"深圳市","adname":"南山区"},{"id":"B02F3020CB","name":"锦隆花园","type":"商务住宅;住宅区;住宅小区","typecode":"120302","address":"勤学路1008号南门","location":"113.933541,22.52455","transed_lng":113.92867536980943,"transed_lat":22.527581971228635,"cityname":"深圳市","adname":"南山区"},{"id":"B02F37VMNK","name":"福满园(荔林路)","type":"商务住宅;住宅区;住宅小区","typecode":"120302","address":"向南路51号","location":"113.917632,22.506003","transed_lng":113.9127743306383,"transed_lat":22.509052423804423,"cityname":"深圳市","adname":"南山区"},{"id":"B02F37WI14","name":"万科金色半山","type":"商务住宅;住宅区;住宅小区","typecode":"120302","address":"玉平大道(清平快速)与布龙公路交汇处","location":"114.088274,22.630377","transed_lng":114.08313987421987,"transed_lat":22.633049493825304,"cityname":"深圳市","adname":"龙岗区"},{"id":"B02F37VWJT","name":"光纤小区","type":"商务住宅;住宅区;住宅小区","typecode":"120302","address":"八卦三路6号","location":"114.10322,22.562477","transed_lng":114.09809933074717,"transed_lat":22.56515719714755,"cityname":"深圳市","adname":"福田区"},{"id":"B02F37VBZX","name":"东湖大厦","type":"商务住宅;住宅区;住宅小区|商务住宅;楼宇;商务写字楼","typecode":"120302|120201","address":"爱国路3018号","location":"114.139655,22.561404","transed_lng":114.13459593113424,"transed_lat":22.56411751149845,"cityname":"深圳市","adname":"罗湖区"},{"id":"B02F38J07I","name":"云顶嘉园","type":"商务住宅;住宅区;住宅小区","typecode":"120302","address":"新安四路313号","location":"113.889146,22.575673","transed_lng":113.88426606001687,"transed_lat":22.57871995172404,"cityname":"深圳市","adname":"宝安区"},{"id":"B02F37TKCI","name":"天一名居","type":"商务住宅;住宅区;住宅小区","typecode":"120302","address":"商报东路129号","location":"114.047065,22.555156","transed_lng":114.04196526918992,"transed_lat":22.55789358243778,"cityname":"深圳市","adname":"福田区"},{"id":"B02F30ADVD","name":"旭飞花园C座","type":"商务住宅;住宅区;住宅小区","typecode":"120302","address":"八卦二路15号","location":"114.103317,22.558682","transed_lng":114.09819667087315,"transed_lat":22.56136256469362,"cityname":"深圳市","adname":"福田区"},{"id":"B02F37TW9M","name":"金地海景花园B区","type":"商务住宅;住宅区;住宅小区","typecode":"120302","address":"金地十路4号","location":"114.043192,22.514551","transed_lng":114.03810137559597,"transed_lat":22.51729954624429,"cityname":"深圳市","adname":"福田区"},{"id":"B02F30AIGY","name":"中银花园(福中一路)","type":"商务住宅;住宅区;住宅小区","typecode":"120302","address":"彩田路5015","location":"114.066236,22.547553","transed_lng":114.06111348953532,"transed_lat":22.550256603001976,"cityname":"深圳市","adname":"福田区"},{"id":"B02F37VN6J","name":"梅山苑","type":"商务住宅;住宅区;住宅小区","typecode":"120302","address":"梅山街1号","location":"114.033323,22.564034","transed_lng":114.02824792128034,"transed_lat":22.5668035394988,"cityname":"深圳市","adname":"福田区"},{"id":"B02F37VG0O","name":"时代华庭(商报东路)","type":"商务住宅;住宅区;住宅小区","typecode":"120302","address":"商报东路15号","location":"114.048324,22.543529","transed_lng":114.04322303936371,"transed_lat":22.54626477385824,"cityname":"深圳市","adname":"福田区"},{"id":"B02F37TSSY","name":"南海玫瑰花园1期","type":"商务住宅;住宅区;住宅小区","typecode":"120302","address":"望海路1093号","location":"113.921311,22.48311","transed_lng":113.91645427036724,"transed_lat":22.486156606463748,"cityname":"深圳市","adname":"南山区"},{"id":"B02F37V8G8","name":"塘头村","type":"商务住宅;住宅区;住宅小区","typecode":"120302","address":"塘头大道68号","location":"113.917657,22.659467","transed_lng":113.9127896281698,"transed_lat":22.662498232503193,"cityname":"深圳市","adname":"宝安区"},{"id":"B02F37VFN7","name":"文汇花园(裕安二路)","type":"商务住宅;住宅区;住宅小区","typecode":"120302","address":"宝民一路204号","location":"113.895401,22.569935","transed_lng":113.89052856047019,"transed_lat":22.572985127577528,"cityname":"深圳市","adname":"宝安区"},{"id":"B02F37VX08","name":"凯旋豪庭","type":"商务住宅;住宅区;住宅小区","typecode":"120302","address":"红荔西路7018号","location":"114.047092,22.54791","transed_lng":114.04199269689573,"transed_lat":22.550648098645873,"cityname":"深圳市","adname":"福田区"},{"id":"B02F37VFRW","name":"鸿昌花园","type":"商务住宅;住宅区;住宅小区","typecode":"120302","address":"宝城49区东临广深公路西侧为翻身支路","location":"113.887281,22.572327","transed_lng":113.88239881572143,"transed_lat":22.575373241863435,"cityname":"深圳市","adname":"宝安区"},{"id":"B02F37WDPT","name":"富通御岭公馆","type":"商务住宅;住宅区;住宅小区","typecode":"120302","address":"松岗广深高速与沙江路交汇处北侧(中海西岸华府北侧)","location":"113.813688,22.77497","transed_lng":113.8086215740106,"transed_lat":22.777857663539006,"cityname":"深圳市","adname":"宝安区"},{"id":"B02F309ZBW","name":"嘉园","type":"商务住宅;住宅区;住宅小区","typecode":"120302","address":"四号路3号","location":"114.02284,22.554624","transed_lng":114.0177884213667,"transed_lat":22.55742276423076,"cityname":"深圳市","adname":"福田区"},{"id":"B02F3002CB","name":"湖景花园","type":"商务住宅;住宅区;住宅小区","typecode":"120302","address":"洪湖路34号","location":"114.120248,22.558796","transed_lng":114.11515010751444,"transed_lat":22.561486210599064,"cityname":"深圳市","adname":"罗湖区"},{"id":"B02F37WQM2","name":"绿景大公馆","type":"商务住宅;住宅区;住宅小区","typecode":"120302","address":"龙岗中心城龙翔大道与黄阁中路交汇处","location":"114.220686,22.696737","transed_lng":114.21581804596481,"transed_lat":22.699561496940188,"cityname":"深圳市","adname":"龙岗区"},{"id":"B02F37UT6U","name":"阳明山庄(梅岗路)","type":"商务住宅;住宅区;住宅小区","typecode":"120302","address":"梅岗路3","location":"114.083845,22.559576","transed_lng":114.07871487926404,"transed_lat":22.562260437036226,"cityname":"深圳市","adname":"福田区"},{"id":"B02F38IFYB","name":"沙吓村","type":"商务住宅;住宅区;住宅小区","typecode":"120302","address":"民治大道466号","location":"114.039097,22.626677","transed_lng":114.0340065011077,"transed_lat":22.62942359373051,"cityname":"深圳市","adname":"龙华区"},{"id":"B02F37WNJ2","name":"香山里","type":"商务住宅;住宅区;住宅小区","typecode":"120302","address":"香山西街8号","location":"113.973708,22.553519","transed_lng":113.96877656178387,"transed_lat":22.556462731993765,"cityname":"深圳市","adname":"南山区"},{"id":"B02F309R21","name":"翠枫豪园","type":"商务住宅;住宅区;住宅小区","typecode":"120302","address":"布吉镇水径路","location":"114.103292,22.612004","transed_lng":114.09816816639606,"transed_lat":22.614678006081487,"cityname":"深圳市","adname":"龙岗区"},{"id":"B02F37VG1T","name":"锦林新居","type":"商务住宅;住宅区;住宅小区","typecode":"120302","address":"梅华路238-13号","location":"114.03986,22.562839","transed_lng":114.03477222728664,"transed_lat":22.565592353938573,"cityname":"深圳市","adname":"福田区"},{"id":"B02F309W01","name":"海悦华城","type":"商务住宅;住宅区;住宅小区","typecode":"120302","address":"裕亨路50号","location":"114.070155,22.516772","transed_lng":114.06503171063903,"transed_lat":22.519472031665124,"cityname":"深圳市","adname":"福田区"},{"id":"B02F3024A9","name":"深圳湾花园","type":"商务住宅;住宅区;住宅小区","typecode":"120302","address":"沙河东路188号","location":"113.965575,22.54254","transed_lng":113.96066159865015,"transed_lat":22.545506152438914,"cityname":"深圳市","adname":"南山区"},{"id":"B02F300318","name":"大地花园","type":"商务住宅;住宅区;住宅小区","typecode":"120302","address":"太白西路4009号","location":"114.125372,22.576266","transed_lng":114.12028203992185,"transed_lat":22.578959519239515,"cityname":"深圳市","adname":"罗湖区"},{"id":"B0FFFDTN53","name":"墪溪里","type":"商务住宅;住宅区;住宅小区","typecode":"120302","address":"南新路2035号","location":"113.918536,22.525721","transed_lng":113.91367702402569,"transed_lat":22.528769134303893,"cityname":"深圳市","adname":"南山区"},{"id":"B02F37VM18","name":"今日家园(东昌路)","type":"商务住宅;住宅区;住宅小区","typecode":"120302","address":"东昌路78号","location":"114.136134,22.581274","transed_lng":114.1310656952396,"transed_lat":22.583980329988464,"cityname":"深圳市","adname":"罗湖区"},{"id":"B02F37VH4J","name":"皓月花园","type":"商务住宅;住宅区;住宅小区","typecode":"120302","address":"民康路116号","location":"114.044601,22.617463","transed_lng":114.03950127140467,"transed_lat":22.62019829109723,"cityname":"深圳市","adname":"龙华区"},{"id":"B02F37VWKS","name":"七街公馆","type":"商务住宅;住宅区;住宅小区","typecode":"120302","address":"北环大道7045号哈尔滨大厦(地铁蛇口线香梅北B3出口)","location":"114.03257,22.55771","transed_lng":114.02749688302579,"transed_lat":22.560482070709167,"cityname":"深圳市","adname":"福田区"},{"id":"B02F38JK05","name":"和平","type":"商务住宅;住宅区;住宅小区","typecode":"120302","address":"和平路","location":"113.793706,22.690472","transed_lng":113.78859663732766,"transed_lat":22.693351135140016,"cityname":"深圳市","adname":"宝安区"},{"id":"B02F37WM0Y","name":"深云村","type":"商务住宅;住宅区;住宅小区","typecode":"120302","address":"深云路28号","location":"113.992614,22.554564","transed_lng":113.98763718568105,"transed_lat":22.55745274776966,"cityname":"深圳市","adname":"南山区"},{"id":"B02F37UAHQ","name":"福景大厦","type":"商务住宅;住宅区;住宅小区","typecode":"120302","address":"福彩街29号","location":"114.069024,22.544357","transed_lng":114.06389964431555,"transed_lat":22.547057046256864,"cityname":"深圳市","adname":"福田区"},{"id":"B02F37V1US","name":"龙山","type":"商务住宅;住宅区;住宅小区","typecode":"120302","address":"金康路","location":"114.402364,22.749913","transed_lng":114.39740901696715,"transed_lat":22.75255168390888,"cityname":"深圳市","adname":"坪山区"},