[{"id":"B02F38P710","name":"表演场","type":"体育休闲服务;影剧院;剧场","typecode":"080603","address":"月亮湾青青街1号青青世界内","location":"113.900060,22.497840","transed_lng":113.89519628832305,"transed_lat":22.500894993918127,"cityname":"深圳市","adname":"南山区"},{"id":"B02F38T9SV","name":"开心超市小剧场","type":"体育休闲服务;影剧院;剧场","typecode":"080603","address":"新安二路74号","location":"113.911005,22.559941","transed_lng":113.90614318905978,"transed_lat":22.562991157739184,"cityname":"深圳市","adname":"宝安区"},{"id":"B0FFFD92QD","name":"咕咕钟舞台","type":"体育休闲服务;影剧院;剧场","typecode":"080603","address":"东部华侨城","location":"114.277973,22.632219","transed_lng":114.27314564283357,"transed_lat":22.635058587563318,"cityname":"深圳市","adname":"盐田区"},{"id":"B0FFFDJZL5","name":"海菲德剧场","type":"体育休闲服务;影剧院;剧场","typecode":"080603","address":"东部华侨城","location":"114.304703,22.610099","transed_lng":114.29985243738692,"transed_lat":22.612905117930662,"cityname":"深圳市","adname":"盐田区"},{"id":"B0FFFDHDJR","name":"东部华侨城露天剧场","type":"体育休闲服务;影剧院;剧场","typecode":"080603","address":"东部华侨城","location":"114.306330,22.605677","transed_lng":114.30147763202483,"transed_lat":22.608481001110572,"cityname":"深圳市","adname":"盐田区"},{"id":"B0FFGDG7XI","name":"兴东社区文化活动舞台","type":"体育休闲服务;影剧院;剧场","typecode":"080603","address":"兴东社区","location":"113.916705,22.581806","transed_lng":113.91184256986483,"transed_lat":22.58485082507701,"cityname":"深圳市","adname":"宝安区"},{"id":"B0FFH5FAQA","name":"欢乐世界","type":"体育休闲服务;影剧院;剧场","typecode":"080603","address":"湖贝路2014号附近","location":"114.126637,22.546401","transed_lng":114.12155136646655,"transed_lat":22.54909865703378,"cityname":"深圳市","adname":"罗湖区"},{"id":"B0FFH0S7R8","name":"深圳戏院-5号厅","type":"体育休闲服务;影剧院;剧场","typecode":"080603","address":"新园路3号中海商城F1","location":"114.116800,22.546048","transed_lng":114.11169739791973,"transed_lat":22.548736361988468,"cityname":"深圳市","adname":"罗湖区"},{"id":"B0FFJ23AM9","name":"A8Live音乐现场","type":"体育休闲服务;影剧院;剧场","typecode":"080603","address":"科园路1002号A8音乐大厦2层","location":"113.938639,22.522443","transed_lng":113.93376884892011,"transed_lat":22.525467333885477,"cityname":"深圳市","adname":"南山区"},{"id":"B0FFJ30EQL","name":"聚橙院线","type":"体育休闲服务;影剧院;剧场","typecode":"080603","address":"南头街62号","location":"113.923107,22.536076","transed_lng":113.91824644965976,"transed_lat":22.539119712578902,"cityname":"深圳市","adname":"南山区"},{"id":"B0FFFPIRD8","name":"南山区文体中心剧院-贵宾(入口)","type":"体育休闲服务;影剧院;剧场","typecode":"080603","address":"南山大道南山区文体中心","location":"113.922356,22.536505","transed_lng":113.91749564260664,"transed_lat":22.539549389433557,"cityname":"深圳市","adname":"南山区"},{"id":"B0FFHUFL1N","name":"MC全息影剧院","type":"体育休闲服务;影剧院;剧场","typecode":"080603","address":"下沙京基滨河时代广场B1层","location":"114.026286,22.528578","transed_lng":114.02122829452316,"transed_lat":22.53136889282457,"cityname":"深圳市","adname":"福田区"},{"id":"B02F38STJJ","name":"海雅大剧院","type":"体育休闲服务;影剧院;剧场","typecode":"080603","address":"建安一路99号海雅缤纷城","location":"113.90609,22.560674","transed_lng":113.90122623197335,"transed_lat":22.563725547417302,"cityname":"深圳市","adname":"宝安区"},{"id":"B02F38SYS4","name":"现代演艺中心","type":"体育休闲服务;影剧院;剧场","typecode":"080603","address":"红荔西路莲花三村演艺中心大厦","location":"114.070515,22.548071","transed_lng":114.06538945136596,"transed_lat":22.550768889909442,"cityname":"深圳市","adname":"福田区"},{"id":"B0FFF6XWJQ","name":"少年宫剧场","type":"体育休闲服务;影剧院;剧场","typecode":"080603","address":"福中一路2002号","location":"114.061976,22.547236","transed_lng":114.0568573289662,"transed_lat":22.54994604836294,"cityname":"深圳市","adname":"福田区"},{"id":"B0FFH0Z5YW","name":"龙潭公园-中心舞台","type":"体育休闲服务;影剧院;剧场","typecode":"080603","address":"长兴南路西150米","location":"114.243441,22.722261","transed_lng":114.23860192235358,"transed_lat":22.72509354758994,"cityname":"深圳市","adname":"龙岗区"},{"id":"B0FFI3N1D9","name":"聚橙剧院院线","type":"体育休闲服务;影剧院;剧场","typecode":"080603","address":"景田东路与莲花路交叉口西南200米","location":"114.044712,22.552320","transed_lng":114.03961632090345,"transed_lat":22.55506300253108,"cityname":"深圳市","adname":"福田区"},{"id":"B0FFFHC0BY","name":"星空剧场","type":"体育休闲服务;影剧院;剧场","typecode":"080603","address":"福强路3008号石厦戏剧主题馆","location":"114.051556,22.517204","transed_lng":114.04645193020401,"transed_lat":22.519934461514033,"cityname":"深圳市","adname":"福田区"},{"id":"B0FFIVPCSP","name":"嘉行小剧场","type":"体育休闲服务;影剧院;剧场","typecode":"080603","address":"景田东路32号附近","location":"114.046415,22.552142","transed_lng":114.0413165132314,"transed_lat":22.554881243855643,"cityname":"深圳市","adname":"福田区"},{"id":"B0FFGFYW77","name":"谭海酒店歌剧院","type":"体育休闲服务;影剧院;剧场","typecode":"080603","address":"广深公路松岗段44号(沙井松岗工业区广深路和潭头路交汇处)","location":"113.848985,22.749613","transed_lng":113.84401396044773,"transed_lat":22.752574041632148,"cityname":"深圳市","adname":"宝安区"},{"id":"B0FFI3N0KB","name":"深圳市妇女大厦儿童剧场","type":"体育休闲服务;影剧院;剧场","typecode":"080603","address":"景田东路与莲花路交叉口西南200米","location":"114.044382,22.552356","transed_lng":114.0392868769224,"transed_lat":22.555099741985707,"cityname":"深圳市","adname":"福田区"},{"id":"B02F37UQR0","name":"黑土地剧场","type":"体育休闲服务;影剧院;剧场","typecode":"080603","address":"红荔路5003号3层西侧","location":"114.070429,22.547830","transed_lng":114.06530351911086,"transed_lat":22.55052801414774,"cityname":"深圳市","adname":"福田区"},{"id":"B0FFFD4IX2","name":"西乡乐谷","type":"体育休闲服务;影剧院;剧场","typecode":"080603","address":"西乡街道宝民2路112号","location":"113.882923,22.581339","transed_lng":113.87803394163383,"transed_lat":22.5843811959366,"cityname":"深圳市","adname":"宝安区"},{"id":"B0FFGBHPAG","name":"宜和购物400演播厅","type":"体育休闲服务;影剧院;剧场","typecode":"080603","address":"怡景路2010号深圳广播电影电视集团大楼C102","location":"114.139457,22.557855","transed_lng":114.13439770545021,"transed_lat":22.56056853598995,"cityname":"深圳市","adname":"罗湖区"},{"id":"B0FFFDO35W","name":"东部华侨城大剧院","type":"体育休闲服务;影剧院;剧场","typecode":"080603","address":"大梅沙东部华侨城景区内","location":"114.275813,22.633501","transed_lng":114.27098656572248,"transed_lat":22.636342474531656,"cityname":"深圳市","adname":"盐田区"},{"id":"B02F38TS9F","name":"周不错曲艺社","type":"体育休闲服务;影剧院;剧场","typecode":"080603","address":"香蜜湖体育中心二期内","location":"114.033371,22.548282","transed_lng":114.02829684370312,"transed_lat":22.551052759647597,"cityname":"深圳市","adname":"福田区"},{"id":"B02F38UKTB","name":"港城曲艺城","type":"体育休闲服务;影剧院;剧场","typecode":"080603","address":"和平路1002号","location":"114.117431,22.528488","transed_lng":114.11233051852851,"transed_lat":22.531177919461296,"cityname":"深圳市","adname":"罗湖区"},{"id":"B0FFHZSH79","name":"爱说美斯小剧场","type":"体育休闲服务;影剧院;剧场","typecode":"080603","address":"梅陇路1866美斯学谷二层","location":"114.030152,22.625687","transed_lng":114.02507956233667,"transed_lat":22.62845654601566,"cityname":"深圳市","adname":"龙华区"},{"id":"B02F38P6X2","name":"老戏台","type":"体育休闲服务;影剧院;剧场","typecode":"080603","address":"深南大道9003号中国民俗文化村","location":"113.988510,22.531767","transed_lng":113.9835448804315,"transed_lat":22.534669597608367,"cityname":"深圳市","adname":"南山区"},{"id":"B02F38SYXM","name":"印象中国剧场","type":"体育休闲服务;影剧院;剧场","typecode":"080603","address":"深南大道9003号中国民俗文化村","location":"113.986340,22.530959","transed_lng":113.98138027861921,"transed_lat":22.5338680789782,"cityname":"深圳市","adname":"南山区"},{"id":"B02F3007CC","name":"深圳大剧院","type":"体育休闲服务;影剧院;剧场","typecode":"080603","address":"深南东路5016号京基百纳空间(KKMALL)购物中心4层","location":"114.105513,22.542714","transed_lng":114.10039592306204,"transed_lat":22.545396410771474,"cityname":"深圳市","adname":"罗湖区"},{"id":"B02F37U61I","name":"保利剧院","type":"体育休闲服务;影剧院;剧场","typecode":"080603","address":"后海滨路3013号","location":"113.938736,22.516336","transed_lng":113.93386613496013,"transed_lat":22.519360401250708,"cityname":"深圳市","adname":"南山区"},{"id":"B02F301B3F","name":"石岩影剧院","type":"体育休闲服务;影剧院;剧场","typecode":"080603","address":"宝石东路385号","location":"113.938750,22.679520","transed_lng":113.93386978192649,"transed_lat":22.68252196501316,"cityname":"深圳市","adname":"宝安区"},{"id":"B02F37WLD3","name":"龙岗文化中心大剧院","type":"体育休闲服务;影剧院;剧场","typecode":"080603","address":"龙岗文化中心A区2层","location":"114.250213,22.720464","transed_lng":114.24537907380146,"transed_lat":22.723297818374014,"cityname":"深圳市","adname":"龙岗区"},{"id":"B02F305ID8","name":"风华大剧院","type":"体育休闲服务;影剧院;剧场","typecode":"080603","address":"蛇口公园路49号(近四海公园)","location":"113.924451,22.496541","transed_lng":113.91959248240309,"transed_lat":22.499584685027052,"cityname":"深圳市","adname":"南山区"},{"id":"B02F38IP76","name":"深圳湾公园日出剧场","type":"体育休闲服务;影剧院;剧场","typecode":"080603","address":"望海路深圳湾公园c2区","location":"113.953327,22.499183","transed_lng":113.94843875900047,"transed_lat":22.50217990468264,"cityname":"深圳市","adname":"南山区"},{"id":"B0FFHLE0F0","name":"刘老根拿来一壶嗨晚宴剧院","type":"体育休闲服务;影剧院;剧场","typecode":"080603","address":"红荔西路5001号现代演艺中心","location":"114.070404,22.547996","transed_lng":114.06527852347999,"transed_lat":22.550694032715576,"cityname":"深圳市","adname":"福田区"},{"id":"B02F37V8B6","name":"深圳万丰影剧院","type":"体育休闲服务;影剧院;电影院|体育休闲服务;影剧院;剧场","typecode":"080601|080603","address":"新沙路285号","location":"113.826927,22.726961","transed_lng":113.82189895123871,"transed_lat":22.729888165559952,"cityname":"深圳市","adname":"宝安区"},{"id":"B02F38OXVS","name":"欢乐剧场(汇文楼西)","type":"体育休闲服务;影剧院;剧场","typecode":"080603","address":"华侨城侨城西路欢乐谷内","location":"113.980563,22.539518","transed_lng":113.97561666611746,"transed_lat":22.542443443712042,"cityname":"深圳市","adname":"南山区"},{"id":"B02F38JJXG","name":"福永大剧院","type":"体育休闲服务;影剧院;剧场","typecode":"080603","address":"福永大道11号","location":"113.824714,22.671414","transed_lng":113.81968356956321,"transed_lat":22.674351245836675,"cityname":"深圳市","adname":"宝安区"},{"id":"B0FFF4B5VP","name":"罗湖文化公园-欢乐世界剧场","type":"体育休闲服务;影剧院;剧场","typecode":"080603","address":"湖贝路2012号","location":"114.126416,22.546405","transed_lng":114.12132994548585,"transed_lat":22.549102410678543,"cityname":"深圳市","adname":"罗湖区"},{"id":"B02F38NIRN","name":"欢乐剧场(建安大厦西北)(暂停营业)","type":"体育休闲服务;影剧院;剧场","typecode":"080603","address":"园博园南门","location":"114.003325,22.535258","transed_lng":113.99832234641426,"transed_lat":22.538115683498475,"cityname":"深圳市","adname":"福田区"},{"id":"B0FFG9KUCC","name":"深圳市振鹏京剧院","type":"体育休闲服务;影剧院;剧场","typecode":"080603","address":"桂园路三巷36号桂园文化站六楼","location":"114.112437,22.547768","transed_lng":114.10732796429056,"transed_lat":22.55045324281409,"cityname":"深圳市","adname":"罗湖区"},{"id":"B02F37VB2N","name":"新金龙玉凤演艺中心","type":"体育休闲服务;影剧院;剧场","typecode":"080603","address":"凤凰路197号工纺大厦1层","location":"114.131818,22.546616","transed_lng":114.1267426871135,"transed_lat":22.549319854132403,"cityname":"深圳市","adname":"罗湖区"},{"id":"B02F38PGWI","name":"欢乐海岸水秀剧场(白石路店)","type":"体育休闲服务;影剧院;剧场","typecode":"080603","address":"白石路东8号欢乐海岸深蓝秘境水秀剧场","location":"113.991238,22.522304","transed_lng":113.98626669759132,"transed_lat":22.525198885188395,"cityname":"深圳市","adname":"南山区"},{"id":"B0FFHEJVKH","name":"南园社区粤剧社","type":"体育休闲服务;影剧院;剧场","typecode":"080603","address":"德馨街3号","location":"113.917799,22.519208","transed_lng":113.91294048936685,"transed_lat":22.522256938591113,"cityname":"深圳市","adname":"南山区"},{"id":"B0FFIR3JB9","name":"华润城剧场(装修中)","type":"体育休闲服务;影剧院;剧场","typecode":"080603","address":"科发路19号华润城万象天地内(万象天地里巷西侧)","location":"113.954971,22.542726","transed_lng":113.95007728797971,"transed_lat":22.545717585965193,"cityname":"深圳市","adname":"南山区"},{"id":"B02F38ZWMZ","name":"华夏剧院(光侨街)","type":"体育休闲服务;影剧院;剧场","typecode":"080603","address":"光侨街1号","location":"113.985622,22.534636","transed_lng":113.98066380074778,"transed_lat":22.537546997257394,"cityname":"深圳市","adname":"南山区"},{"id":"B0FFIKA2MT","name":"小橙堡微剧场","type":"体育休闲服务;影剧院;剧场","typecode":"080603","address":"南山大道2119号附近","location":"113.923761,22.536293","transed_lng":113.9189002224429,"transed_lat":22.5393360676917,"cityname":"深圳市","adname":"南山区"},{"id":"B0FFHK0G24","name":"南山实验剧场","type":"体育休闲服务;影剧院;剧场","typecode":"080603","address":"南新路2040号南影综合大楼","location":"113.918872,22.529601","transed_lng":113.91401274570684,"transed_lat":22.53264869551581,"cityname":"深圳市","adname":"南山区"},{"id":"B0FFHIU1W2","name":"Amber琥珀亲子微剧场","type":"体育休闲服务;影剧院;剧场","typecode":"080603","address":"侨城东路99号深南电路公司306室","location":"113.995902,22.539567","transed_lng":113.99091786325984,"transed_lat":22.542446922245066,"cityname":"深圳市","adname":"南山区"},{"id":"B0FFG0ZF4Z","name":"南山文体中心-儿童剧场","type":"体育休闲服务;影剧院;剧场","typecode":"080603","address":"南山大道与南头街交汇处南山文体中心","location":"113.922798,22.536254","transed_lng":113.91793753221424,"transed_lat":22.539297994066672,"cityname":"深圳市","adname":"南山区"},{"id":"B0FFFJUXP8","name":"南山文体中心剧院(聚橙院线)","type":"体育休闲服务;影剧院;剧场","typecode":"080603","address":"南山大道2106-3号","location":"113.922860,22.536401","transed_lng":113.91799950448308,"transed_lat":22.53944492711197,"cityname":"深圳市","adname":"南山区"},{"id":"B0FFHWWY19","name":"深圳华夏艺术中心大剧场","type":"体育休闲服务;影剧院;剧场","typecode":"080603","address":"华侨城光侨街1号","location":"113.985219,22.534397","transed_lng":113.98026179936448,"transed_lat":22.53730919761414,"cityname":"深圳市","adname":"南山区"},{"id":"B0FFI5EXN3","name":"深圳戏院1厅","type":"体育休闲服务;影剧院;剧场","typecode":"080603","address":"新园路与解放路交叉口西南50米","location":"114.117107,22.545767","transed_lng":114.112004890291,"transed_lat":22.548455620297688,"cityname":"深圳市","adname":"罗湖区"},{"id":"B02F3007CC","name":"深圳大剧院","type":"体育休闲服务;影剧院;剧场","typecode":"080603","address":"深南东路5016号京基百纳空间(KKMALL)购物中心4层","location":"114.105513,22.542714","transed_lng":114.10039592306204,"transed_lat":22.545396410771474,"cityname":"深圳市","adname":"罗湖区"},{"id":"B02F37U61I","name":"保利剧院","type":"体育休闲服务;影剧院;剧场","typecode":"080603","address":"后海滨路3013号","location":"113.938736,22.516336","transed_lng":113.93386613496013,"transed_lat":22.519360401250708,"cityname":"深圳市","adname":"南山区"},{"id":"B02F301B3F","name":"石岩影剧院","type":"体育休闲服务;影剧院;剧场","typecode":"080603","address":"宝石东路385号","location":"113.938750,22.679520","transed_lng":113.93386978192649,"transed_lat":22.68252196501316,"cityname":"深圳市","adname":"宝安区"},{"id":"B02F37WLD3","name":"龙岗文化中心大剧院","type":"体育休闲服务;影剧院;剧场","typecode":"080603","address":"龙岗文化中心A区2层","location":"114.250213,22.720464","transed_lng":114.24537907380146,"transed_lat":22.723297818374014,"cityname":"深圳市","adname":"龙岗区"},{"id":"B02F305ID8","name":"风华大剧院","type":"体育休闲服务;影剧院;剧场","typecode":"080603","address":"蛇口公园路49号(近四海公园)","location":"113.924451,22.496541","transed_lng":113.91959248240309,"transed_lat":22.499584685027052,"cityname":"深圳市","adname":"南山区"},{"id":"B02F38IP76","name":"深圳湾公园日出剧场","type":"体育休闲服务;影剧院;剧场","typecode":"080603","address":"望海路深圳湾公园c2区","location":"113.953327,22.499183","transed_lng":113.94843875900047,"transed_lat":22.50217990468264,"cityname":"深圳市","adname":"南山区"},{"id":"B0FFHLE0F0","name":"刘老根拿来一壶嗨晚宴剧院","type":"体育休闲服务;影剧院;剧场","typecode":"080603","address":"红荔西路5001号现代演艺中心","location":"114.070404,22.547996","transed_lng":114.06527852347999,"transed_lat":22.550694032715576,"cityname":"深圳市","adname":"福田区"},{"id":"B02F37V8B6","name":"深圳万丰影剧院","type":"体育休闲服务;影剧院;电影院|体育休闲服务;影剧院;剧场","typecode":"080601|080603","address":"新沙路285号","location":"113.826927,22.726961","transed_lng":113.82189895123871,"transed_lat":22.729888165559952,"cityname":"深圳市","adname":"宝安区"},{"id":"B02F38OXVS","name":"欢乐剧场(汇文楼西)","type":"体育休闲服务;影剧院;剧场","typecode":"080603","address":"华侨城侨城西路欢乐谷内","location":"113.980563,22.539518","transed_lng":113.97561666611746,"transed_lat":22.542443443712042,"cityname":"深圳市","adname":"南山区"},{"id":"B02F38JJXG","name":"福永大剧院","type":"体育休闲服务;影剧院;剧场","typecode":"080603","address":"福永大道11号","location":"113.824714,22.671414","transed_lng":113.81968356956321,"transed_lat":22.674351245836675,"cityname":"深圳市","adname":"宝安区"},{"id":"B0FFF4B5VP","name":"罗湖文化公园-欢乐世界剧场","type":"体育休闲服务;影剧院;剧场","typecode":"080603","address":"湖贝路2012号","location":"114.126416,22.546405","transed_lng":114.12132994548585,"transed_lat":22.549102410678543,"cityname":"深圳市","adname":"罗湖区"},{"id":"B02F38NIRN","name":"欢乐剧场(建安大厦西北)(暂停营业)","type":"体育休闲服务;影剧院;剧场","typecode":"080603","address":"园博园南门","location":"114.003325,22.535258","transed_lng":113.99832234641426,"transed_lat":22.538115683498475,"cityname":"深圳市","adname":"福田区"},{"id":"B0FFG9KUCC","name":"深圳市振鹏京剧院","type":"体育休闲服务;影剧院;剧场","typecode":"080603","address":"桂园路三巷36号桂园文化站六楼","location":"114.112437,22.547768","transed_lng":114.10732796429056,"transed_lat":22.55045324281409,"cityname":"深圳市","adname":"罗湖区"},{"id":"B02F37VB2N","name":"新金龙玉凤演艺中心","type":"体育休闲服务;影剧院;剧场","typecode":"080603","address":"凤凰路197号工纺大厦1层","location":"114.131818,22.546616","transed_lng":114.1267426871135,"transed_lat":22.549319854132403,"cityname":"深圳市","adname":"罗湖区"},{"id":"B02F38PGWI","name":"欢乐海岸水秀剧场(白石路店)","type":"体育休闲服务;影剧院;剧场","typecode":"080603","address":"白石路东8号欢乐海岸深蓝秘境水秀剧场","location":"113.991238,22.522304","transed_lng":113.98626669759132,"transed_lat":22.525198885188395,"cityname":"深圳市","adname":"南山区"},{"id":"B0FFHEJVKH","name":"南园社区粤剧社","type":"体育休闲服务;影剧院;剧场","typecode":"080603","address":"德馨街3号","location":"113.917799,22.519208","transed_lng":113.91294048936685,"transed_lat":22.522256938591113,"cityname":"深圳市","adname":"南山区"},{"id":"B0FFIR3JB9","name":"华润城剧场(装修中)","type":"体育休闲服务;影剧院;剧场","typecode":"080603","address":"科发路19号华润城万象天地内(万象天地里巷西侧)","location":"113.954971,22.542726","transed_lng":113.95007728797971,"transed_lat":22.545717585965193,"cityname":"深圳市","adname":"南山区"},{"id":"B02F38ZWMZ","name":"华夏剧院(光侨街)","type":"体育休闲服务;影剧院;剧场","typecode":"080603","address":"光侨街1号","location":"113.985622,22.534636","transed_lng":113.98066380074778,"transed_lat":22.537546997257394,"cityname":"深圳市","adname":"南山区"},{"id":"B0FFIKA2MT","name":"小橙堡微剧场","type":"体育休闲服务;影剧院;剧场","typecode":"080603","address":"南山大道2119号附近","location":"113.923761,22.536293","transed_lng":113.9189002224429,"transed_lat":22.5393360676917,"cityname":"深圳市","adname":"南山区"},{"id":"B0FFHK0G24","name":"南山实验剧场","type":"体育休闲服务;影剧院;剧场","typecode":"080603","address":"南新路2040号南影综合大楼","location":"113.918872,22.529601","transed_lng":113.91401274570684,"transed_lat":22.53264869551581,"cityname":"深圳市","adname":"南山区"},{"id":"B0FFHIU1W2","name":"Amber琥珀亲子微剧场","type":"体育休闲服务;影剧院;剧场","typecode":"080603","address":"侨城东路99号深南电路公司306室","location":"113.995902,22.539567","transed_lng":113.99091786325984,"transed_lat":22.542446922245066,"cityname":"深圳市","adname":"南山区"},{"id":"B0FFG0ZF4Z","name":"南山文体中心-儿童剧场","type":"体育休闲服务;影剧院;剧场","typecode":"080603","address":"南山大道与南头街交汇处南山文体中心","location":"113.922798,22.536254","transed_lng":113.91793753221424,"transed_lat":22.539297994066672,"cityname":"深圳市","adname":"南山区"},{"id":"B0FFFJUXP8","name":"南山文体中心剧院(聚橙院线)","type":"体育休闲服务;影剧院;剧场","typecode":"080603","address":"南山大道2106-3号","location":"113.922860,22.536401","transed_lng":113.91799950448308,"transed_lat":22.53944492711197,"cityname":"深圳市","adname":"南山区"},{"id":"B0FFHWWY19","name":"深圳华夏艺术中心大剧场","type":"体育休闲服务;影剧院;剧场","typecode":"080603","address":"华侨城光侨街1号","location":"113.985219,22.534397","transed_lng":113.98026179936448,"transed_lat":22.53730919761414,"cityname":"深圳市","adname":"南山区"},{"id":"B0FFI5EXN3","name":"深圳戏院1厅","type":"体育休闲服务;影剧院;剧场","typecode":"080603","address":"新园路与解放路交叉口西南50米","location":"114.117107,22.545767","transed_lng":114.112004890291,"transed_lat":22.548455620297688,"cityname":"深圳市","adname":"罗湖区"}]
