[{"name":"海珠广场一线商铺 宽门面方正 有餐饮功能可做任何行业 可分租","address":"侨光路海珠广场","type":"越秀区","area":"其他","floor":738,"rent_day.per_m2.":"1/20F","rent_month":"11.5","lng":258300},{"name":"富力东山新天地 紧邻渔民新村 明火餐饮功能 配超大招牌广告","address":"越秀区广州大道与中山一路交汇处富力东山新天地","type":"越秀区","area":"商业街商铺","floor":1371,"rent_day.per_m2.":"1/1F","rent_month":"4","lng":170004},{"name":"洪桥街社区12000元租两F靓铺位 真实","address":"越秀小北路洪桥街地洪桥街社区","type":"越秀区","area":"住宅底商","floor":80,"rent_day.per_m2.":"1/2F","rent_month":"4.9","lng":12000},{"name":"淘金建设五餐饮旺铺转让 可明火电力足 适合各种特色餐饮品牌进驻","address":"建设五马路","type":"越秀区","area":"住宅底商","floor":350,"rent_day.per_m2.":"1/20F","rent_month":"11.2","lng":120000},{"name":"广州北京路商圈仓边路一线临街商铺出租","address":"越秀广州市仓边路仓边路小区","type":"越秀区","area":"住宅底商","floor":90,"rent_day.per_m2.":"1/4F","rent_month":"14.6","lng":40000},{"name":"地铁口繁华地段带车位餐饮旺铺","address":"中山一路中山一路小区","type":"越秀区","area":"住宅底商","floor":350,"rent_day.per_m2.":"1/9F","rent_month":"10.3","lng":110000},{"name":"五羊新城麦当劳附近商铺出租，110方可分割","address":"寺右南路寺右南路小区","type":"越秀区","area":"住宅底商","floor":110,"rent_day.per_m2.":"1/9F","rent_month":"4.7","lng":16000},{"name":"越秀五羊新城地铁口180米；30方旺铺出租；","address":"越秀寺右南三街（南方报社东侧800米）五羊新城E区","type":"越秀区","area":"住宅底商","floor":30,"rent_day.per_m2.":"1/9F","rent_month":"10.9","lng":10000},{"name":"东华西路繁华地段 生意火爆，人流量大,稳定客流","address":"越秀越秀区东华西路东华西路小区","type":"越秀区","area":"商业街商铺","floor":200,"rent_day.per_m2.":"1/9F","rent_month":"6.5","lng":40000},{"name":"中华广场首F临街商铺繁华地段 生意火爆，人流量大,稳定客流","address":"越秀较场西路8号置地大厦","type":"越秀区","area":"商业街商铺","floor":95,"rent_day.per_m2.":"1/9F","rent_month":"14.8","lng":43000},{"name":"淘金路径餐饮旺铺繁华地段 生意火爆，人流量大,稳定客流","address":"越秀淘金东路89号淘金家园","type":"越秀区","area":"商业街商铺","floor":300,"rent_day.per_m2.":"1/9F","rent_month":"7.6","lng":70000},{"name":"东川路繁华地段 生意火爆，人流量大,稳定客流","address":"越秀越秀区东川路6号东川大厦","type":"越秀区","area":"商业街商铺","floor":35,"rent_day.per_m2.":"1/9F","rent_month":"30","lng":32000},{"name":"东川路可餐饮实用率高 租金便宜 超旺人气 机会难得 有意请速","address":"越秀越秀区东川路6号东川大厦","type":"越秀区","area":"商业街商铺","floor":400,"rent_day.per_m2.":"1/1F","rent_month":"4.5","lng":55000},{"name":"东川路繁华地段旺铺，抢手，欲租从速！！！！","address":"越秀越秀区东川路6号东川大厦","type":"越秀区","area":"商业街商铺","floor":170,"rent_day.per_m2.":"1/9F","rent_month":"7.7","lng":40000},{"name":"五羊新城繁华地段旺铺，抢手，欲租从速！！！！","address":"越秀广州大道中183号粤康阁","type":"越秀区","area":"商业街商铺","floor":200,"rent_day.per_m2.":"1/1F","rent_month":"13.1","lng":80000},{"name":"北京路繁华地段旺铺，抢手，欲租从速！！！！","address":"西湖路与北京路交界银湖大厦","type":"越秀区","area":"商业街商铺","floor":150,"rent_day.per_m2.":"1/1F","rent_month":"23","lng":105000},{"name":"寺右新马路免顶手费商业路段临街面铺位招租","address":"寺右二马路寺右市场侧冠城大厦","type":"越秀区","area":"商业街商铺","floor":200,"rent_day.per_m2.":"1/1F","rent_month":"11.8","lng":72000},{"name":"中山三路 小吃冷饮旺铺，财富机不可失！","address":"越秀越秀区东川路6号东川大厦","type":"越秀区","area":"商业街商铺","floor":20,"rent_day.per_m2.":"1/1F","rent_month":"46","lng":28000},{"name":"大沙头三马路紧邻地铁,周边配套设施齐全,性价比超高","address":"越秀大沙头三马路与绿荫路交界东山水恋","type":"越秀区","area":"商业街商铺","floor":172,"rent_day.per_m2.":"1/1F","rent_month":"13","lng":68000},{"name":"越秀新都会超人气，超级地段，行业不限！","address":"中山六路纸行路交界上品轩","type":"越秀区","area":"商业街商铺","floor":300,"rent_day.per_m2.":"1/1F","rent_month":"8.7","lng":80000},{"name":"创兴广场超人气底商90平惊艳亮相，快出手吧","address":"越秀越秀区人民北路829-831号创兴广场","type":"越秀区","area":"商业街商铺","floor":90,"rent_day.per_m2.":"1/1F","rent_month":"10.2","lng":28000},{"name":"淘金建设六一线铺 适合特色轻餐饮 有外摆 人流大广告效果一流","address":"建设六马路建设六马路商铺","type":"越秀区","area":"住宅底商","floor":130,"rent_day.per_m2.":"1/3F","rent_month":"18.9","lng":75000},{"name":"盘福路全首F大型中餐铺繁华地段 生意火爆，人流量大,稳定客流","address":"盘福路盘福路小区","type":"越秀区","area":"商业街商铺","floor":1300,"rent_day.per_m2.":"1/1F","rent_month":"2.4","lng":95000},{"name":"淘金路一线繁华地段 生意火爆，人流量大,稳定客流","address":"越秀恒福路108号至118号淘金花园","type":"越秀区","area":"商业街商铺","floor":100,"rent_day.per_m2.":"1/1F","rent_month":"13.1","lng":40000},{"name":"东川路全首F繁华地段 生意火爆，人流量大,稳定客流","address":"越秀越秀区东川路6号东川大厦","type":"越秀区","area":"商业街商铺","floor":250,"rent_day.per_m2.":"1/1F","rent_month":"10.5","lng":80000},{"name":"越秀区大型餐饮位置 繁华地段 生意火爆，人流量大,稳定客流","address":"越秀东风西路盘福路盘福路大院","type":"越秀区","area":"商业街商铺","floor":950,"rent_day.per_m2.":"1/1F","rent_month":"3.2","lng":95000},{"name":"五羊新城繁华地段 生意火爆，人流量大,稳定客流","address":"越秀东泰路28号至32号华逸锦轩","type":"越秀区","area":"商业街商铺","floor":100,"rent_day.per_m2.":"1/2F","rent_month":"14.7","lng":45000},{"name":"淘金路友谊商圈合适银行金融美容养生馆","address":"越秀恒福路108号至118号淘金花园","type":"越秀区","area":"商业街商铺","floor":680,"rent_day.per_m2.":"1/1F","rent_month":"8.7","lng":180000},{"name":"Connection timed out [tcp://192.168.0.88:6379]","address":"越秀淘金东路89号淘金家园","type":"越秀区","area":"商业街商铺","floor":300,"rent_day.per_m2.":"1/9F","rent_month":"7.6","lng":70000},{"name":"水荫路紧邻地铁,周边配套设施齐全,性价比超高","address":"越秀水荫路水荫路52号大院","type":"越秀区","area":"商业街商铺","floor":120,"rent_day.per_m2.":"1/6F","rent_month":"11.7","lng":43000},{"name":"五羊新城麦当劳附近商铺出租，110方可分割","address":"寺右南路寺右南路小区","type":"越秀区","area":"住宅底商","floor":110,"rent_day.per_m2.":"1/9F","rent_month":"5.3","lng":18000},{"name":"越秀东风路近交易广场地铁口 宽门面铺 可各行业除明火餐饮外","address":"东风中路东风中路小区","type":"越秀区","area":"其他","floor":242,"rent_day.per_m2.":"1/20F","rent_month":"17.6","lng":130000},{"name":"最后一间，物业特价出租，先到先得！！","address":"越秀东风东路与农林下路交汇处东风东路小区","type":"越秀区","area":"住宅底商","floor":28,"rent_day.per_m2.":"1/33F","rent_month":"4.7","lng":4000},{"name":"东川路繁华地段旺铺，抢手，欲租从速！！！！","address":"越秀越秀区东川路6号东川大厦","type":"越秀区","area":"商业街商铺","floor":50,"rent_day.per_m2.":"1/1F","rent_month":"36.1","lng":55000},{"name":"淘金金融街商业圈旺铺超宽广告门面","address":"越秀淘金路与淘金北路交界处淘金路","type":"越秀区","area":"住宅底商","floor":650,"rent_day.per_m2.":"1/1F","rent_month":"7.5","lng":150000},{"name":"餐饮旺铺招商浓厚消费商圈","address":"中山一立交与广州大道中交汇处富力东山新天地","type":"越秀区","area":"其他","floor":150,"rent_day.per_m2.":"1/1F","rent_month":"14.2","lng":65000},{"name":"五羊新城，珠江新城商圈，轻餐饮，百行佳宜","address":"越秀区广州大道与中山一路交汇处富力东山新天地","type":"越秀区","area":"商业街商铺","floor":96,"rent_day.per_m2.":"1/1F","rent_month":"12.6","lng":36960},{"name":"8月特价！出租东山新天地街铺162平方","address":"越秀区广州大道与中山一路交汇处富力东山新天地","type":"越秀区","area":"住宅底商","floor":162,"rent_day.per_m2.":"1/1F","rent_month":"10.3","lng":51030},{"name":"魅力好旺铺，低价出租，走过路过不要错过哦！","address":"越秀小北路应元路应元路小区","type":"越秀区","area":"住宅底商","floor":45,"rent_day.per_m2.":"1/23F","rent_month":"5.4","lng":7500},{"name":"五羊新城70方饮食铺","address":"40路;44路;90路;183路;222路;225路;811路;高峰快线81路五羊新城","type":"越秀区","area":"住宅底商","floor":78,"rent_day.per_m2.":"","rent_month":"575.3","lng":1365000},{"name":"北京路步行街旁西湖路一线铺转 宜各品牌零售行业 做饮食牌照自理","address":"西湖路西湖路小区","type":"越秀区","area":"商业街商铺","floor":75,"rent_day.per_m2.":"1/10F","rent_month":"28.4","lng":65000},{"name":"人民中儿童医/院对面75平两F宽门面商铺租 宜各行业除明火餐饮","address":"人民中路人民中路小区","type":"越秀区","area":"商业街商铺","floor":150,"rent_day.per_m2.":"1/3F","rent_month":"5.4","lng":25000},{"name":"区庄地铁口 价格超低 莫失良机海量客源","address":"越秀环市东路472号粤海大厦","type":"越秀区","area":"商业街商铺","floor":22,"rent_day.per_m2.":"1/1F","rent_month":"32.8","lng":22000},{"name":"中华广场周边繁华地段，尽享财富与人气的汇集","address":"越秀越秀区东川路6号东川大厦","type":"越秀区","area":"商业街商铺","floor":140,"rent_day.per_m2.":"1/9F","rent_month":"9.8","lng":42000},{"name":"五羊新城麦当劳附近商铺出租，250方可分割","address":"寺右南路寺右南路小区","type":"越秀区","area":"住宅底商","floor":60,"rent_day.per_m2.":"1/9F","rent_month":"4.6","lng":8500},{"name":"越秀区文德路","address":"广东省广州市越秀区文德北路68号东方文德广场","type":"越秀区","area":"商业街商铺","floor":53,"rent_day.per_m2.":"","rent_month":"18.6","lng":30000},{"name":"东湖公园对面旺铺 便宜过住宅价格 有50方独立花园可用","address":"越秀东湖西路1号至9号东湖新村","type":"越秀区","area":"住宅底商","floor":122,"rent_day.per_m2.":"1/7F","rent_month":"2.2","lng":8500},{"name":"大沙头少有一楼临街商铺 有独立花园 附近都是大型社区","address":"越秀东湖西路1号至9号东湖新村","type":"越秀区","area":"住宅底商","floor":120,"rent_day.per_m2.":"1/7F","rent_month":"2.7","lng":10000},{"name":"越秀潮人集散地 流行前线少有餐饮转让 地铁口人潮汹涌 无限商机","address":"广州市中心，中山三路与较场西路交汇处流行前线","type":"越秀区","area":"其他","floor":280,"rent_day.per_m2.":"-1/1F","rent_month":"4.9","lng":42000},{"name":"好商铺 超低价 市口好 立即抢租吧！","address":"新河浦路新河浦路小区","type":"越秀区","area":"商业街商铺","floor":820,"rent_day.per_m2.":"1/9F","rent_month":"13.6","lng":340000},{"name":"惠福东路实用率高 租金便宜 超旺人气 机会难得 有意请速","address":"越秀德政中路217号附近德政中路小区","type":"越秀区","area":"商业街商铺","floor":120,"rent_day.per_m2.":"1/9F","rent_month":"7.6","lng":28000},{"name":"北京路商圈一线街铺.吉...","address":"北京路北京路小区","type":"越秀区","area":"商业街商铺","floor":50,"rent_day.per_m2.":"1/1F","rent_month":"13.1","lng":20000},{"name":"惠福东路商诚心急租 欲租从速 好铺不等人","address":"惠福东路商铺","type":"越秀区","area":"商业街商铺","floor":120,"rent_day.per_m2.":"1/2F","rent_month":"15.3","lng":56000},{"name":"中华广场周边繁华地段，尽享财富与人气的汇集","address":"东川大厦","type":"越秀区","area":"商业街商铺","floor":140,"rent_day.per_m2.":"1/9F","rent_month":"9.8","lng":42000},{"name":"嘉和苑 10米门面 黄金商业地段 全新商铺，火热招租中！","address":"荔湾东风西路148号嘉和苑","type":"越秀区","area":"商业街商铺","floor":120,"rent_day.per_m2.":"1/9F","rent_month":"13.1","lng":48000},{"name":"富力东山新天地铺王低价放租 免顶手 免入场 地铁5号线上盖","address":"富力东山新天地广州大道与中山一路交汇处富力东山新天地","type":"越秀区","area":"住宅底商","floor":133,"rent_day.per_m2.":"1/9F","rent_month":"591.7","lng":2394000},{"name":"超人气，超级地段，旺铺含泪转租，行业不限！","address":"北京路北京路小区","type":"越秀区","area":"商业街商铺","floor":120,"rent_day.per_m2.":"1/9F","rent_month":"35","lng":128000},{"name":"餐饮老板们难得笋盘:淘金路平的餐饮靓位出租620平方","address":"站西路100号站西路100号","type":"越秀区","area":"住宅底商","floor":620,"rent_day.per_m2.":"1/2F","rent_month":"4.2","lng":80000},{"name":"越秀中华广场319平方无烟无明火特色餐饮铺.饮品店转让","address":"越秀越秀区中山三路33号中华广场","type":"越秀区","area":"商业街商铺","floor":320,"rent_day.per_m2.":"1/35F","rent_month":"11.8","lng":115000},{"name":"旺铺 五羊新城 临街地段 256平","address":"五羊新城地铁上盖五羊新城","type":"越秀区","area":"商业街商铺","floor":256,"rent_day.per_m2.":"2/11F","rent_month":"4.4","lng":35000},{"name":"水荫路动物园南门 商铺10000  原先是经营医疗方面 本人有钥匙","address":"越秀水荫路水荫直街水荫直街小区","type":"越秀区","area":"住宅底商","floor":73,"rent_day.per_m2.":"1/8F","rent_month":"4.5","lng":10000},{"name":"餐饮老板们难得笋盘:淘金路平的餐饮靓位出租620平方","address":"站西路100号站西路100号","type":"越秀区","area":"住宅底商","floor":620,"rent_day.per_m2.":"1/2F","rent_month":"80000","lng":1508666666},{"name":"紧邻地铁,周边配套设施齐全,性价比超高一般装修300平","address":"中山六路纸行路交界上品轩","type":"越秀区","area":"商业街商铺","floor":300,"rent_day.per_m2.":"1/3F","rent_month":"6.3","lng":58000},{"name":"水荫路商铺 动物园南门地铁站附近 之前是做医疗方面的 有钥匙","address":"越秀水荫路水荫直街水荫直街小区","type":"越秀区","area":"住宅底商","floor":73,"rent_day.per_m2.":"1/8F","rent_month":"4.5","lng":10000},{"name":"水荫路半沿街商铺 可租医疗保健 美容 洗衣店等等 有钥匙即看","address":"越秀水荫路水荫直街水荫直街小区","type":"越秀区","area":"住宅底商","floor":73,"rent_day.per_m2.":"1/8F","rent_month":"4.5","lng":10000},{"name":"水荫路商铺 之前是做保健护理 笋租1万 可注册 有匙即看","address":"越秀水荫路水荫直街水荫直街小区","type":"越秀区","area":"住宅底商","floor":73,"rent_day.per_m2.":"1/8F","rent_month":"4.5","lng":10000},{"name":"超好的地段!!精品商铺中等装修南北通透","address":"水荫路水荫路小区","type":"越秀区","area":"住宅底商","floor":80,"rent_day.per_m2.":"1/1F","rent_month":"5.3","lng":13000},{"name":"二沙岛最繁华地段旺铺，稀缺抢手，欲租从速！！！！","address":"晴波路15-25号岭南会","type":"越秀区","area":"其他","floor":4000,"rent_day.per_m2.":"1/6F","rent_month":"3.4","lng":420000},{"name":"旺铺整栋招租，2500方","address":"东川路东川路小区","type":"越秀区","area":"商业街商铺","floor":2500,"rent_day.per_m2.":"3/3F","rent_month":"5.9","lng":450000},{"name":"水荫路福莱花园正门旁 位置靓 可租便利店 百货 7月初可进场","address":"越秀水荫路水荫直街西六巷23号至27号福莱花园","type":"越秀区","area":"住宅底商","floor":63,"rent_day.per_m2.":"1/29F","rent_month":"4.7","lng":9000},{"name":"五羊新城80平方旺铺，人流量超大.性价比高！","address":"五羊新城地铁上盖五羊新城","type":"越秀区","area":"商业街商铺","floor":80,"rent_day.per_m2.":"1/11F","rent_month":"21.3","lng":52000},{"name":"龟岗大马路小区 商业地段 全新商铺，火热招租中！","address":"越秀龟岗大马路龟岗大马路小区","type":"越秀区","area":"住宅底商","floor":35,"rent_day.per_m2.":"1/5F","rent_month":"15","lng":16000},{"name":"无需转让费，不可明火 繁华地段，尽享财富与人气的汇集","address":"越秀应元路76号（近洪桂新街）富宏花园","type":"越秀区","area":"住宅底商","floor":90,"rent_day.per_m2.":"1/22F","rent_month":"6.5","lng":18000},{"name":"建设六马路200平 餐饮临街商铺","address":"建设六马路建设六马路商铺","type":"越秀区","area":"商业街商铺","floor":200,"rent_day.per_m2.":"1/28F","rent_month":"9.8","lng":60000},{"name":"观望是没有结果的，该出手时就出手，这才是硬道理。","address":"越秀水荫路水荫直街水荫直街小区","type":"越秀区","area":"住宅底商","floor":80,"rent_day.per_m2.":"1/8F","rent_month":"4.1","lng":10000},{"name":"水荫路略沿街商铺 近地铁站 租金便宜 车辆出入方便 有钥匙","address":"水荫路水荫路小区","type":"越秀区","area":"住宅底商","floor":210,"rent_day.per_m2.":"1/8F","rent_month":"2.3","lng":15000},{"name":"越秀先烈中路四楼大型铺租 可明火餐饮 交通方便 可谈对半分租","address":"先烈中路100-105号先烈中路小区","type":"越秀区","area":"临街商铺","floor":5200,"rent_day.per_m2.":"4/20F","rent_month":"3.2","lng":509600},{"name":"富力东山新天地 住宅底商临街新铺 百业争相进驻!!","address":"广州大道与中山一路交汇处富力东山新天地","type":"越秀区","area":"住宅底商","floor":70,"rent_day.per_m2.":"1/1F","rent_month":"12.4","lng":26600},{"name":"北京路步行街旁西湖路一线铺转 宜各品牌零售行业 做饮食牌照自理","address":"西湖路西湖路小区","type":"越秀区","area":"商业街商铺","floor":75,"rent_day.per_m2.":"1/10F","rent_month":"65000","lng":148281250},{"name":"越秀先烈中路四楼大型铺租 可明火餐饮 交通方便 可谈对半分租","address":"先烈中路100-105号先烈中路小区","type":"越秀区","area":"临街商铺","floor":5200,"rent_day.per_m2.":"4/20F","rent_month":"509600","lng":80601733333},{"name":"富力东山新天地 街铺2000-10000方适合各行业 无顶手","address":"越秀区广州大道与中山一路交汇处富力东山新天地","type":"越秀区","area":"住宅底商","floor":4000,"rent_day.per_m2.":"1/40F","rent_month":"80","lng":9733333},{"name":"富力东山新天地 临街商铺 健身/教育/明火餐饮/会所","address":"越秀区广州大道与中山一路交汇处富力东山新天地","type":"越秀区","area":"住宅底商","floor":2000,"rent_day.per_m2.":"1/40F","rent_month":"40","lng":2433333},{"name":"天河北广州大道中一线临街旺铺招租300方至2500方免 佣","address":"越秀广州市越秀区广州大道中599号泰兴商业大厦","type":"越秀区","area":"住宅底商","floor":320,"rent_day.per_m2.":"1/8F","rent_month":"220","lng":2141333},{"name":"水荫路商铺 大面积只有一套 近地铁站 租金不贵 又可以注册","address":"水荫路水荫路小区","type":"越秀区","area":"住宅底商","floor":210,"rent_day.per_m2.":"1/8F","rent_month":"15000","lng":95812500},{"name":"水荫路商铺 近地铁站 210方可以注册 可做培训 办公 仓库等等","address":"水荫路水荫路小区","type":"越秀区","area":"住宅底商","floor":210,"rent_day.per_m2.":"1/8F","rent_month":"15000","lng":95812500},{"name":"水荫路小区25平，超值超低价，聚集超多人气的商铺你懂的！","address":"水荫路水荫路小区","type":"越秀区","area":"其他","floor":25,"rent_day.per_m2.":"1/10F","rent_month":"3500","lng":2661458},{"name":"投资哦！水荫路3500元","address":"水荫路水荫路小区","type":"越秀区","area":"其他","floor":25,"rent_day.per_m2.":"1/50F","rent_month":"3500","lng":2661458},{"name":"水荫路动物园南门地铁站 商用210方 租金低 可做仓库 办公 有钥匙","address":"越秀水荫路34-45号水荫路大院","type":"越秀区","area":"住宅底商","floor":210,"rent_day.per_m2.":"1/8F","rent_month":"15000","lng":95812500},{"name":"水荫路动物园南门附近一楼210平方适合所有用途 出入方便","address":"越秀水荫路34-45号水荫路大院","type":"越秀区","area":"住宅底商","floor":210,"rent_day.per_m2.":"1/8F","rent_month":"15000","lng":95812500},{"name":"急急急！北京路好铺出租， 适合做任何行业","address":"北京路北京路小区","type":"越秀区","area":"商业街商铺","floor":150,"rent_day.per_m2.":"1/9F","rent_month":"55000","lng":250937500},{"name":"你的第一桶金，从这里开始，仓边路小区旺铺出租","address":"越秀广州市仓边路仓边路小区","type":"越秀区","area":"商业街商铺","floor":100,"rent_day.per_m2.":"1/9F","rent_month":"50000","lng":152083333},{"name":"繁华地段 生意火爆，人流量大,稳定客流","address":"越秀广州大道中183号粤康阁","type":"越秀区","area":"住宅底商","floor":100,"rent_day.per_m2.":"1/9F","rent_month":"50000","lng":152083333},{"name":"好消息好消息，绝好商铺再次来袭，稀缺好位置","address":"越秀中山四路199号至231号东鸣轩","type":"越秀区","area":"住宅底商","floor":1000,"rent_day.per_m2.":"2/9F","rent_month":"100000","lng":3041666666},{"name":"东川大厦 云集人流量大消费F次高黄金旺铺","address":"越秀越秀区东川路6号东川大厦","type":"越秀区","area":"商业街商铺","floor":120,"rent_day.per_m2.":"1/9F","rent_month":"65000","lng":237250000},{"name":"走过路过不要错过，绝对的好商铺，绝对的好地段","address":"越秀寺右新马路寺右二马路寺右新马路小区","type":"越秀区","area":"商业街商铺","floor":100,"rent_day.per_m2.":"1/9F","rent_month":"80000","lng":243333333},{"name":"水荫路大院一楼210方大面积 商用 适合所有行业用途 欢迎致电","address":"越秀水荫路34-45号水荫路大院","type":"越秀区","area":"住宅底商","floor":210,"rent_day.per_m2.":"1/8F","rent_month":"15000","lng":95812500},{"name":"商铺出租了，人气超旺","address":"越秀水荫路水荫直街水荫直街小区","type":"越秀区","area":"住宅底商","floor":210,"rent_day.per_m2.":"1/9F","rent_month":"15000","lng":95812500},{"name":"一线旺铺  美容美发类型 即看即签即入场","address":"越秀寺右二马路46号至56号寺右二马路小区","type":"越秀区","area":"住宅底商","floor":337,"rent_day.per_m2.":"1/30F","rent_month":"4.1","lng":42000},{"name":"一线旺铺  美容美发类型 即看即签即入场","address":"越秀寺右二马路46号至56号寺右二马路小区","type":"越秀区","area":"住宅底商","floor":337,"rent_day.per_m2.":"1/30F","rent_month":"4.1","lng":42000},{"name":"一线旺铺  美容美发类型 即看即签即入场","address":"越秀寺右二马路46号至56号寺右二马路小区","type":"越秀区","area":"住宅底商","floor":337,"rent_day.per_m2.":"1/30F","rent_month":"4.1","lng":42000},{"name":"一线旺铺  美容美发类型 即看即签即入场","address":"越秀寺右二马路46号至56号寺右二马路小区","type":"越秀区","area":"住宅底商","floor":337,"rent_day.per_m2.":"1/30F","rent_month":"4.1","lng":42000},{"name":"急 临街商铺 人流量大 美容 培训 餐厅首选 周边大型小区","address":"越秀黄埔大道西（近东璟街）雍景台","type":"越秀区","area":"住宅底商","floor":337,"rent_day.per_m2.":"1/24F","rent_month":"4.3","lng":45000},{"name":"急 临街商铺 人流量大 美容 培训 餐厅首选 周边大型小区","address":"越秀黄埔大道西（近东璟街）雍景台","type":"越秀区","area":"住宅底商","floor":337,"rent_day.per_m2.":"1/24F","rent_month":"4.3","lng":45000},{"name":"五羊新城商铺1室60000元绝对好位置!绝对好商铺!","address":"越秀越秀区五羊新城寺右二横路五羊新城","type":"越秀区","area":"商业街商铺","floor":72,"rent_day.per_m2.":"1/28F","rent_month":"27.4","lng":60000},{"name":"环市东路饮食商铺出租 带明火功能人流超旺位于动物园附近","address":"[越秀 环市东/区庄] 环市东路环市东路小区","type":"越秀区","area":"商业街商铺","floor":730,"rent_day.per_m2.":"1/20F","rent_month":"4","lng":90000},{"name":"越秀区淘金商圈恒福路正平北街大型餐饮位转让","address":"越秀淘金路与淘金北路交界处淘金路小区","type":"越秀区","area":"商业街商铺","floor":1400,"rent_day.per_m2.":"1/9F","rent_month":"1.7","lng":75600},{"name":"淘金路地铁口旁120平方超大人流量旺铺转让","address":"越秀淘金路与淘金北路交界处淘金路小区","type":"越秀区","area":"商业街商铺","floor":120,"rent_day.per_m2.":"1/10F","rent_month":"12.6","lng":46000},{"name":"淘金商圈大型餐饮旺铺 人流密集 低价转让","address":"越秀淘金路与淘金北路交界处淘金路小区","type":"越秀区","area":"住宅底商","floor":310,"rent_day.per_m2.":"1/2F","rent_month":"9.5","lng":90000},{"name":"淘金地铁出口 稀缺餐饮位放租 花园酒店友谊商场为邻 百业佳宜","address":"越秀淘金路与淘金北路交界处淘金路小区","type":"越秀区","area":"商业街商铺","floor":320,"rent_day.per_m2.":"1/8F","rent_month":"11.3","lng":110000},{"name":"水荫路 动物园南门附近 大面积仓库 仅租15000 车辆出入方便","address":"水荫路水荫路小区","type":"越秀区","area":"住宅底商","floor":210,"rent_day.per_m2.":"1/8F","rent_month":"15000","lng":95812500},{"name":"东华东路小区 旺铺，地段超好，投资，回报率高！","address":"越秀越秀区东华东路东华东路小区","type":"越秀区","area":"住宅底商","floor":200,"rent_day.per_m2.":"1/2F","rent_month":"35000","lng":212916666},{"name":"中华广场 日均客流30万 高消费 品牌必争之地","address":"越秀越秀区中山三路33号中华广场","type":"越秀区","area":"住宅底商","floor":620,"rent_day.per_m2.":"6/33F","rent_month":"200000","lng":3771666666},{"name":"中山三路小区 旺铺稀缺，地段超好，投资首选，回报率高！","address":"中山三路中山三路小区","type":"越秀区","area":"商业街商铺","floor":200,"rent_day.per_m2.":"1/3F","rent_month":"40000","lng":243333333},{"name":"北京路商圈文德路65方临街旺铺 低价转让宜轻餐零售","address":"[越秀 ] 文德路文德路小区","type":"越秀区","area":"住宅底商","floor":65,"rent_day.per_m2.":"1/1F","rent_month":"14.1","lng":28000},{"name":"水荫路大面积商铺 210方只租15000 可租仓库 物流 办公室等等","address":"水荫路水荫路小区","type":"越秀区","area":"住宅底商","floor":210,"rent_day.per_m2.":"1/8F","rent_month":"15000","lng":95812500},{"name":"水荫路 动物园南门地铁站210方商铺 可做快递 办公室 托管等等","address":"越秀越秀区水荫路水荫路","type":"越秀区","area":"住宅底商","floor":210,"rent_day.per_m2.":"1/8F","rent_month":"16000","lng":102200000},{"name":"租快递 办公 物流 可注册","address":"越秀水荫路水荫直街水荫直街小区","type":"越秀区","area":"住宅底商","floor":210,"rent_day.per_m2.":"1/9F","rent_month":"15000","lng":95812500},{"name":"我什么都没有 我这里只有你需要的铺子！","address":"越秀水荫路水荫直街水荫直街小区","type":"越秀区","area":"住宅底商","floor":210,"rent_day.per_m2.":"1/9F","rent_month":"16000","lng":102200000},{"name":"水荫路商铺 临街近地铁站 门面大 交通出入方便 快递教育培训都可","address":"越秀越秀区水荫路水荫路","type":"越秀区","area":"其他","floor":95,"rent_day.per_m2.":"1/8F","rent_month":"14000","lng":40454166},{"name":"水荫路黄花岗车管所旁 超人气底商铺","address":"水荫路","type":"越秀区","area":"住宅底商","floor":20,"rent_day.per_m2.":"1/10F","rent_month":"20.5","lng":12500},{"name":"水荫路小区 旺铺出租啦95方租15000 除餐饮类 其它都可以 随时看","address":"水荫路","type":"越秀区","area":"住宅底商","floor":95,"rent_day.per_m2.":"3/8F","rent_month":"5.1","lng":15000},{"name":"水荫路商铺火热招租，发财之路从这里开始","address":"水荫路","type":"越秀区","area":"住宅底商","floor":95,"rent_day.per_m2.":"3/8F","rent_month":"5.5","lng":16000},{"name":"水荫路 动物园南门附近商铺火热出租 培训 美容美发 随时可以看房","address":"水荫路","type":"越秀区","area":"住宅底商","floor":95,"rent_day.per_m2.":"3/8F","rent_month":"5.5","lng":16000},{"name":"水荫路二流商铺 95方16000 培训 办公 美容美发 快递 门面大","address":"水荫路","type":"越秀区","area":"住宅底商","floor":95,"rent_day.per_m2.":"3/8F","rent_month":"5.5","lng":16000},{"name":"最后一间，物业特价出租，先到先得！！","address":"越秀水荫路水荫直街西六巷23号至27号福莱花园","type":"越秀区","area":"住宅底商","floor":260,"rent_day.per_m2.":"1/2F","rent_month":"1.9","lng":15000},{"name":"水荫路黄金旺铺，16000元 稀缺，性价比高！","address":"水荫路","type":"越秀区","area":"住宅底商","floor":95,"rent_day.per_m2.":"1/8F","rent_month":"5.5","lng":16000},{"name":"出租精品商铺，1400平，黄金位置，随时看房","address":"广州大道中611号嘉诚国际公寓","type":"越秀区","area":"住宅底商","floor":1400,"rent_day.per_m2.":"4/40F","rent_month":"3.9","lng":168000},{"name":"动物园南门附近 旺铺出租啦95方租15000 除餐饮类 其它都可以","address":"水荫路","type":"越秀区","area":"住宅底商","floor":95,"rent_day.per_m2.":"3/8F","rent_month":"5.5","lng":16000},{"name":"魅力好旺铺 低价出租 可做餐饮 发廊 足疗  可明火","address":"明月二路明月二路小区","type":"越秀区","area":"商业街商铺","floor":70,"rent_day.per_m2.":"1/9F","rent_month":"4.7","lng":10000},{"name":"越秀区 花果山 7千方独栋 租客含泪 转让！ （原计划做康复中心）","address":"环市中路美美街花果山庄","type":"越秀区","area":"其他","floor":7000,"rent_day.per_m2.":"1/7F","rent_month":"1.4","lng":300000},{"name":"临街底商出租 走过路过不要错过！！！","address":"越秀水荫路水荫直街水荫直街小区","type":"越秀区","area":"住宅底商","floor":50,"rent_day.per_m2.":"1/8F","rent_month":"3.9","lng":6000},{"name":"这个价格打着灯笼也难找啊 欢迎来电 绝对货真价实啊","address":"三元里大道瑶华街瑶台花园","type":"越秀区","area":"住宅底商","floor":120,"rent_day.per_m2.":"1/9F","rent_month":"1.1","lng":4300},{"name":"魅力好旺铺 低价出租 可做餐饮 发廊 足疗  可明火","address":"明月二路明月二路小区","type":"越秀区","area":"商业街商铺","floor":70,"rent_day.per_m2.":"1/9F","rent_month":"4.7","lng":10000},{"name":"魅力好旺铺 低价出租 可做餐饮 发廊 足疗  可明火","address":"明月二路明月二路小区","type":"越秀区","area":"商业街商铺","floor":70,"rent_day.per_m2.":"1/9F","rent_month":"4.7","lng":10000},{"name":"建设六马路200平 餐饮临街商铺 云集人流量大消费F次高黄金旺铺","address":"建设六马路建设六马路商铺","type":"越秀区","area":"商业街商铺","floor":200,"rent_day.per_m2.":"1/28F","rent_month":"9.8","lng":60000},{"name":"东山一般装修28000元550平难找房子","address":"德政中路德政中路小区","type":"越秀区","area":"其他","floor":550,"rent_day.per_m2.":"1/1F","rent_month":"1.6","lng":28000},{"name":"五羊新城小区  超旺人流   地铁口   有大堂  有车位","address":"五羊新城小区","type":"越秀区","area":"住宅底商","floor":5000,"rent_day.per_m2.":"1/1F","rent_month":"4.4","lng":675000},{"name":"魅力好旺铺 低价出租 可做餐饮 发廊 足疗  可明火","address":"明月二路明月二路小区","type":"越秀区","area":"商业街商铺","floor":70,"rent_day.per_m2.":"1/9F","rent_month":"4.7","lng":10000},{"name":"五羊新城 东泰路广铁一中旁 一楼街铺  超笋急租","address":"寺右二马路（直入广铁一中北行100m）五羊华轩","type":"越秀区","area":"住宅底商","floor":52,"rent_day.per_m2.":"1/24F","rent_month":"6.3","lng":10000},{"name":"五羊新城 东泰路一楼门面街铺 附近电梯豪宅林立 超笋铺面急租","address":"寺右二马路（直入广铁一中北行100m）五羊华轩","type":"越秀区","area":"住宅底商","floor":410,"rent_day.per_m2.":"1/24F","rent_month":"2.8","lng":35000},{"name":"这个价格打着灯笼也难找啊 欢迎来电 绝对货真价实啊","address":"三元里大道瑶华街瑶台花园","type":"越秀区","area":"住宅底商","floor":120,"rent_day.per_m2.":"1/9F","rent_month":"1.1","lng":4300},{"name":"东山口东华东路旺铺出租超笋价格带有阁楼！！！","address":"东华东路东华东路小区","type":"越秀区","area":"住宅底商","floor":60,"rent_day.per_m2.":"1/3F","rent_month":"6.5","lng":12000},{"name":"车可开到门口，带车位，可办公注册公司，可住人可做仓库","address":"三元里大道瑶华街瑶台花园","type":"越秀区","area":"住宅底商","floor":120,"rent_day.per_m2.":"1/9F","rent_month":"1.1","lng":4300},{"name":"五羊新城 东泰路广铁一中旁 一楼街铺  超笋急租","address":"寺右二马路（直入广铁一中北行100m）五羊华轩","type":"越秀区","area":"其他","floor":52,"rent_day.per_m2.":"1/24F","rent_month":"6.3","lng":10000},{"name":"五羊新城 东泰路一楼门面街铺 附近电梯豪宅林立 超笋铺面急租","address":"寺右二马路（直入广铁一中北行100m）五羊华轩","type":"越秀区","area":"其他","floor":410,"rent_day.per_m2.":"1/24F","rent_month":"2.8","lng":35000},{"name":"海珠广场批发市场商圈独栋餐饮旺铺 可明火即租即用","address":"起义路商铺","type":"越秀区","area":"临街商铺","floor":350,"rent_day.per_m2.":"1/4F","rent_month":"3.3","lng":35300},{"name":"北京路步行街商圈餐饮旺铺低价转让 即租即用","address":"越秀越秀区文明路文明路小区","type":"越秀区","area":"其他","floor":670,"rent_day.per_m2.":"2/3F","rent_month":"5.7","lng":118000},{"name":"有停车位，可办公可做仓库，可住人，两F","address":"三元里大道瑶华街瑶台花园","type":"越秀区","area":"住宅底商","floor":120,"rent_day.per_m2.":"1/9F","rent_month":"1.1","lng":4300},{"name":"超大商铺出租，两F，可办公注册公司放货也行","address":"三元里大道瑶华街瑶台花园","type":"越秀区","area":"住宅底商","floor":120,"rent_day.per_m2.":"1/9F","rent_month":"1.1","lng":4300},{"name":"无顶手北京路繁华商圈大型餐饮旺铺 人流密集","address":"北京南路","type":"越秀区","area":"临街商铺","floor":618,"rent_day.per_m2.":"1/4F","rent_month":"6.9","lng":130000},{"name":"有停车位，可办公可做仓库，可住人，两F","address":"三元里大道瑶华街瑶台花园","type":"越秀区","area":"住宅底商","floor":120,"rent_day.per_m2.":"1/9F","rent_month":"1.1","lng":4300},{"name":"超大商铺出租，两F，可办公注册公司放货也行","address":"三元里大道瑶华街瑶台花园","type":"越秀区","area":"住宅底商","floor":120,"rent_day.per_m2.":"1/9F","rent_month":"1.1","lng":4300},{"name":"中山六路临街独栋旺铺 可明火 人流旺","address":"越秀中山六路中山六路商铺","type":"越秀区","area":"住宅底商","floor":280,"rent_day.per_m2.":"1/3F","rent_month":"4.2","lng":36000},{"name":"五羊新城 东泰路一楼门面街铺 附近电梯豪宅林立 超笋铺面急租","address":"寺右二马路（直入广铁一中北行100m）五羊华轩","type":"越秀区","area":"住宅底商","floor":410,"rent_day.per_m2.":"1/24F","rent_month":"2.8","lng":35000},{"name":"中山六路临街独栋旺铺 可明火 人流旺","address":"越秀中山六路中山六路商铺","type":"越秀区","area":"住宅底商","floor":280,"rent_day.per_m2.":"1/3F","rent_month":"4.2","lng":36000},{"name":"五羊新城 东泰路广铁一中旁 一楼街铺  超笋急租","address":"寺右二马路（直入广铁一中北行100m）五羊华轩","type":"越秀区","area":"住宅底商","floor":52,"rent_day.per_m2.":"1/24F","rent_month":"6.3","lng":10000},{"name":"建设六马路350平繁华地段 餐饮临街商铺,稳定客流","address":"建设六马路建设六马路商铺","type":"越秀区","area":"商业街商铺","floor":350,"rent_day.per_m2.":"1/28F","rent_month":"6.1","lng":65000},{"name":"黄金地段首F旺铺出租 人气旺 周边很多大型小区 有复试可住人","address":"寺右二马路（直入广铁一中北行100m）五羊华轩","type":"越秀区","area":"住宅底商","floor":60,"rent_day.per_m2.":"1/24F","rent_month":"5.2","lng":9500},{"name":"临街底商出租 可以做奶茶 早餐 附近中学 人流大 大型小区","address":"杨箕西路金山阁","type":"越秀区","area":"住宅底商","floor":20,"rent_day.per_m2.":"1/24F","rent_month":"4.6","lng":2800},{"name":"建设六马路150平繁华地段 餐饮临街商铺人流量大,稳定客流","address":"建设六马路建设六马路商铺","type":"越秀区","area":"商业街商铺","floor":150,"rent_day.per_m2.":"1/28F","rent_month":"25.2","lng":115000},{"name":"地王广场冷饮小吃头位 中山三商圈的时尚消费集中地 带外摆","address":"越秀较场西路18号地王广场（越秀）","type":"越秀区","area":"商业街商铺","floor":18,"rent_day.per_m2.":"1/1F","rent_month":"32.8","lng":18000},{"name":"中华广场旁中山三路一线旺铺 烈士陵园流行前线等多个商业街围绕","address":"越秀越秀区中山三路中华广场","type":"越秀区","area":"商业街商铺","floor":1950,"rent_day.per_m2.":"1/6F","rent_month":"3.9","lng":234000},{"name":"区庄地铁上盖商铺转让人流超多繁华地段","address":"广州市农林下路农林下路大院","type":"越秀区","area":"住宅底商","floor":60,"rent_day.per_m2.":"1/1F","rent_month":"8","lng":14600},{"name":"荔湾区惠福西路商铺48平方诚心急租 欲租从速 好铺不等人","address":"惠福西路商铺","type":"越秀区","area":"商业街商铺","floor":48,"rent_day.per_m2.":"1/9F","rent_month":"8.8","lng":12900},{"name":"光孝路商铺 稀缺铺位等您来租！抓紧时间，过时不候！","address":"光孝路商铺","type":"越秀区","area":"商业街商铺","floor":140,"rent_day.per_m2.":"1/1F","rent_month":"9.3","lng":40000},{"name":"公园前地铁上盖，旺铺出租，人流量大，商业气氛浓郁","address":"越秀中山五路193至215号百汇广场","type":"越秀区","area":"其他","floor":328,"rent_day.per_m2.":"2/28F","rent_month":"7","lng":70000},{"name":"东川路首F二楼1200方适酒店展示教育","address":"东川路","type":"越秀区","area":"其他","floor":1200,"rent_day.per_m2.":"1/2F","rent_month":"4.9","lng":180000},{"name":"公园前地铁上盖，旺铺出租，人流量大，商业气氛浓郁","address":"越秀中山五路193至215号百汇广场","type":"越秀区","area":"其他","floor":328,"rent_day.per_m2.":"2/28F","rent_month":"7","lng":70000},{"name":"东川路首F二楼1200方适酒店展示教育","address":"东川路","type":"越秀区","area":"其他","floor":1200,"rent_day.per_m2.":"1/2F","rent_month":"4.9","lng":180000},{"name":"建设六马路150平繁华地段 餐饮临街商铺人流量大,稳定客流","address":"建设六马路建设六马路商铺","type":"越秀区","area":"商业街商铺","floor":150,"rent_day.per_m2.":"1/28F","rent_month":"24.1","lng":110000},{"name":"连新路 黄金商业地段 全新商铺，火热招租中！","address":"连新路","type":"越秀区","area":"商业街商铺","floor":760,"rent_day.per_m2.":"1/4F","rent_month":"3.8","lng":90000},{"name":"大沙头三马路临街一线旺铺，多个电器，手机批发城旁","address":"大沙头三马路","type":"越秀区","area":"商业街商铺","floor":170,"rent_day.per_m2.":"1/9F","rent_month":"面议","lng":7},{"name":"公园前地铁上盖，旺铺出租，人流量大，商业气氛浓郁","address":"越秀中山五路193至215号百汇广场","type":"越秀区","area":"其他","floor":328,"rent_day.per_m2.":"2/28F","rent_month":"7","lng":70000},{"name":"纸行路,周边繁华,适合各种业态,位置极佳","address":"纸行路","type":"越秀区","area":"住宅底商","floor":43,"rent_day.per_m2.":"1/3F","rent_month":"7.6","lng":10000},{"name":"光孝路商铺 稀缺铺位等您来租！抓紧时间，过时不候！","address":"光孝路商铺","type":"越秀区","area":"商业街商铺","floor":140,"rent_day.per_m2.":"1/1F","rent_month":"9.3","lng":40000},{"name":"北京路商圈独栋6F餐饮旺铺 邻近医院北京路步行街","address":"大南路散盘","type":"越秀区","area":"临街商铺","floor":599,"rent_day.per_m2.":"1/6F","rent_month":"6","lng":110000},{"name":"寺右新马路商铺35平精品商铺出租，位置绝对很好","address":"寺右新马路商铺","type":"越秀区","area":"其他","floor":35,"rent_day.per_m2.":"1/25F","rent_month":"20.6","lng":22000},{"name":"北京路步行街头位旺铺 广告位特出 广州人流最旺步行街","address":"北京路商铺","type":"越秀区","area":"商业街商铺","floor":15,"rent_day.per_m2.":"1/3F","rent_month":"142.4","lng":65000},{"name":"文明路老城区小吃饮品旺铺 靠北京路步行街 金伯利广场对面","address":"文明路","type":"越秀区","area":"住宅底商","floor":20,"rent_day.per_m2.":"1/5F","rent_month":"24.6","lng":15000},{"name":"越秀区大型商住楼盘底商 独栋物业 具餐饮功能 百业佳宜","address":"小区名称","type":"越秀区","area":"其他","floor":4800,"rent_day.per_m2.":"1/5F","rent_month":"6.1","lng":900000},{"name":"流行前线主通道稀缺旺铺 商业街地段 连通中华广场和地铁口","address":"中山三路","type":"越秀区","area":"商业街商铺","floor":30,"rent_day.per_m2.":"-1/1F","rent_month":"63.5","lng":58000},{"name":"赚钱小金铺，地段超好，秒杀一切！！！","address":"越秀越秀区中山三路33号中华广场","type":"越秀区","area":"住宅底商","floor":50,"rent_day.per_m2.":"1/9F","rent_month":"23","lng":35000},{"name":"赚钱小金铺，地段超好，秒杀一切！！！","address":"越秀越秀区中山三路33号中华广场","type":"越秀区","area":"住宅底商","floor":50,"rent_day.per_m2.":"1/9F","rent_month":"23","lng":35000},{"name":"你的第一桶金，从这里开始，惠福东路商铺旺铺出租饮食商铺","address":"惠福东路商铺","type":"越秀区","area":"商业街商铺","floor":240,"rent_day.per_m2.":"1/2F","rent_month":"19.8","lng":145000},{"name":"农林下路 商铺 出租步行商业街品牌应有尽有","address":"农林下路农林下路小区","type":"越秀区","area":"商业街商铺","floor":100,"rent_day.per_m2.":"1/9F","rent_month":"21.3","lng":65000},{"name":"寺右新马路商铺35平精品商铺出租，位置绝对很好","address":"寺右新马路商铺","type":"越秀区","area":"其他","floor":35,"rent_day.per_m2.":"1/25F","rent_month":"20.6","lng":22000},{"name":"赚钱小金铺，地段超好，秒杀一切！！！","address":"越秀越秀区中山三路33号中华广场","type":"越秀区","area":"住宅底商","floor":50,"rent_day.per_m2.":"1/9F","rent_month":"23","lng":35000},{"name":"大新路商铺 旺铺稀缺，地段超好，投资首选，回报率高！","address":"大新路商铺","type":"越秀区","area":"住宅底商","floor":400,"rent_day.per_m2.":"1/3F","rent_month":"3.1","lng":38000},{"name":"大德路 独立旺铺，可做餐饮回报率高，财富机不可失！","address":"大德路","type":"越秀区","area":"住宅底商","floor":180,"rent_day.per_m2.":"1/3F","rent_month":"4.5","lng":25000},{"name":"广州旺地旺铺招租北京路近在咫尺，西湖路商铺火热招商快手者得。","address":"北京路商铺","type":"越秀区","area":"商业街商铺","floor":600,"rent_day.per_m2.":"1/9F","rent_month":"8.5","lng":156000},{"name":"寺右新马路商铺40平，潜力低价，聚集超多人气的商铺你懂的！","address":"寺右新马路商铺","type":"越秀区","area":"商业街商铺","floor":40,"rent_day.per_m2.":"1/28F","rent_month":"27.1","lng":33000},{"name":"建设六马路一线商铺出租 人流超旺商业街铺","address":"建设六马路","type":"越秀区","area":"商业街商铺","floor":130,"rent_day.per_m2.":"1/23F","rent_month":"22.7","lng":90000},{"name":"越秀区建设六马路一线路面餐饮旺铺转让","address":"建设五马路商铺","type":"越秀区","area":"其他","floor":810,"rent_day.per_m2.":"1/28F","rent_month":"6.2","lng":153900},{"name":"光孝路商铺 稀缺铺位等您来租！抓紧时间，过时不候！","address":"光孝路商铺","type":"越秀区","area":"商业街商铺","floor":140,"rent_day.per_m2.":"1/1F","rent_month":"9.3","lng":40000},{"name":"连新路 黄金商业地段 全新商铺，火热招租中！","address":"连新路","type":"越秀区","area":"商业街商铺","floor":760,"rent_day.per_m2.":"1/4F","rent_month":"3.8","lng":90000},{"name":"纸行路,周边繁华,适合各种业态,位置极佳","address":"纸行路","type":"越秀区","area":"住宅底商","floor":43,"rent_day.per_m2.":"1/3F","rent_month":"7.6","lng":10000},{"name":"大沙头三马路临街一线旺铺，多个电器，手机批发城旁","address":"大沙头三马路","type":"越秀区","area":"商业街商铺","floor":170,"rent_day.per_m2.":"1/9F","rent_month":"面议","lng":7},{"name":"公园前地铁上盖，旺铺出租，人流量大，商业气氛浓郁","address":"越秀中山五路193至215号百汇广场","type":"越秀区","area":"其他","floor":328,"rent_day.per_m2.":"2/28F","rent_month":"7","lng":70000},{"name":"光孝路商铺 稀缺铺位等您来租！抓紧时间，过时不候！","address":"光孝路商铺","type":"越秀区","area":"商业街商铺","floor":140,"rent_day.per_m2.":"1/1F","rent_month":"9.3","lng":40000},{"name":"东川路首F二楼1200方适酒店展示教育","address":"东川路","type":"越秀区","area":"其他","floor":1200,"rent_day.per_m2.":"1/2F","rent_month":"4.9","lng":180000},{"name":"连新路 黄金商业地段 全新商铺，火热招租中！","address":"连新路","type":"越秀区","area":"商业街商铺","floor":760,"rent_day.per_m2.":"1/4F","rent_month":"3.8","lng":90000},{"name":"大沙头三马路临街一线旺铺，多个电器，手机批发城旁","address":"大沙头三马路","type":"越秀区","area":"商业街商铺","floor":170,"rent_day.per_m2.":"1/9F","rent_month":"面议","lng":7},{"name":"公园前地铁上盖，旺铺出租，人流量大，商业气氛浓郁","address":"越秀中山五路193至215号百汇广场","type":"越秀区","area":"其他","floor":328,"rent_day.per_m2.":"2/28F","rent_month":"7","lng":70000},{"name":"光孝路商铺 稀缺铺位等您来租！抓紧时间，过时不候！","address":"光孝路商铺","type":"越秀区","area":"商业街商铺","floor":140,"rent_day.per_m2.":"1/1F","rent_month":"9.3","lng":40000},{"name":"文明路老城区旺铺 左靠写字楼 右靠中山图书馆 位置绝佳 百业佳宜","address":"文明路","type":"越秀区","area":"住宅底商","floor":330,"rent_day.per_m2.":"1/5F","rent_month":"3.7","lng":38000},{"name":"越秀区写字楼酒店底商 月租2万 包牌包设备餐饮旺铺","address":"六榕路","type":"越秀区","area":"其他","floor":101,"rent_day.per_m2.":"1/25F","rent_month":"6.5","lng":20000},{"name":"连新路 黄金商业地段 全新商铺，火热招租中！","address":"连新路","type":"越秀区","area":"商业街商铺","floor":760,"rent_day.per_m2.":"1/4F","rent_month":"3.8","lng":90000},{"name":"大沙头三马路临街一线旺铺，多个电器，手机批发城旁","address":"大沙头三马路","type":"越秀区","area":"商业街商铺","floor":170,"rent_day.per_m2.":"1/9F","rent_month":"面议","lng":7},{"name":"公园前地铁上盖，旺铺出租，人流量大，商业气氛浓郁","address":"越秀中山五路193至215号百汇广场","type":"越秀区","area":"其他","floor":328,"rent_day.per_m2.":"2/28F","rent_month":"7","lng":70000},{"name":"纸行路,周边繁华,适合各种业态,位置极佳","address":"纸行路","type":"越秀区","area":"住宅底商","floor":43,"rent_day.per_m2.":"1/3F","rent_month":"7.6","lng":10000},{"name":"光孝路商铺 稀缺铺位等您来租！抓紧时间，过时不候！","address":"光孝路商铺","type":"越秀区","area":"商业街商铺","floor":140,"rent_day.per_m2.":"1/1F","rent_month":"9.3","lng":40000}]
